{"msg":"获取成功！","end_at":"2024-03-19 10:08:23","data":{"type":"FeatureCollection","features":[{"type":"Feature","geometry":{"type":"Point","coordinates":[116.45927,39.910022]},"properties":{"region_id":"17757744397993346360","region_name":"国贸商城","intensity":3,"avg_speed":11.4,"crowd_value_zs":32.83,"crowd_value_yj":3.773,"area":"朝阳区","sort":1}},{"type":"Feature","geometry":{"type":"Point","coordinates":[116.361597,39.915633]},"properties":{"region_id":"1261284358413615103","region_name":"金融街购物中心","intensity":3,"avg_speed":10.86,"crowd_value_zs":5.5,"crowd_value_yj":3.74,"area":"西城区","sort":2}},{"type":"Feature","geometry":{"type":"Point","coordinates":[116.342209,39.906523]},"properties":{"region_id":"18015059376099819519","region_name":"首都博物馆","intensity":3,"avg_speed":13.17,"crowd_value_zs":1.64,"crowd_value_yj":3.6,"area":"西城区","sort":3}},{"type":"Feature","geometry":{"type":"Point","coordinates":[116.439401,39.921894]},"properties":{"region_id":"9467191543118956872","region_name":"悠唐购物中心","intensity":3,"avg_speed":10.89,"crowd_value_zs":9.7,"crowd_value_yj":3.597,"area":"朝阳区","sort":4}},{"type":"Feature","geometry":{"type":"Point","coordinates":[116.450189,39.995028]},"properties":{"region_id":"4383920057314974320","region_name":"望京长途汽车站","intensity":3,"avg_speed":16.31,"crowd_value_zs":0.03,"crowd_value_yj":3.562,"area":"朝阳区","sort":5}},{"type":"Feature","geometry":{"type":"Point","coordinates":[116.372827,39.91092]},"properties":{"region_id":"1266498491660632063","region_name":"西单大悦城","intensity":3,"avg_speed":10.19,"crowd_value_zs":8.54,"crowd_value_yj":3.148,"area":"西城区","sort":6}},{"type":"Feature","geometry":{"type":"Point","coordinates":[116.479006,39.910392]},"properties":{"region_id":"7911666840484095579","region_name":"北京SKP","intensity":3,"avg_speed":14.93,"crowd_value_zs":8.35,"crowd_value_yj":3.136,"area":"朝阳区","sort":7}},{"type":"Feature","geometry":{"type":"Point","coordinates":[116.498712,39.907026]},"properties":{"region_id":"12292938966280332686","region_name":"四惠长途汽车站","intensity":3,"avg_speed":15.78,"crowd_value_zs":3.65,"crowd_value_yj":3.136,"area":"朝阳区","sort":8}},{"type":"Feature","geometry":{"type":"Point","coordinates":[116.4789,39.902852]},"properties":{"region_id":"6528797732879441553","region_name":"八王坟长途客运站","intensity":3,"avg_speed":14.87,"crowd_value_zs":0.6,"crowd_value_yj":3.064,"area":"朝阳区","sort":9}},{"type":"Feature","geometry":{"type":"Point","coordinates":[116.454401,39.934874]},"properties":{"region_id":"3533637183791185754","region_name":"三里屯太古里","intensity":3,"avg_speed":14.3,"crowd_value_zs":5.2,"crowd_value_yj":3.049,"area":"朝阳区","sort":10}},{"type":"Feature","geometry":{"type":"Point","coordinates":[116.484138,39.902279]},"properties":{"region_id":"5950954953792827921","region_name":"北京东站","intensity":3,"avg_speed":15.36,"crowd_value_zs":0.23,"crowd_value_yj":3.018,"area":"朝阳区","sort":11}},{"type":"Feature","geometry":{"type":"Point","coordinates":[116.323637,39.909208]},"properties":{"region_id":"18014901407202672639","region_name":"中国人民革命军事博物馆","intensity":3,"avg_speed":16.49,"crowd_value_zs":1.78,"crowd_value_yj":2.962,"area":"海淀区","sort":12}},{"type":"Feature","geometry":{"type":"Point","coordinates":[116.386206,39.937126]},"properties":{"region_id":"18015055828456833023","region_name":"恭王府","intensity":3,"avg_speed":14.55,"crowd_value_zs":1.7,"crowd_value_yj":2.942,"area":"西城区","sort":13}},{"type":"Feature","geometry":{"type":"Point","coordinates":[116.389099,39.926623]},"properties":{"region_id":"18015055970190753791","region_name":"北海公园","intensity":3,"avg_speed":9.9,"crowd_value_zs":6.79,"crowd_value_yj":2.939,"area":"西城区","sort":14}},{"type":"Feature","geometry":{"type":"Point","coordinates":[116.339338,39.99195]},"properties":{"region_id":"15659768155374028542","region_name":"五道口购物中心","intensity":3,"avg_speed":15.0,"crowd_value_zs":10.22,"crowd_value_yj":2.893,"area":"海淀区","sort":15}},{"type":"Feature","geometry":{"type":"Point","coordinates":[116.437893,39.944035]},"properties":{"region_id":"18017247150836023295","region_name":"东直门长途汽车站","intensity":3,"avg_speed":15.26,"crowd_value_zs":0.01,"crowd_value_yj":2.878,"area":"东城区","sort":16}},{"type":"Feature","geometry":{"type":"Point","coordinates":[116.355783,39.860656]},"properties":{"region_id":"6257335232301394152","region_name":"万达广场(北京丰台西铁营店)","intensity":3,"avg_speed":19.18,"crowd_value_zs":13.36,"crowd_value_yj":2.803,"area":"丰台区","sort":17}},{"type":"Feature","geometry":{"type":"Point","coordinates":[116.303333,40.006534]},"properties":{"region_id":"6106353448263079230","region_name":"圆明园遗址公园","intensity":3,"avg_speed":19.97,"crowd_value_zs":10.08,"crowd_value_yj":2.793,"area":"海淀区","sort":18}},{"type":"Feature","geometry":{"type":"Point","coordinates":[116.315705,40.04133]},"properties":{"region_id":"16143970484830296023","region_name":"清河站","intensity":3,"avg_speed":17.34,"crowd_value_zs":25.46,"crowd_value_yj":2.719,"area":"海淀区","sort":19}},{"type":"Feature","geometry":{"type":"Point","coordinates":[116.491504,39.969838]},"properties":{"region_id":"1266589871384821759","region_name":"颐堤港购物中心","intensity":3,"avg_speed":15.16,"crowd_value_zs":9.04,"crowd_value_yj":2.716,"area":"朝阳区","sort":20}},{"type":"Feature","geometry":{"type":"Point","coordinates":[116.427069,39.903409]},"properties":{"region_id":"18315513517457535669","region_name":"北京站","intensity":3,"avg_speed":14.55,"crowd_value_zs":17.91,"crowd_value_yj":2.663,"area":"东城区","sort":21}},{"type":"Feature","geometry":{"type":"Point","coordinates":[116.482703,39.943996]},"properties":{"region_id":"7533503064527805627","region_name":"朝阳公园","intensity":3,"avg_speed":17.71,"crowd_value_zs":29.03,"crowd_value_yj":2.648,"area":"朝阳区","sort":22}},{"type":"Feature","geometry":{"type":"Point","coordinates":[116.32153,39.895032]},"properties":{"region_id":"3072853961715086480","region_name":"北京西站","intensity":3,"avg_speed":17.72,"crowd_value_zs":60.74,"crowd_value_yj":2.631,"area":"丰台区","sort":23}},{"type":"Feature","geometry":{"type":"Point","coordinates":[116.402514,39.937221]},"properties":{"region_id":"468669607183015305","region_name":"南锣鼓巷","intensity":3,"avg_speed":16.28,"crowd_value_zs":47.06,"crowd_value_yj":2.631,"area":"东城区","sort":24}},{"type":"Feature","geometry":{"type":"Point","coordinates":[116.396454,39.925934]},"properties":{"region_id":"10310520154542602253","region_name":"景山公园","intensity":3,"avg_speed":11.23,"crowd_value_zs":5.74,"crowd_value_yj":2.604,"area":"西城区","sort":25}},{"type":"Feature","geometry":{"type":"Point","coordinates":[116.50586,40.035586]},"properties":{"region_id":"1266768761067667455","region_name":"北京赛特奥莱","intensity":3,"avg_speed":17.14,"crowd_value_zs":4.64,"crowd_value_yj":2.575,"area":"朝阳区","sort":26}},{"type":"Feature","geometry":{"type":"Point","coordinates":[116.382304,39.942377]},"properties":{"region_id":"1266817130989355007","region_name":"后海公园","intensity":3,"avg_speed":16.61,"crowd_value_zs":0.48,"crowd_value_yj":2.47,"area":"西城区","sort":27}},{"type":"Feature","geometry":{"type":"Point","coordinates":[116.344162,39.825567]},"properties":{"region_id":"15737124483197176298","region_name":"新发地长途客运站","intensity":3,"avg_speed":22.93,"crowd_value_zs":0.9,"crowd_value_yj":2.457,"area":"丰台区","sort":28}},{"type":"Feature","geometry":{"type":"Point","coordinates":[116.31998,39.916647]},"properties":{"region_id":"18014896949026619391","region_name":"玉渊潭公园","intensity":3,"avg_speed":17.51,"crowd_value_zs":5.5,"crowd_value_yj":2.439,"area":"海淀区","sort":29}},{"type":"Feature","geometry":{"type":"Point","coordinates":[116.334117,40.030252]},"properties":{"region_id":"1260176407175102463","region_name":"华润·五彩城","intensity":3,"avg_speed":24.88,"crowd_value_zs":7.84,"crowd_value_yj":2.402,"area":"海淀区","sort":30}},{"type":"Feature","geometry":{"type":"Point","coordinates":[116.475583,39.949621]},"properties":{"region_id":"1319700238932534953","region_name":"蓝色港湾国际商区","intensity":3,"avg_speed":20.35,"crowd_value_zs":8.08,"crowd_value_yj":2.401,"area":"朝阳区","sort":31}},{"type":"Feature","geometry":{"type":"Point","coordinates":[116.392799,39.992915]},"properties":{"region_id":"6461345429361330425","region_name":"北京奥林匹克公园","intensity":3,"avg_speed":21.48,"crowd_value_zs":100.99,"crowd_value_yj":2.31,"area":"朝阳区","sort":32}},{"type":"Feature","geometry":{"type":"Point","coordinates":[116.384727,39.941346]},"properties":{"region_id":"17662073747961544703","region_name":"什刹海公园","intensity":3,"avg_speed":17.72,"crowd_value_zs":16.51,"crowd_value_yj":2.259,"area":"西城区","sort":33}},{"type":"Feature","geometry":{"type":"Point","coordinates":[116.379024,39.865115]},"properties":{"region_id":"16775196246402579752","region_name":"北京南站","intensity":3,"avg_speed":20.62,"crowd_value_zs":59.78,"crowd_value_yj":2.253,"area":"丰台区","sort":34}},{"type":"Feature","geometry":{"type":"Point","coordinates":[116.315203,39.978326]},"properties":{"region_id":"1266491069957144575","region_name":"新中关购物中心","intensity":3,"avg_speed":20.38,"crowd_value_zs":7.66,"crowd_value_yj":2.225,"area":"海淀区","sort":35}},{"type":"Feature","geometry":{"type":"Point","coordinates":[116.396531,39.998875]},"properties":{"region_id":"7818853748595960069","region_name":"新奥购物中心","intensity":3,"avg_speed":20.04,"crowd_value_zs":20.55,"crowd_value_yj":2.221,"area":"朝阳区","sort":36}},{"type":"Feature","geometry":{"type":"Point","coordinates":[116.208928,39.912107]},"properties":{"region_id":"11494741657487324089","region_name":"北京石景山游乐园","intensity":3,"avg_speed":25.41,"crowd_value_zs":2.79,"crowd_value_yj":2.184,"area":"石景山区","sort":37}},{"type":"Feature","geometry":{"type":"Point","coordinates":[116.480216,39.894052]},"properties":{"region_id":"17782244892192108837","region_name":"合生汇","intensity":3,"avg_speed":18.07,"crowd_value_zs":19.49,"crowd_value_yj":2.177,"area":"朝阳区","sort":38}},{"type":"Feature","geometry":{"type":"Point","coordinates":[116.410175,39.913655]},"properties":{"region_id":"7115859662029159132","region_name":"北京市百货大楼","intensity":3,"avg_speed":13.75,"crowd_value_zs":5.72,"crowd_value_yj":2.15,"area":"东城区","sort":39}},{"type":"Feature","geometry":{"type":"Point","coordinates":[116.411732,39.915076]},"properties":{"region_id":"15664384697326130381","region_name":"apm","intensity":3,"avg_speed":13.87,"crowd_value_zs":7.52,"crowd_value_yj":2.139,"area":"东城区","sort":40}},{"type":"Feature","geometry":{"type":"Point","coordinates":[116.390401,40.018926]},"properties":{"region_id":"8126318526947185955","region_name":"奥林匹克森林公园","intensity":3,"avg_speed":23.88,"crowd_value_zs":30.32,"crowd_value_yj":2.136,"area":"朝阳区","sort":41}},{"type":"Feature","geometry":{"type":"Point","coordinates":[116.397048,39.917752]},"properties":{"region_id":"1266270544861331455","region_name":"故宫博物院","intensity":3,"avg_speed":13.85,"crowd_value_zs":4.15,"crowd_value_yj":2.136,"area":"东城区","sort":42}},{"type":"Feature","geometry":{"type":"Point","coordinates":[116.225289,39.906416]},"properties":{"region_id":"12143831334509486044","region_name":"万达广场(北京石景山店)","intensity":3,"avg_speed":25.92,"crowd_value_zs":10.22,"crowd_value_yj":2.103,"area":"石景山区","sort":43}},{"type":"Feature","geometry":{"type":"Point","coordinates":[116.239118,40.21235]},"properties":{"region_id":"12222349881131792705","region_name":"悦荟万科广场","intensity":3,"avg_speed":21.38,"crowd_value_zs":5.69,"crowd_value_yj":2.092,"area":"昌平区","sort":44}},{"type":"Feature","geometry":{"type":"Point","coordinates":[116.417219,39.947414]},"properties":{"region_id":"9181799210512451274","region_name":"雍和宫","intensity":3,"avg_speed":20.4,"crowd_value_zs":10.2,"crowd_value_yj":2.069,"area":"东城区","sort":45}},{"type":"Feature","geometry":{"type":"Point","coordinates":[116.401641,39.905114]},"properties":{"region_id":"18015005611699208191","region_name":"中国国家博物馆","intensity":3,"avg_speed":14.39,"crowd_value_zs":14.34,"crowd_value_yj":2.06,"area":"东城区","sort":46}},{"type":"Feature","geometry":{"type":"Point","coordinates":[116.294957,39.972985]},"properties":{"region_id":"1266541600247382015","region_name":"北京华联(万柳购物中心)","intensity":3,"avg_speed":24.2,"crowd_value_zs":7.26,"crowd_value_yj":2.011,"area":"海淀区","sort":47}},{"type":"Feature","geometry":{"type":"Point","coordinates":[116.272342,39.998543]},"properties":{"region_id":"18014896244651982847","region_name":"颐和园","intensity":3,"avg_speed":27.93,"crowd_value_zs":11.87,"crowd_value_yj":2.009,"area":"海淀区","sort":48}},{"type":"Feature","geometry":{"type":"Point","coordinates":[116.23117,40.231514]},"properties":{"region_id":"10860252682512898141","region_name":"昌平北站","intensity":2,"avg_speed":22.79,"crowd_value_zs":0.19,"crowd_value_yj":1.96,"area":"昌平区","sort":49}},{"type":"Feature","geometry":{"type":"Point","coordinates":[116.410175,39.85456]},"properties":{"region_id":"17745720233210937343","region_name":"祥龙赵公口长途汽车站","intensity":2,"avg_speed":22.82,"crowd_value_zs":0.99,"crowd_value_yj":1.952,"area":"丰台区","sort":50}},{"type":"Feature","geometry":{"type":"Point","coordinates":[116.336773,39.942085]},"properties":{"region_id":"18015058164919042047","region_name":"北京动物园","intensity":2,"avg_speed":23.12,"crowd_value_zs":9.88,"crowd_value_yj":1.951,"area":"西城区","sort":51}},{"type":"Feature","geometry":{"type":"Point","coordinates":[116.306179,39.87984]},"properties":{"region_id":"16999491628709796777","region_name":"六里桥客运主枢纽","intensity":2,"avg_speed":24.77,"crowd_value_zs":1.46,"crowd_value_yj":1.859,"area":"丰台区","sort":52}},{"type":"Feature","geometry":{"type":"Point","coordinates":[116.410832,39.881942]},"properties":{"region_id":"11168662261122746086","region_name":"天坛公园","intensity":2,"avg_speed":22.54,"crowd_value_zs":8.61,"crowd_value_yj":1.84,"area":"东城区","sort":53}},{"type":"Feature","geometry":{"type":"Point","coordinates":[116.352909,39.945931]},"properties":{"region_id":"3794146225074539313","region_name":"北京北站","intensity":2,"avg_speed":24.48,"crowd_value_zs":8.36,"crowd_value_yj":1.834,"area":"西城区","sort":54}},{"type":"Feature","geometry":{"type":"Point","coordinates":[116.645493,40.125967]},"properties":{"region_id":"6105772269673294324","region_name":"顺义站","intensity":1,"avg_speed":23.85,"crowd_value_zs":0.08,"crowd_value_yj":1.773,"area":"顺义区","sort":55}},{"type":"Feature","geometry":{"type":"Point","coordinates":[116.331608,39.720316]},"properties":{"region_id":"17612288635881197759","region_name":"黄村站","intensity":1,"avg_speed":31.87,"crowd_value_zs":0.81,"crowd_value_yj":1.703,"area":"大兴区","sort":56}},{"type":"Feature","geometry":{"type":"Point","coordinates":[116.327709,39.720724]},"properties":{"region_id":"15812538200642056509","region_name":"北京大兴站","intensity":1,"avg_speed":29.37,"crowd_value_zs":2.95,"crowd_value_yj":1.7,"area":"大兴区","sort":57}},{"type":"Feature","geometry":{"type":"Point","coordinates":[116.560493,40.055848]},"properties":{"region_id":"7774440245718406125","region_name":"天竺客运站","intensity":1,"avg_speed":23.37,"crowd_value_zs":0.03,"crowd_value_yj":1.615,"area":"顺义区","sort":58}},{"type":"Feature","geometry":{"type":"Point","coordinates":[116.508425,39.944614]},"properties":{"region_id":"12589481030076257127","region_name":"北京朝阳站","intensity":1,"avg_speed":19.95,"crowd_value_zs":13.94,"crowd_value_yj":1.612,"area":"朝阳区","sort":59}},{"type":"Feature","geometry":{"type":"Point","coordinates":[116.892011,39.804711]},"properties":{"region_id":"4592927048094569702","region_name":"开发区客运站","intensity":1,"avg_speed":45.09,"crowd_value_zs":0.02,"crowd_value_yj":1.509,"area":"通州区","sort":60}}]}}