{"msg":"获取成功！","end_at":"2024-03-20 01:20:18","data":{"type":"FeatureCollection","features":[{"type":"Feature","geometry":{"type":"Point","coordinates":[118.585862,24.935664]},"properties":{"region_id":"18013368056633360383","region_name":"泉州博物馆","intensity":3,"avg_speed":20.91,"crowd_value_zs":0.2,"crowd_value_yj":2.191,"area":"丰泽区","sort":1}},{"type":"Feature","geometry":{"type":"Point","coordinates":[118.589954,24.935021]},"properties":{"region_id":"16512046522560887959","region_name":"中国闽台缘博物馆","intensity":3,"avg_speed":21.42,"crowd_value_zs":0.46,"crowd_value_yj":2.056,"area":"丰泽区","sort":2}},{"type":"Feature","geometry":{"type":"Point","coordinates":[118.585562,24.928116]},"properties":{"region_id":"17672729003477172223","region_name":"西湖公园","intensity":1,"avg_speed":23.91,"crowd_value_zs":1.41,"crowd_value_yj":1.771,"area":"丰泽区","sort":3}},{"type":"Feature","geometry":{"type":"Point","coordinates":[118.611769,24.945391]},"properties":{"region_id":"18013368078108196863","region_name":"清源山景区","intensity":1,"avg_speed":31.98,"crowd_value_zs":2.68,"crowd_value_yj":1.588,"area":"丰泽区","sort":4}},{"type":"Feature","geometry":{"type":"Point","coordinates":[118.473023,25.121249]},"properties":{"region_id":"18013326386860654591","region_name":"梅山汽车站","intensity":0,"avg_speed":30.94,"crowd_value_zs":0.04,"crowd_value_yj":1.456,"area":"南安市","sort":5}},{"type":"Feature","geometry":{"type":"Point","coordinates":[118.59099,24.912369]},"properties":{"region_id":"143048471311886922","region_name":"钟楼","intensity":0,"avg_speed":24.0,"crowd_value_zs":0.04,"crowd_value_yj":1.421,"area":"鲤城区","sort":6}},{"type":"Feature","geometry":{"type":"Point","coordinates":[118.922909,24.880797]},"properties":{"region_id":"2511394716511945266","region_name":"西沙湾沙滩公园","intensity":0,"avg_speed":34.34,"crowd_value_zs":0.15,"crowd_value_yj":1.413,"area":"惠安县","sort":7}},{"type":"Feature","geometry":{"type":"Point","coordinates":[118.934847,24.873677]},"properties":{"region_id":"16759325938805721015","region_name":"崇武古城风景区","intensity":0,"avg_speed":33.45,"crowd_value_zs":0.27,"crowd_value_yj":1.404,"area":"惠安县","sort":8}},{"type":"Feature","geometry":{"type":"Point","coordinates":[118.591374,24.902633]},"properties":{"region_id":"18013361017181962239","region_name":"清净古寺","intensity":0,"avg_speed":24.36,"crowd_value_zs":0.13,"crowd_value_yj":1.355,"area":"鲤城区","sort":9}},{"type":"Feature","geometry":{"type":"Point","coordinates":[118.585572,24.91425]},"properties":{"region_id":"18013361090196406271","region_name":"泉州开元寺","intensity":0,"avg_speed":27.28,"crowd_value_zs":1.14,"crowd_value_yj":1.349,"area":"鲤城区","sort":10}},{"type":"Feature","geometry":{"type":"Point","coordinates":[118.605641,24.910211]},"properties":{"region_id":"8086305818284169813","region_name":"东湖公园","intensity":0,"avg_speed":29.05,"crowd_value_zs":1.13,"crowd_value_yj":1.338,"area":"丰泽区","sort":11}},{"type":"Feature","geometry":{"type":"Point","coordinates":[118.684136,24.859669]},"properties":{"region_id":"8161690041600967488","region_name":"滨海公园","intensity":0,"avg_speed":35.87,"crowd_value_zs":0.4,"crowd_value_yj":1.337,"area":"丰泽区","sort":12}},{"type":"Feature","geometry":{"type":"Point","coordinates":[118.613708,24.918676]},"properties":{"region_id":"13129826016959726829","region_name":"南少林寺遗址","intensity":0,"avg_speed":34.37,"crowd_value_zs":0.56,"crowd_value_yj":1.329,"area":"丰泽区","sort":13}},{"type":"Feature","geometry":{"type":"Point","coordinates":[118.589957,24.903773]},"properties":{"region_id":"1259964849971003391","region_name":"中闽百汇商场(涂门街店)","intensity":0,"avg_speed":24.75,"crowd_value_zs":0.67,"crowd_value_yj":1.321,"area":"鲤城区","sort":14}},{"type":"Feature","geometry":{"type":"Point","coordinates":[118.528321,25.072466]},"properties":{"region_id":"18013326472760000511","region_name":"洪濑汽车站","intensity":0,"avg_speed":33.98,"crowd_value_zs":0.06,"crowd_value_yj":1.316,"area":"南安市","sort":15}},{"type":"Feature","geometry":{"type":"Point","coordinates":[118.291498,25.312941]},"properties":{"region_id":"14063501759503352011","region_name":"永春汽车站","intensity":0,"avg_speed":38.65,"crowd_value_zs":0.23,"crowd_value_yj":1.306,"area":"永春县","sort":16}},{"type":"Feature","geometry":{"type":"Point","coordinates":[118.23521,25.49225]},"properties":{"region_id":"18013308399537618943","region_name":"德化汽车站","intensity":0,"avg_speed":30.28,"crowd_value_zs":0.1,"crowd_value_yj":1.305,"area":"德化县","sort":17}},{"type":"Feature","geometry":{"type":"Point","coordinates":[118.292167,25.186243]},"properties":{"region_id":"18013326215061962751","region_name":"诗山汽车站","intensity":0,"avg_speed":39.3,"crowd_value_zs":0.0,"crowd_value_yj":1.299,"area":"南安市","sort":18}},{"type":"Feature","geometry":{"type":"Point","coordinates":[118.584006,24.912124]},"properties":{"region_id":"2458890963530708441","region_name":"中闽百汇商场(新华店)","intensity":0,"avg_speed":27.48,"crowd_value_zs":0.42,"crowd_value_yj":1.298,"area":"鲤城区","sort":19}},{"type":"Feature","geometry":{"type":"Point","coordinates":[118.472952,24.712654]},"properties":{"region_id":"18013405809395892223","region_name":"晋江安海汽车站","intensity":0,"avg_speed":31.31,"crowd_value_zs":0.09,"crowd_value_yj":1.296,"area":"晋江市","sort":20}},{"type":"Feature","geometry":{"type":"Point","coordinates":[118.600012,24.83252]},"properties":{"region_id":"7602723396366957011","region_name":"新城吾悦广场","intensity":0,"avg_speed":33.1,"crowd_value_zs":1.21,"crowd_value_yj":1.28,"area":"晋江市","sort":21}},{"type":"Feature","geometry":{"type":"Point","coordinates":[118.477342,24.714035]},"properties":{"region_id":"2003704035425231124","region_name":"上悦城","intensity":0,"avg_speed":32.55,"crowd_value_zs":1.22,"crowd_value_yj":1.266,"area":"晋江市","sort":22}},{"type":"Feature","geometry":{"type":"Point","coordinates":[118.459176,24.710817]},"properties":{"region_id":"6243438246053009055","region_name":"安平桥（五里桥）","intensity":0,"avg_speed":32.11,"crowd_value_zs":1.44,"crowd_value_yj":1.258,"area":"晋江市","sort":23}},{"type":"Feature","geometry":{"type":"Point","coordinates":[118.39267,24.960287]},"properties":{"region_id":"18013326734753005567","region_name":"南安汽车站","intensity":0,"avg_speed":33.51,"crowd_value_zs":0.02,"crowd_value_yj":1.255,"area":"南安市","sort":24}},{"type":"Feature","geometry":{"type":"Point","coordinates":[118.432919,24.706566]},"properties":{"region_id":"18013327413357838335","region_name":"水头汽车站","intensity":0,"avg_speed":31.63,"crowd_value_zs":0.14,"crowd_value_yj":1.253,"area":"南安市","sort":25}},{"type":"Feature","geometry":{"type":"Point","coordinates":[118.913203,25.128853]},"properties":{"region_id":"18013366922761994239","region_name":"泉港汽车站","intensity":0,"avg_speed":34.83,"crowd_value_zs":0.13,"crowd_value_yj":1.251,"area":"泉港区","sort":26}},{"type":"Feature","geometry":{"type":"Point","coordinates":[118.570607,24.88428]},"properties":{"region_id":"7301107809626744034","region_name":"百捷上悦城","intensity":0,"avg_speed":36.29,"crowd_value_zs":1.22,"crowd_value_yj":1.242,"area":"晋江市","sort":27}},{"type":"Feature","geometry":{"type":"Point","coordinates":[118.594442,24.893107]},"properties":{"region_id":"11002489129534151695","region_name":"泉州新车站","intensity":0,"avg_speed":31.16,"crowd_value_zs":0.7,"crowd_value_yj":1.241,"area":"丰泽区","sort":28}},{"type":"Feature","geometry":{"type":"Point","coordinates":[118.588759,24.895233]},"properties":{"region_id":"1777429892751111810","region_name":"泉州天后宫","intensity":0,"avg_speed":31.03,"crowd_value_zs":0.16,"crowd_value_yj":1.239,"area":"鲤城区","sort":29}},{"type":"Feature","geometry":{"type":"Point","coordinates":[118.595027,24.894786]},"properties":{"region_id":"1262698459215953919","region_name":"大洋百货(泉州店)","intensity":0,"avg_speed":30.21,"crowd_value_zs":1.23,"crowd_value_yj":1.236,"area":"丰泽区","sort":30}},{"type":"Feature","geometry":{"type":"Point","coordinates":[118.622389,24.718672]},"properties":{"region_id":"8316979134675803967","region_name":"世茂摩天城","intensity":0,"avg_speed":30.42,"crowd_value_zs":0.93,"crowd_value_yj":1.223,"area":"石狮市","sort":31}},{"type":"Feature","geometry":{"type":"Point","coordinates":[118.638618,24.873486]},"properties":{"region_id":"16839613990372843647","region_name":"东海泰禾广场","intensity":0,"avg_speed":49.6,"crowd_value_zs":6.01,"crowd_value_yj":1.22,"area":"丰泽区","sort":32}},{"type":"Feature","geometry":{"type":"Point","coordinates":[118.566637,24.802258]},"properties":{"region_id":"15312272669935175147","region_name":"宝龙城市广场","intensity":0,"avg_speed":32.21,"crowd_value_zs":1.69,"crowd_value_yj":1.217,"area":"晋江市","sort":33}},{"type":"Feature","geometry":{"type":"Point","coordinates":[118.578626,24.800265]},"properties":{"region_id":"18013404538085572607","region_name":"晋江长途汽车站","intensity":0,"avg_speed":30.56,"crowd_value_zs":0.23,"crowd_value_yj":1.215,"area":"晋江市","sort":34}},{"type":"Feature","geometry":{"type":"Point","coordinates":[118.593317,24.79489]},"properties":{"region_id":"13841960857336671613","region_name":"泉州晋江国际机场","intensity":0,"avg_speed":31.68,"crowd_value_zs":4.04,"crowd_value_yj":1.215,"area":"晋江市","sort":35}},{"type":"Feature","geometry":{"type":"Point","coordinates":[118.639023,24.920747]},"properties":{"region_id":"1563032735612688197","region_name":"泉州东站","intensity":0,"avg_speed":55.84,"crowd_value_zs":0.17,"crowd_value_yj":1.214,"area":"丰泽区","sort":36}},{"type":"Feature","geometry":{"type":"Point","coordinates":[118.650414,24.73034]},"properties":{"region_id":"18013344876694863871","region_name":"德辉广场","intensity":0,"avg_speed":26.85,"crowd_value_zs":1.09,"crowd_value_yj":1.214,"area":"石狮市","sort":37}},{"type":"Feature","geometry":{"type":"Point","coordinates":[118.09943,25.02142]},"properties":{"region_id":"18013387676043968511","region_name":"安溪官桥汽车站","intensity":0,"avg_speed":44.61,"crowd_value_zs":0.14,"crowd_value_yj":1.207,"area":"安溪县","sort":38}},{"type":"Feature","geometry":{"type":"Point","coordinates":[118.61357,24.71573]},"properties":{"region_id":"8290224224074432048","region_name":"石狮服装城-客运站","intensity":0,"avg_speed":32.45,"crowd_value_zs":0.49,"crowd_value_yj":1.207,"area":"石狮市","sort":39}},{"type":"Feature","geometry":{"type":"Point","coordinates":[118.599315,24.882408]},"properties":{"region_id":"14324469640239215355","region_name":"万达广场(浦西店)","intensity":0,"avg_speed":42.04,"crowd_value_zs":6.64,"crowd_value_yj":1.197,"area":"丰泽区","sort":40}},{"type":"Feature","geometry":{"type":"Point","coordinates":[118.566577,24.778283]},"properties":{"region_id":"6909676101098581581","region_name":"泉州晋江SM国际广场","intensity":0,"avg_speed":36.06,"crowd_value_zs":2.07,"crowd_value_yj":1.194,"area":"晋江市","sort":41}},{"type":"Feature","geometry":{"type":"Point","coordinates":[118.647343,24.929889]},"properties":{"region_id":"3700790998565047490","region_name":"华大泰禾广场","intensity":0,"avg_speed":52.4,"crowd_value_zs":3.0,"crowd_value_yj":1.194,"area":"丰泽区","sort":42}},{"type":"Feature","geometry":{"type":"Point","coordinates":[118.611381,24.885676]},"properties":{"region_id":"1068973704353753832","region_name":"泉州客运中心汽车站","intensity":0,"avg_speed":43.36,"crowd_value_zs":1.03,"crowd_value_yj":1.19,"area":"丰泽区","sort":43}},{"type":"Feature","geometry":{"type":"Point","coordinates":[118.658723,24.920218]},"properties":{"region_id":"548371945806981025","region_name":"中骏·世界城","intensity":0,"avg_speed":43.95,"crowd_value_zs":1.05,"crowd_value_yj":1.186,"area":"丰泽区","sort":44}},{"type":"Feature","geometry":{"type":"Point","coordinates":[118.807327,25.030805]},"properties":{"region_id":"18013336303940141055","region_name":"惠安汽车站","intensity":0,"avg_speed":32.47,"crowd_value_zs":0.03,"crowd_value_yj":1.185,"area":"惠安县","sort":45}},{"type":"Feature","geometry":{"type":"Point","coordinates":[118.657922,24.916425]},"properties":{"region_id":"11515143929115526668","region_name":"万达广场(泉州城东店)","intensity":0,"avg_speed":44.35,"crowd_value_zs":1.45,"crowd_value_yj":1.181,"area":"丰泽区","sort":46}},{"type":"Feature","geometry":{"type":"Point","coordinates":[118.573907,24.8186]},"properties":{"region_id":"7187419110043131102","region_name":"万达广场(晋江店)","intensity":0,"avg_speed":31.73,"crowd_value_zs":2.26,"crowd_value_yj":1.179,"area":"晋江市","sort":47}},{"type":"Feature","geometry":{"type":"Point","coordinates":[118.585795,24.818439]},"properties":{"region_id":"18013404529495638015","region_name":"晋江汽车站","intensity":0,"avg_speed":29.89,"crowd_value_zs":0.14,"crowd_value_yj":1.174,"area":"晋江市","sort":48}},{"type":"Feature","geometry":{"type":"Point","coordinates":[118.645718,24.737554]},"properties":{"region_id":"11753570264259950967","region_name":"石狮泰禾广场","intensity":0,"avg_speed":28.83,"crowd_value_zs":2.12,"crowd_value_yj":1.172,"area":"石狮市","sort":49}},{"type":"Feature","geometry":{"type":"Point","coordinates":[118.578654,24.817626]},"properties":{"region_id":"495000163342306884","region_name":"晋江五店市","intensity":0,"avg_speed":30.68,"crowd_value_zs":1.23,"crowd_value_yj":1.171,"area":"晋江市","sort":50}},{"type":"Feature","geometry":{"type":"Point","coordinates":[118.566936,24.972957]},"properties":{"region_id":"9964537484318310299","region_name":"泉州站","intensity":0,"avg_speed":57.42,"crowd_value_zs":7.91,"crowd_value_yj":1.169,"area":"南安市","sort":51}},{"type":"Feature","geometry":{"type":"Point","coordinates":[118.4593,24.794363]},"properties":{"region_id":"10398395162992571508","region_name":"晋江站","intensity":0,"avg_speed":38.09,"crowd_value_zs":3.06,"crowd_value_yj":1.15,"area":"晋江市","sort":52}},{"type":"Feature","geometry":{"type":"Point","coordinates":[118.623869,24.740746]},"properties":{"region_id":"6097130110871999144","region_name":"狮城国际广场","intensity":0,"avg_speed":31.17,"crowd_value_zs":0.38,"crowd_value_yj":1.136,"area":"石狮市","sort":53}},{"type":"Feature","geometry":{"type":"Point","coordinates":[118.535912,24.744063]},"properties":{"region_id":"14294348740199707410","region_name":"万业汇","intensity":0,"avg_speed":49.97,"crowd_value_zs":0.72,"crowd_value_yj":1.129,"area":"晋江市","sort":54}},{"type":"Feature","geometry":{"type":"Point","coordinates":[118.883104,24.894949]},"properties":{"region_id":"1051650972640274177","region_name":"青山湾旅游区","intensity":0,"avg_speed":52.19,"crowd_value_zs":0.02,"crowd_value_yj":1.11,"area":"惠安县","sort":55}},{"type":"Feature","geometry":{"type":"Point","coordinates":[118.115644,25.684391]},"properties":{"region_id":"17827888575400640511","region_name":"九仙山风景区","intensity":0,"avg_speed":76.48,"crowd_value_zs":0.83,"crowd_value_yj":1.068,"area":"德化县","sort":56}},{"type":"Feature","geometry":{"type":"Point","coordinates":[118.432695,25.680984]},"properties":{"region_id":"17827892423691337727","region_name":"石牛山景区","intensity":0,"avg_speed":56.45,"crowd_value_zs":0.29,"crowd_value_yj":1.068,"area":"德化县","sort":57}},{"type":"Feature","geometry":{"type":"Point","coordinates":[118.649633,25.115184]},"properties":{"region_id":"18013367356553691135","region_name":"仙公山风景名胜区","intensity":0,"avg_speed":48.48,"crowd_value_zs":0.38,"crowd_value_yj":1.064,"area":"洛江区","sort":58}},{"type":"Feature","geometry":{"type":"Point","coordinates":[118.119175,25.120506]},"properties":{"region_id":"17661884528882352127","region_name":"安溪清水岩","intensity":0,"avg_speed":67.22,"crowd_value_zs":0.84,"crowd_value_yj":1.047,"area":"安溪县","sort":59}},{"type":"Feature","geometry":{"type":"Point","coordinates":[118.19731,25.04164]},"properties":{"region_id":"11935004133450307460","region_name":"安溪宝龙广场","intensity":0,"avg_speed":53.14,"crowd_value_zs":0.62,"crowd_value_yj":1.015,"area":"安溪县","sort":60}}]}}