{"msg":"获取成功！","end_at":"2024-03-19 10:08:55","data":{"type":"FeatureCollection","features":[{"type":"Feature","geometry":{"type":"Point","coordinates":[113.154324,23.037063]},"properties":{"region_id":"11915486937706210652","region_name":"南海万科广场","intensity":3,"avg_speed":15.54,"crowd_value_zs":7.37,"crowd_value_yj":2.954,"area":"南海区","sort":1}},{"type":"Feature","geometry":{"type":"Point","coordinates":[113.156968,23.043779]},"properties":{"region_id":"8469956352934224991","region_name":"佛山中海环宇城","intensity":3,"avg_speed":16.2,"crowd_value_zs":3.97,"crowd_value_yj":2.838,"area":"南海区","sort":2}},{"type":"Feature","geometry":{"type":"Point","coordinates":[113.089459,23.012706]},"properties":{"region_id":"18012010194132795391","region_name":"佛山市石湾汽车客运站","intensity":3,"avg_speed":19.84,"crowd_value_zs":0.13,"crowd_value_yj":2.439,"area":"禅城区","sort":3}},{"type":"Feature","geometry":{"type":"Point","coordinates":[113.146153,23.052122]},"properties":{"region_id":"7302381368954248635","region_name":"千灯湖公园","intensity":3,"avg_speed":24.61,"crowd_value_zs":17.99,"crowd_value_yj":2.208,"area":"南海区","sort":4}},{"type":"Feature","geometry":{"type":"Point","coordinates":[113.295855,22.796833]},"properties":{"region_id":"10059114889598798202","region_name":"大信·新都汇(顺德店)","intensity":3,"avg_speed":22.35,"crowd_value_zs":2.47,"crowd_value_yj":2.173,"area":"顺德区","sort":5}},{"type":"Feature","geometry":{"type":"Point","coordinates":[113.284668,22.794999]},"properties":{"region_id":"4941209668212788380","region_name":"史努比缤纷世界","intensity":3,"avg_speed":21.82,"crowd_value_zs":0.34,"crowd_value_yj":2.062,"area":"顺德区","sort":6}},{"type":"Feature","geometry":{"type":"Point","coordinates":[113.107063,22.994568]},"properties":{"region_id":"8862012666616839296","region_name":"新DNA","intensity":3,"avg_speed":22.07,"crowd_value_zs":3.52,"crowd_value_yj":2.02,"area":"禅城区","sort":7}},{"type":"Feature","geometry":{"type":"Point","coordinates":[113.157165,23.063378]},"properties":{"region_id":"12373653051818770320","region_name":"万达广场(佛山南海店)","intensity":3,"avg_speed":28.23,"crowd_value_zs":9.66,"crowd_value_yj":2.01,"area":"南海区","sort":8}},{"type":"Feature","geometry":{"type":"Point","coordinates":[113.289351,22.796523]},"properties":{"region_id":"1262751527831863295","region_name":"嘉信城市广场","intensity":2,"avg_speed":23.17,"crowd_value_zs":3.09,"crowd_value_yj":1.988,"area":"顺德区","sort":9}},{"type":"Feature","geometry":{"type":"Point","coordinates":[113.077609,23.004819]},"properties":{"region_id":"18012010164068024319","region_name":"南风古灶","intensity":2,"avg_speed":23.64,"crowd_value_zs":2.28,"crowd_value_yj":1.978,"area":"禅城区","sort":10}},{"type":"Feature","geometry":{"type":"Point","coordinates":[113.112853,23.027485]},"properties":{"region_id":"13384354141586583921","region_name":"NOVA岭南站","intensity":2,"avg_speed":19.37,"crowd_value_zs":3.63,"crowd_value_yj":1.978,"area":"禅城区","sort":11}},{"type":"Feature","geometry":{"type":"Point","coordinates":[113.11406,23.029249]},"properties":{"region_id":"18012010159773057023","region_name":"佛山市祖庙博物馆","intensity":2,"avg_speed":19.65,"crowd_value_zs":1.48,"crowd_value_yj":1.934,"area":"禅城区","sort":12}},{"type":"Feature","geometry":{"type":"Point","coordinates":[113.27086,22.780155]},"properties":{"region_id":"2773256725769979325","region_name":"渔人码头","intensity":2,"avg_speed":22.95,"crowd_value_zs":1.77,"crowd_value_yj":1.921,"area":"顺德区","sort":13}},{"type":"Feature","geometry":{"type":"Point","coordinates":[113.02862,22.850876]},"properties":{"region_id":"5749784169627466434","region_name":"龙山汽车客运站","intensity":2,"avg_speed":33.64,"crowd_value_zs":0.11,"crowd_value_yj":1.882,"area":"顺德区","sort":14}},{"type":"Feature","geometry":{"type":"Point","coordinates":[113.144584,23.114405]},"properties":{"region_id":"4399344998368765492","region_name":"永旺梦乐城佛山大沥购物中心","intensity":2,"avg_speed":34.96,"crowd_value_zs":3.08,"crowd_value_yj":1.858,"area":"南海区","sort":15}},{"type":"Feature","geometry":{"type":"Point","coordinates":[113.011027,22.956932]},"properties":{"region_id":"11843292225634465749","region_name":"南庄汽车客运站","intensity":2,"avg_speed":31.11,"crowd_value_zs":0.02,"crowd_value_yj":1.824,"area":"禅城区","sort":16}},{"type":"Feature","geometry":{"type":"Point","coordinates":[113.10821,23.039896]},"properties":{"region_id":"17942647159497162751","region_name":"佛山市城巴总站","intensity":2,"avg_speed":23.28,"crowd_value_zs":0.31,"crowd_value_yj":1.812,"area":"禅城区","sort":17}},{"type":"Feature","geometry":{"type":"Point","coordinates":[113.189054,23.108619]},"properties":{"region_id":"1260353364122664959","region_name":"嘉洲广场","intensity":1,"avg_speed":34.69,"crowd_value_zs":3.66,"crowd_value_yj":1.783,"area":"南海区","sort":18}},{"type":"Feature","geometry":{"type":"Point","coordinates":[113.110911,23.041513]},"properties":{"region_id":"2599639841504665648","region_name":"佛山汽车站","intensity":1,"avg_speed":24.09,"crowd_value_zs":0.22,"crowd_value_yj":1.768,"area":"禅城区","sort":19}},{"type":"Feature","geometry":{"type":"Point","coordinates":[113.138469,23.242703]},"properties":{"region_id":"14683668515288756605","region_name":"和顺汽车站","intensity":1,"avg_speed":34.79,"crowd_value_zs":0.1,"crowd_value_yj":1.759,"area":"南海区","sort":20}},{"type":"Feature","geometry":{"type":"Point","coordinates":[113.102577,23.048047]},"properties":{"region_id":"18012010189837828095","region_name":"佛山粤运汽车站","intensity":1,"avg_speed":29.17,"crowd_value_zs":0.07,"crowd_value_yj":1.746,"area":"禅城区","sort":21}},{"type":"Feature","geometry":{"type":"Point","coordinates":[113.148631,23.172038]},"properties":{"region_id":"14550603406344599154","region_name":"里水汽车客运站","intensity":1,"avg_speed":27.54,"crowd_value_zs":0.25,"crowd_value_yj":1.743,"area":"南海区","sort":22}},{"type":"Feature","geometry":{"type":"Point","coordinates":[113.115613,23.045118]},"properties":{"region_id":"17826275630497398783","region_name":"中山公园","intensity":1,"avg_speed":25.23,"crowd_value_zs":0.89,"crowd_value_yj":1.706,"area":"禅城区","sort":23}},{"type":"Feature","geometry":{"type":"Point","coordinates":[113.109451,23.18687]},"properties":{"region_id":"17654580994136206479","region_name":"中央电视台南海影视文化城","intensity":1,"avg_speed":29.81,"crowd_value_zs":0.7,"crowd_value_yj":1.695,"area":"南海区","sort":24}},{"type":"Feature","geometry":{"type":"Point","coordinates":[112.905159,23.196334]},"properties":{"region_id":"1263069677534314495","region_name":"三水荷花世界","intensity":1,"avg_speed":28.3,"crowd_value_zs":0.42,"crowd_value_yj":1.683,"area":"三水区","sort":25}},{"type":"Feature","geometry":{"type":"Point","coordinates":[113.103916,23.047352]},"properties":{"region_id":"467864435763931528","region_name":"佛山站","intensity":1,"avg_speed":29.69,"crowd_value_zs":0.37,"crowd_value_yj":1.668,"area":"禅城区","sort":26}},{"type":"Feature","geometry":{"type":"Point","coordinates":[113.076001,23.080796]},"properties":{"region_id":"16092993143635448665","region_name":"佛山沙堤机场","intensity":1,"avg_speed":35.17,"crowd_value_zs":0.93,"crowd_value_yj":1.658,"area":"南海区","sort":27}},{"type":"Feature","geometry":{"type":"Point","coordinates":[112.980888,23.097536]},"properties":{"region_id":"18012084840664399871","region_name":"小塘汽车站","intensity":1,"avg_speed":24.57,"crowd_value_zs":0.08,"crowd_value_yj":1.65,"area":"南海区","sort":28}},{"type":"Feature","geometry":{"type":"Point","coordinates":[113.103596,23.181093]},"properties":{"region_id":"11203474584410882736","region_name":"南国桃园","intensity":1,"avg_speed":28.41,"crowd_value_zs":3.66,"crowd_value_yj":1.61,"area":"南海区","sort":29}},{"type":"Feature","geometry":{"type":"Point","coordinates":[113.285848,22.818774]},"properties":{"region_id":"8918383416421932427","region_name":"顺峰山公园","intensity":1,"avg_speed":34.55,"crowd_value_zs":3.9,"crowd_value_yj":1.582,"area":"顺德区","sort":30}},{"type":"Feature","geometry":{"type":"Point","coordinates":[112.904235,23.178048]},"properties":{"region_id":"14561628837980519716","region_name":"万达广场(佛山三水店)","intensity":1,"avg_speed":32.4,"crowd_value_zs":2.18,"crowd_value_yj":1.58,"area":"三水区","sort":31}},{"type":"Feature","geometry":{"type":"Point","coordinates":[113.263894,22.915235]},"properties":{"region_id":"16607739990038105795","region_name":"北滘站","intensity":1,"avg_speed":51.21,"crowd_value_zs":0.28,"crowd_value_yj":1.56,"area":"顺德区","sort":32}},{"type":"Feature","geometry":{"type":"Point","coordinates":[113.084512,23.220943]},"properties":{"region_id":"1211433945004517475","region_name":"官窑客运站","intensity":1,"avg_speed":41.13,"crowd_value_zs":0.13,"crowd_value_yj":1.555,"area":"南海区","sort":33}},{"type":"Feature","geometry":{"type":"Point","coordinates":[112.878965,23.169854]},"properties":{"region_id":"18012100122158039039","region_name":"三水汽车站","intensity":1,"avg_speed":34.87,"crowd_value_zs":0.44,"crowd_value_yj":1.551,"area":"三水区","sort":34}},{"type":"Feature","geometry":{"type":"Point","coordinates":[112.892327,23.172074]},"properties":{"region_id":"18106587832205759076","region_name":"三水广场","intensity":1,"avg_speed":33.21,"crowd_value_zs":4.9,"crowd_value_yj":1.542,"area":"三水区","sort":35}},{"type":"Feature","geometry":{"type":"Point","coordinates":[112.768906,22.843389]},"properties":{"region_id":"9137606057129848849","region_name":"美的·鹭湖森林度假区","intensity":1,"avg_speed":44.75,"crowd_value_zs":3.23,"crowd_value_yj":1.537,"area":"高明区","sort":36}},{"type":"Feature","geometry":{"type":"Point","coordinates":[113.281734,22.749278]},"properties":{"region_id":"18012172445112336383","region_name":"佛山容桂客运站","intensity":1,"avg_speed":34.8,"crowd_value_zs":0.69,"crowd_value_yj":1.535,"area":"顺德区","sort":37}},{"type":"Feature","geometry":{"type":"Point","coordinates":[113.031012,23.077701]},"properties":{"region_id":"6220404513500253750","region_name":"南海汽车客运站","intensity":0,"avg_speed":39.3,"crowd_value_zs":0.06,"crowd_value_yj":1.494,"area":"南海区","sort":38}},{"type":"Feature","geometry":{"type":"Point","coordinates":[113.251403,22.818477]},"properties":{"region_id":"3456181533347761850","region_name":"佛山顺德汽车客运总站","intensity":0,"avg_speed":32.26,"crowd_value_zs":0.87,"crowd_value_yj":1.491,"area":"顺德区","sort":39}},{"type":"Feature","geometry":{"type":"Point","coordinates":[113.273118,22.826365]},"properties":{"region_id":"18012172105809919999","region_name":"永旺顺德购物中心","intensity":0,"avg_speed":29.73,"crowd_value_zs":1.65,"crowd_value_yj":1.491,"area":"顺德区","sort":40}},{"type":"Feature","geometry":{"type":"Point","coordinates":[113.163318,22.978935]},"properties":{"region_id":"18012122116685561855","region_name":"陈村花卉世界","intensity":0,"avg_speed":42.61,"crowd_value_zs":2.71,"crowd_value_yj":1.485,"area":"顺德区","sort":41}},{"type":"Feature","geometry":{"type":"Point","coordinates":[113.19696,23.139893]},"properties":{"region_id":"7682222638537946798","region_name":"万达广场（广州金沙洲店）","intensity":0,"avg_speed":41.32,"crowd_value_zs":2.47,"crowd_value_yj":1.475,"area":"南海区","sort":42}},{"type":"Feature","geometry":{"type":"Point","coordinates":[113.303784,22.818849]},"properties":{"region_id":"13637128151476114779","region_name":"顺德华侨城·欢乐海岸PLUS","intensity":0,"avg_speed":41.71,"crowd_value_zs":6.2,"crowd_value_yj":1.474,"area":"顺德区","sort":43}},{"type":"Feature","geometry":{"type":"Point","coordinates":[112.974693,22.962873]},"properties":{"region_id":"18012085493499428863","region_name":"西樵汽车站","intensity":0,"avg_speed":34.87,"crowd_value_zs":0.29,"crowd_value_yj":1.473,"area":"南海区","sort":44}},{"type":"Feature","geometry":{"type":"Point","coordinates":[113.200122,23.14242]},"properties":{"region_id":"6483395954108200448","region_name":"金沙洲金铂天地","intensity":0,"avg_speed":41.12,"crowd_value_zs":4.13,"crowd_value_yj":1.471,"area":"南海区","sort":45}},{"type":"Feature","geometry":{"type":"Point","coordinates":[113.010666,23.124253]},"properties":{"region_id":"1258374526660509695","region_name":"狮山广场","intensity":0,"avg_speed":41.7,"crowd_value_zs":1.55,"crowd_value_yj":1.468,"area":"南海区","sort":46}},{"type":"Feature","geometry":{"type":"Point","coordinates":[113.27069,22.760492]},"properties":{"region_id":"4008848835072031205","region_name":"天佑城","intensity":0,"avg_speed":30.91,"crowd_value_zs":2.53,"crowd_value_yj":1.45,"area":"顺德区","sort":47}},{"type":"Feature","geometry":{"type":"Point","coordinates":[113.033972,23.07933]},"properties":{"region_id":"9152878153722574560","region_name":"佛山西站","intensity":0,"avg_speed":39.94,"crowd_value_zs":8.31,"crowd_value_yj":1.441,"area":"南海区","sort":48}},{"type":"Feature","geometry":{"type":"Point","coordinates":[113.31245,22.751242]},"properties":{"region_id":"9092634094375337522","region_name":"容桂站","intensity":0,"avg_speed":49.85,"crowd_value_zs":1.22,"crowd_value_yj":1.431,"area":"顺德区","sort":49}},{"type":"Feature","geometry":{"type":"Point","coordinates":[113.120326,23.038111]},"properties":{"region_id":"4114723928727881847","region_name":"东方广场","intensity":0,"avg_speed":23.47,"crowd_value_zs":9.93,"crowd_value_yj":1.424,"area":"禅城区","sort":50}},{"type":"Feature","geometry":{"type":"Point","coordinates":[113.255106,22.835669]},"properties":{"region_id":"16585204266971207032","region_name":"清晖园","intensity":0,"avg_speed":27.42,"crowd_value_zs":1.04,"crowd_value_yj":1.381,"area":"顺德区","sort":51}},{"type":"Feature","geometry":{"type":"Point","coordinates":[113.240376,22.952791]},"properties":{"region_id":"1262751411867746303","region_name":"顺联广场","intensity":0,"avg_speed":42.63,"crowd_value_zs":1.69,"crowd_value_yj":1.372,"area":"顺德区","sort":52}},{"type":"Feature","geometry":{"type":"Point","coordinates":[112.869746,23.184813]},"properties":{"region_id":"9413279270819771993","region_name":"三水森林公园","intensity":0,"avg_speed":46.88,"crowd_value_zs":1.74,"crowd_value_yj":1.363,"area":"三水区","sort":53}},{"type":"Feature","geometry":{"type":"Point","coordinates":[113.174432,23.226641]},"properties":{"region_id":"2070588411154019021","region_name":"梦里水乡百花园","intensity":0,"avg_speed":60.14,"crowd_value_zs":0.5,"crowd_value_yj":1.36,"area":"南海区","sort":54}},{"type":"Feature","geometry":{"type":"Point","coordinates":[112.976532,22.92356]},"properties":{"region_id":"17746566349703847160","region_name":"西樵山风景名胜区","intensity":0,"avg_speed":43.12,"crowd_value_zs":1.25,"crowd_value_yj":1.351,"area":"南海区","sort":55}},{"type":"Feature","geometry":{"type":"Point","coordinates":[113.228241,23.005359]},"properties":{"region_id":"15653382567463655356","region_name":"佛罗伦萨小镇","intensity":0,"avg_speed":59.27,"crowd_value_zs":1.69,"crowd_value_yj":1.271,"area":"南海区","sort":56}},{"type":"Feature","geometry":{"type":"Point","coordinates":[112.879666,22.856736]},"properties":{"region_id":"9484962479278365807","region_name":"南海湾森林生态园","intensity":0,"avg_speed":42.59,"crowd_value_zs":0.11,"crowd_value_yj":1.267,"area":"南海区","sort":57}},{"type":"Feature","geometry":{"type":"Point","coordinates":[113.107634,22.947051]},"properties":{"region_id":"6692536610734084002","region_name":"乐从天佑城","intensity":0,"avg_speed":27.73,"crowd_value_zs":3.94,"crowd_value_yj":1.257,"area":"顺德区","sort":58}},{"type":"Feature","geometry":{"type":"Point","coordinates":[112.877523,23.52239]},"properties":{"region_id":"10147419065431237316","region_name":"南丹山风景区","intensity":0,"avg_speed":58.98,"crowd_value_zs":0.31,"crowd_value_yj":1.029,"area":"三水区","sort":59}},{"type":"Feature","geometry":{"type":"Point","coordinates":[112.767135,22.937346]},"properties":{"region_id":"1263066756956553215","region_name":"盈香生态园","intensity":0,"avg_speed":88.03,"crowd_value_zs":0.82,"crowd_value_yj":1.022,"area":"高明区","sort":60}}]}}