{"msg":"获取成功！","end_at":"2024-03-20 01:21:51","data":{"type":"FeatureCollection","features":[{"type":"Feature","geometry":{"type":"Point","coordinates":[113.325728,22.004666]},"properties":{"region_id":"17960818893717836579","region_name":"阳光沙滩生态园","intensity":0,"avg_speed":47.65,"crowd_value_zs":0.01,"crowd_value_yj":1.474,"area":"金湾区","sort":1}},{"type":"Feature","geometry":{"type":"Point","coordinates":[113.519498,22.254234]},"properties":{"region_id":"3846959784698306110","region_name":"大前门商业广场","intensity":0,"avg_speed":39.58,"crowd_value_zs":0.16,"crowd_value_yj":1.422,"area":"香洲区","sort":2}},{"type":"Feature","geometry":{"type":"Point","coordinates":[113.115457,22.066961]},"properties":{"region_id":"18010351224360009727","region_name":"海泉湾度假区","intensity":0,"avg_speed":43.23,"crowd_value_zs":1.18,"crowd_value_yj":1.364,"area":"金湾区","sort":3}},{"type":"Feature","geometry":{"type":"Point","coordinates":[113.515416,22.265841]},"properties":{"region_id":"18010336827629633535","region_name":"上冲长途汽车客运站","intensity":0,"avg_speed":42.54,"crowd_value_zs":0.51,"crowd_value_yj":1.352,"area":"香洲区","sort":4}},{"type":"Feature","geometry":{"type":"Point","coordinates":[113.537525,22.097894]},"properties":{"region_id":"7467887820003017666","region_name":"长隆海洋王国公园","intensity":0,"avg_speed":33.75,"crowd_value_zs":4.82,"crowd_value_yj":1.352,"area":"香洲区","sort":5}},{"type":"Feature","geometry":{"type":"Point","coordinates":[113.540062,22.098817]},"properties":{"region_id":"12848663762255058644","region_name":"珠海长隆国际海洋度假区","intensity":0,"avg_speed":33.76,"crowd_value_zs":6.55,"crowd_value_yj":1.351,"area":"香洲区","sort":6}},{"type":"Feature","geometry":{"type":"Point","coordinates":[113.391045,22.00452]},"properties":{"region_id":"10773360157529030858","region_name":"金沙滩","intensity":0,"avg_speed":38.58,"crowd_value_zs":0.01,"crowd_value_yj":1.35,"area":"金湾区","sort":7}},{"type":"Feature","geometry":{"type":"Point","coordinates":[113.541167,22.104203]},"properties":{"region_id":"9276572133897798739","region_name":"珠海长隆站","intensity":0,"avg_speed":34.21,"crowd_value_zs":0.04,"crowd_value_yj":1.349,"area":"香洲区","sort":8}},{"type":"Feature","geometry":{"type":"Point","coordinates":[113.515603,22.268845]},"properties":{"region_id":"13587829298319250033","region_name":"明珠站","intensity":0,"avg_speed":44.05,"crowd_value_zs":3.65,"crowd_value_yj":1.331,"area":"香洲区","sort":9}},{"type":"Feature","geometry":{"type":"Point","coordinates":[113.192514,22.107089]},"properties":{"region_id":"2692771532749389804","region_name":"平沙汽车客运站","intensity":0,"avg_speed":33.49,"crowd_value_zs":0.02,"crowd_value_yj":1.324,"area":"金湾区","sort":10}},{"type":"Feature","geometry":{"type":"Point","coordinates":[113.509062,22.275967]},"properties":{"region_id":"13558841769340178565","region_name":"珠海乐世界购物中心","intensity":0,"avg_speed":44.97,"crowd_value_zs":1.97,"crowd_value_yj":1.317,"area":"香洲区","sort":11}},{"type":"Feature","geometry":{"type":"Point","coordinates":[113.533979,22.191001]},"properties":{"region_id":"18010314858871914495","region_name":"珠海湾仔码头","intensity":0,"avg_speed":56.46,"crowd_value_zs":0.04,"crowd_value_yj":1.316,"area":"香洲区","sort":12}},{"type":"Feature","geometry":{"type":"Point","coordinates":[113.533515,22.190218]},"properties":{"region_id":"7534591387037480576","region_name":"澳门环岛游横琴岛游","intensity":0,"avg_speed":56.27,"crowd_value_zs":0.29,"crowd_value_yj":1.31,"area":"香洲区","sort":13}},{"type":"Feature","geometry":{"type":"Point","coordinates":[113.519975,22.24561]},"properties":{"region_id":"12137699254483513088","region_name":"明珠商业广场","intensity":0,"avg_speed":43.16,"crowd_value_zs":0.95,"crowd_value_yj":1.234,"area":"香洲区","sort":14}},{"type":"Feature","geometry":{"type":"Point","coordinates":[113.532226,22.229827]},"properties":{"region_id":"7952437777404759854","region_name":"中安广场","intensity":0,"avg_speed":38.18,"crowd_value_zs":1.65,"crowd_value_yj":1.214,"area":"香洲区","sort":15}},{"type":"Feature","geometry":{"type":"Point","coordinates":[113.350064,22.044443]},"properties":{"region_id":"18010315597606289407","region_name":"三灶汽车客运站","intensity":0,"avg_speed":35.03,"crowd_value_zs":0.06,"crowd_value_yj":1.209,"area":"金湾区","sort":16}},{"type":"Feature","geometry":{"type":"Point","coordinates":[113.27976,22.166487]},"properties":{"region_id":"3009433073807938049","region_name":"信禾长运西埔汽车客运站","intensity":0,"avg_speed":33.24,"crowd_value_zs":0.08,"crowd_value_yj":1.208,"area":"斗门区","sort":17}},{"type":"Feature","geometry":{"type":"Point","coordinates":[113.542815,22.137883]},"properties":{"region_id":"2444943665006630729","region_name":"励骏庞都广场","intensity":0,"avg_speed":37.91,"crowd_value_zs":1.26,"crowd_value_yj":1.199,"area":"香洲区","sort":18}},{"type":"Feature","geometry":{"type":"Point","coordinates":[113.202403,22.017324]},"properties":{"region_id":"5181211763968996695","region_name":"南水汽车客运站","intensity":0,"avg_speed":37.07,"crowd_value_zs":0.14,"crowd_value_yj":1.196,"area":"金湾区","sort":19}},{"type":"Feature","geometry":{"type":"Point","coordinates":[113.617369,22.346938]},"properties":{"region_id":"15754285203716064881","region_name":"格力海岸海滨公园","intensity":0,"avg_speed":40.89,"crowd_value_zs":0.21,"crowd_value_yj":1.195,"area":"香洲区","sort":20}},{"type":"Feature","geometry":{"type":"Point","coordinates":[113.584022,22.289174]},"properties":{"region_id":"1836081846961357977","region_name":"香洲港客运站","intensity":0,"avg_speed":37.97,"crowd_value_zs":0.38,"crowd_value_yj":1.192,"area":"香洲区","sort":21}},{"type":"Feature","geometry":{"type":"Point","coordinates":[113.50251,22.279042]},"properties":{"region_id":"6875228234441556604","region_name":"南溪客运站","intensity":0,"avg_speed":52.88,"crowd_value_zs":0.18,"crowd_value_yj":1.19,"area":"香洲区","sort":22}},{"type":"Feature","geometry":{"type":"Point","coordinates":[113.551091,22.232828]},"properties":{"region_id":"7954700930617636327","region_name":"摩尔广场(迎宾南路)","intensity":0,"avg_speed":35.94,"crowd_value_zs":0.9,"crowd_value_yj":1.19,"area":"香洲区","sort":23}},{"type":"Feature","geometry":{"type":"Point","coordinates":[113.520725,22.241245]},"properties":{"region_id":"6358230708334632053","region_name":"诚丰广场","intensity":0,"avg_speed":43.27,"crowd_value_zs":1.57,"crowd_value_yj":1.189,"area":"香洲区","sort":24}},{"type":"Feature","geometry":{"type":"Point","coordinates":[113.540183,22.243405]},"properties":{"region_id":"18010339816926871551","region_name":"圆明新园","intensity":0,"avg_speed":40.93,"crowd_value_zs":1.29,"crowd_value_yj":1.185,"area":"香洲区","sort":25}},{"type":"Feature","geometry":{"type":"Point","coordinates":[113.380733,22.00795]},"properties":{"region_id":"955482719485667429","region_name":"珠海金湾机场","intensity":0,"avg_speed":46.65,"crowd_value_zs":6.87,"crowd_value_yj":1.183,"area":"金湾区","sort":26}},{"type":"Feature","geometry":{"type":"Point","coordinates":[113.519043,22.123639]},"properties":{"region_id":"9444285587486378257","region_name":"横琴创新方","intensity":0,"avg_speed":47.27,"crowd_value_zs":1.15,"crowd_value_yj":1.179,"area":"香洲区","sort":27}},{"type":"Feature","geometry":{"type":"Point","coordinates":[113.583889,22.307252]},"properties":{"region_id":"2816738976059866502","region_name":"海天公园沙滩","intensity":0,"avg_speed":45.37,"crowd_value_zs":0.26,"crowd_value_yj":1.179,"area":"香洲区","sort":28}},{"type":"Feature","geometry":{"type":"Point","coordinates":[113.552155,22.223684]},"properties":{"region_id":"583047991205821667","region_name":"米兰百货","intensity":0,"avg_speed":36.09,"crowd_value_zs":0.82,"crowd_value_yj":1.175,"area":"香洲区","sort":29}},{"type":"Feature","geometry":{"type":"Point","coordinates":[113.51461,22.282449]},"properties":{"region_id":"17434189696918234061","region_name":"珠海奥园广场","intensity":0,"avg_speed":47.98,"crowd_value_zs":3.88,"crowd_value_yj":1.173,"area":"香洲区","sort":30}},{"type":"Feature","geometry":{"type":"Point","coordinates":[113.351228,22.155255]},"properties":{"region_id":"5493064691398351333","region_name":"家和城广场","intensity":0,"avg_speed":38.37,"crowd_value_zs":0.23,"crowd_value_yj":1.172,"area":"斗门区","sort":31}},{"type":"Feature","geometry":{"type":"Point","coordinates":[113.363828,22.144602]},"properties":{"region_id":"15487131451695424301","region_name":"湖心路口汽车客运站","intensity":0,"avg_speed":49.22,"crowd_value_zs":1.08,"crowd_value_yj":1.171,"area":"金湾区","sort":32}},{"type":"Feature","geometry":{"type":"Point","coordinates":[113.591972,22.239329]},"properties":{"region_id":"17723307990053814271","region_name":"九洲港客运站","intensity":0,"avg_speed":41.1,"crowd_value_zs":0.03,"crowd_value_yj":1.17,"area":"香洲区","sort":33}},{"type":"Feature","geometry":{"type":"Point","coordinates":[113.580241,22.254699]},"properties":{"region_id":"1258273839742189567","region_name":"珠海免税商场","intensity":0,"avg_speed":40.61,"crowd_value_zs":0.66,"crowd_value_yj":1.169,"area":"香洲区","sort":34}},{"type":"Feature","geometry":{"type":"Point","coordinates":[113.29766,22.215346]},"properties":{"region_id":"396969768241863877","region_name":"大信·新都汇","intensity":0,"avg_speed":35.44,"crowd_value_zs":1.23,"crowd_value_yj":1.159,"area":"斗门区","sort":35}},{"type":"Feature","geometry":{"type":"Point","coordinates":[113.579754,22.275374]},"properties":{"region_id":"1472428933374433897","region_name":"扬名广场","intensity":0,"avg_speed":36.2,"crowd_value_zs":1.61,"crowd_value_yj":1.159,"area":"香洲区","sort":36}},{"type":"Feature","geometry":{"type":"Point","coordinates":[113.591357,22.253177]},"properties":{"region_id":"18010314803037339647","region_name":"海滨泳场(吉大路)","intensity":0,"avg_speed":40.05,"crowd_value_zs":0.49,"crowd_value_yj":1.157,"area":"香洲区","sort":37}},{"type":"Feature","geometry":{"type":"Point","coordinates":[113.584911,22.258998]},"properties":{"region_id":"1258269772408160255","region_name":"海滨公园","intensity":0,"avg_speed":37.63,"crowd_value_zs":1.36,"crowd_value_yj":1.153,"area":"香洲区","sort":38}},{"type":"Feature","geometry":{"type":"Point","coordinates":[113.588245,22.261734]},"properties":{"region_id":"18010314772972568575","region_name":"珠海渔女","intensity":0,"avg_speed":37.91,"crowd_value_zs":0.04,"crowd_value_yj":1.153,"area":"香洲区","sort":39}},{"type":"Feature","geometry":{"type":"Point","coordinates":[113.577059,22.29702]},"properties":{"region_id":"5287571818561473096","region_name":"水拥坑海天公园","intensity":0,"avg_speed":43.68,"crowd_value_zs":0.92,"crowd_value_yj":1.15,"area":"香洲区","sort":40}},{"type":"Feature","geometry":{"type":"Point","coordinates":[113.590047,22.277808]},"properties":{"region_id":"18010314798742372351","region_name":"名亭公园","intensity":0,"avg_speed":37.76,"crowd_value_zs":0.09,"crowd_value_yj":1.149,"area":"香洲区","sort":41}},{"type":"Feature","geometry":{"type":"Point","coordinates":[113.577526,22.278368]},"properties":{"region_id":"1262729752347672575","region_name":"尚都商业广场","intensity":0,"avg_speed":36.1,"crowd_value_zs":0.2,"crowd_value_yj":1.146,"area":"香洲区","sort":42}},{"type":"Feature","geometry":{"type":"Point","coordinates":[113.63564,22.414605]},"properties":{"region_id":"1259455711662833663","region_name":"淇澳岛","intensity":0,"avg_speed":57.79,"crowd_value_zs":3.41,"crowd_value_yj":1.146,"area":"香洲区","sort":43}},{"type":"Feature","geometry":{"type":"Point","coordinates":[113.506635,22.225742]},"properties":{"region_id":"2444536129198238819","region_name":"弘桥商城","intensity":0,"avg_speed":53.81,"crowd_value_zs":0.35,"crowd_value_yj":1.14,"area":"香洲区","sort":44}},{"type":"Feature","geometry":{"type":"Point","coordinates":[113.549389,22.215098]},"properties":{"region_id":"3752838206484738666","region_name":"珠海站","intensity":0,"avg_speed":38.24,"crowd_value_zs":5.26,"crowd_value_yj":1.134,"area":"香洲区","sort":45}},{"type":"Feature","geometry":{"type":"Point","coordinates":[113.556464,22.281131]},"properties":{"region_id":"18010338390997729279","region_name":"丹田城市广场","intensity":0,"avg_speed":40.41,"crowd_value_zs":0.34,"crowd_value_yj":1.134,"area":"香洲区","sort":46}},{"type":"Feature","geometry":{"type":"Point","coordinates":[113.565479,22.278699]},"properties":{"region_id":"1262729232656629759","region_name":"茂业百货(珠海香洲店)","intensity":0,"avg_speed":37.95,"crowd_value_zs":0.45,"crowd_value_yj":1.13,"area":"香洲区","sort":47}},{"type":"Feature","geometry":{"type":"Point","coordinates":[113.567469,22.279387]},"properties":{"region_id":"17661494678995861503","region_name":"香洲长途站","intensity":0,"avg_speed":37.95,"crowd_value_zs":0.93,"crowd_value_yj":1.128,"area":"香洲区","sort":48}},{"type":"Feature","geometry":{"type":"Point","coordinates":[113.511364,22.224886]},"properties":{"region_id":"6992473390475421273","region_name":"华发商都","intensity":0,"avg_speed":51.46,"crowd_value_zs":3.75,"crowd_value_yj":1.125,"area":"香洲区","sort":49}},{"type":"Feature","geometry":{"type":"Point","coordinates":[113.55632,22.218708]},"properties":{"region_id":"7647531669466769218","region_name":"拱北汽车客运站","intensity":0,"avg_speed":39.07,"crowd_value_zs":0.26,"crowd_value_yj":1.118,"area":"香洲区","sort":50}},{"type":"Feature","geometry":{"type":"Point","coordinates":[113.529678,22.283973]},"properties":{"region_id":"25026070493868587","region_name":"香山湖公园","intensity":0,"avg_speed":42.15,"crowd_value_zs":1.33,"crowd_value_yj":1.117,"area":"香洲区","sort":51}},{"type":"Feature","geometry":{"type":"Point","coordinates":[113.553614,22.217126]},"properties":{"region_id":"1262729370095583231","region_name":"口岸购物广场","intensity":0,"avg_speed":38.7,"crowd_value_zs":0.07,"crowd_value_yj":1.114,"area":"香洲区","sort":52}},{"type":"Feature","geometry":{"type":"Point","coordinates":[113.55175,22.3631]},"properties":{"region_id":"17535849289882805893","region_name":"唐家湾站","intensity":0,"avg_speed":56.04,"crowd_value_zs":0.73,"crowd_value_yj":1.112,"area":"香洲区","sort":53}},{"type":"Feature","geometry":{"type":"Point","coordinates":[113.55279,22.218435]},"properties":{"region_id":"17215472103182249546","region_name":"拱北通大汽车客运站","intensity":0,"avg_speed":38.0,"crowd_value_zs":0.46,"crowd_value_yj":1.109,"area":"香洲区","sort":54}},{"type":"Feature","geometry":{"type":"Point","coordinates":[113.308534,22.228072]},"properties":{"region_id":"5269098336689683420","region_name":"珠海斗门汽车客运总站","intensity":0,"avg_speed":55.86,"crowd_value_zs":0.35,"crowd_value_yj":1.082,"area":"斗门区","sort":55}},{"type":"Feature","geometry":{"type":"Point","coordinates":[113.528089,22.314731]},"properties":{"region_id":"1227152999844936335","region_name":"普陀寺","intensity":0,"avg_speed":80.84,"crowd_value_zs":0.6,"crowd_value_yj":1.071,"area":"香洲区","sort":56}},{"type":"Feature","geometry":{"type":"Point","coordinates":[113.23001,22.225548]},"properties":{"region_id":"18010350842107920383","region_name":"金台寺","intensity":0,"avg_speed":71.42,"crowd_value_zs":0.19,"crowd_value_yj":1.037,"area":"斗门区","sort":57}},{"type":"Feature","geometry":{"type":"Point","coordinates":[113.617342,22.240114]},"properties":{"region_id":"10714935505837429566","region_name":"九洲岛","intensity":0,"avg_speed":106.29,"crowd_value_zs":0.0,"crowd_value_yj":1.023,"area":"香洲区","sort":58}},{"type":"Feature","geometry":{"type":"Point","coordinates":[113.442309,22.157693]},"properties":{"region_id":"2920265848436374285","region_name":"珠海横琴滨海湿地公园","intensity":0,"avg_speed":103.14,"crowd_value_zs":0.0,"crowd_value_yj":0.975,"area":"香洲区","sort":59}}]}}