{"msg":"获取成功！","end_at":"2024-03-19 10:08:59","data":{"type":"FeatureCollection","features":[{"type":"Feature","geometry":{"type":"Point","coordinates":[110.491863,24.761886]},"properties":{"region_id":"2731085711006462960","region_name":"阳朔汽车客运站","intensity":3,"avg_speed":15.88,"crowd_value_zs":0.14,"crowd_value_yj":2.582,"area":"阳朔县","sort":1}},{"type":"Feature","geometry":{"type":"Point","coordinates":[110.350752,25.226296]},"properties":{"region_id":"16999001458753320732","region_name":"桂林东站","intensity":2,"avg_speed":26.07,"crowd_value_zs":0.22,"crowd_value_yj":1.874,"area":"七星区","sort":2}},{"type":"Feature","geometry":{"type":"Point","coordinates":[110.435776,24.775366]},"properties":{"region_id":"11745995670420770927","region_name":"遇龙河","intensity":1,"avg_speed":39.01,"crowd_value_zs":0.83,"crowd_value_yj":1.712,"area":"阳朔县","sort":3}},{"type":"Feature","geometry":{"type":"Point","coordinates":[110.490588,24.734094]},"properties":{"region_id":"17062437000449837968","region_name":"十里画廊景区","intensity":1,"avg_speed":35.06,"crowd_value_zs":6.27,"crowd_value_yj":1.589,"area":"阳朔县","sort":4}},{"type":"Feature","geometry":{"type":"Point","coordinates":[110.282341,25.261379]},"properties":{"region_id":"3196888008330572642","region_name":"桂林站","intensity":1,"avg_speed":22.07,"crowd_value_zs":3.2,"crowd_value_yj":1.562,"area":"象山区","sort":5}},{"type":"Feature","geometry":{"type":"Point","coordinates":[110.269028,25.256946]},"properties":{"region_id":"17050864924955640267","region_name":"琴潭汽车客运站","intensity":1,"avg_speed":22.35,"crowd_value_zs":0.35,"crowd_value_yj":1.54,"area":"秀峰区","sort":6}},{"type":"Feature","geometry":{"type":"Point","coordinates":[110.399852,24.489146]},"properties":{"region_id":"16518592526278900980","region_name":"荔浦汽车站","intensity":1,"avg_speed":28.71,"crowd_value_zs":0.24,"crowd_value_yj":1.529,"area":"荔浦市","sort":7}},{"type":"Feature","geometry":{"type":"Point","coordinates":[110.269719,25.262252]},"properties":{"region_id":"16531681101156890197","region_name":"华润万象城(桂林店)","intensity":1,"avg_speed":22.87,"crowd_value_zs":5.22,"crowd_value_yj":1.519,"area":"秀峰区","sort":8}},{"type":"Feature","geometry":{"type":"Point","coordinates":[110.294007,25.273243]},"properties":{"region_id":"1259500963438264319","region_name":"桂林梦之岛百货","intensity":1,"avg_speed":22.26,"crowd_value_zs":0.43,"crowd_value_yj":1.51,"area":"象山区","sort":9}},{"type":"Feature","geometry":{"type":"Point","coordinates":[110.292221,25.271656]},"properties":{"region_id":"1259500946258395135","region_name":"桂林百货大楼","intensity":1,"avg_speed":23.5,"crowd_value_zs":1.01,"crowd_value_yj":1.506,"area":"象山区","sort":10}},{"type":"Feature","geometry":{"type":"Point","coordinates":[110.298867,25.277589]},"properties":{"region_id":"1259968702556667903","region_name":"桂林王城百货","intensity":1,"avg_speed":22.63,"crowd_value_zs":0.85,"crowd_value_yj":1.502,"area":"秀峰区","sort":11}},{"type":"Feature","geometry":{"type":"Point","coordinates":[110.327457,25.408666]},"properties":{"region_id":"4080867297152122618","region_name":"灵川汽车总站","intensity":0,"avg_speed":31.26,"crowd_value_zs":0.09,"crowd_value_yj":1.499,"area":"灵川县","sort":12}},{"type":"Feature","geometry":{"type":"Point","coordinates":[110.299796,25.278665]},"properties":{"region_id":"12626835496817672962","region_name":"东西巷","intensity":0,"avg_speed":23.09,"crowd_value_zs":1.86,"crowd_value_yj":1.494,"area":"秀峰区","sort":13}},{"type":"Feature","geometry":{"type":"Point","coordinates":[110.29496,25.278316]},"properties":{"region_id":"1262708569568968703","region_name":"微笑堂","intensity":0,"avg_speed":23.0,"crowd_value_zs":1.43,"crowd_value_yj":1.486,"area":"秀峰区","sort":14}},{"type":"Feature","geometry":{"type":"Point","coordinates":[110.279607,25.25366]},"properties":{"region_id":"6733114466932193632","region_name":"大摩联达广场","intensity":0,"avg_speed":22.96,"crowd_value_zs":1.34,"crowd_value_yj":1.483,"area":"象山区","sort":15}},{"type":"Feature","geometry":{"type":"Point","coordinates":[110.306024,25.261017]},"properties":{"region_id":"222951291738749725","region_name":"国展购物公园","intensity":0,"avg_speed":23.37,"crowd_value_zs":0.76,"crowd_value_yj":1.474,"area":"七星区","sort":16}},{"type":"Feature","geometry":{"type":"Point","coordinates":[110.294817,25.271445]},"properties":{"region_id":"17938385357938622463","region_name":"日月双塔文化景区","intensity":0,"avg_speed":23.95,"crowd_value_zs":2.54,"crowd_value_yj":1.463,"area":"象山区","sort":17}},{"type":"Feature","geometry":{"type":"Point","coordinates":[110.298992,25.280417]},"properties":{"region_id":"1258064683424808959","region_name":"靖江王府","intensity":0,"avg_speed":24.37,"crowd_value_zs":2.29,"crowd_value_yj":1.46,"area":"秀峰区","sort":18}},{"type":"Feature","geometry":{"type":"Point","coordinates":[110.299225,25.281553]},"properties":{"region_id":"17982228555894882303","region_name":"独秀峰王城景区","intensity":0,"avg_speed":24.36,"crowd_value_zs":2.3,"crowd_value_yj":1.46,"area":"秀峰区","sort":19}},{"type":"Feature","geometry":{"type":"Point","coordinates":[110.296038,25.268743]},"properties":{"region_id":"10283877893805722010","region_name":"象山景区","intensity":0,"avg_speed":24.01,"crowd_value_zs":5.21,"crowd_value_yj":1.452,"area":"象山区","sort":20}},{"type":"Feature","geometry":{"type":"Point","coordinates":[111.067173,25.920598]},"properties":{"region_id":"14967788701187240400","region_name":"全州城南客运站","intensity":0,"avg_speed":28.97,"crowd_value_zs":0.2,"crowd_value_yj":1.448,"area":"全州县","sort":21}},{"type":"Feature","geometry":{"type":"Point","coordinates":[110.431762,25.147198]},"properties":{"region_id":"17938475681100857343","region_name":"漓江景区","intensity":0,"avg_speed":40.45,"crowd_value_zs":18.85,"crowd_value_yj":1.424,"area":"灵川县","sort":22}},{"type":"Feature","geometry":{"type":"Point","coordinates":[110.24833,25.223832]},"properties":{"region_id":"17938387883379392511","region_name":"广西桂林国家森林公园","intensity":0,"avg_speed":31.74,"crowd_value_zs":0.64,"crowd_value_yj":1.415,"area":"象山区","sort":23}},{"type":"Feature","geometry":{"type":"Point","coordinates":[110.313356,25.27183]},"properties":{"region_id":"17938385375118491647","region_name":"七星景区","intensity":0,"avg_speed":25.2,"crowd_value_zs":1.49,"crowd_value_yj":1.381,"area":"七星区","sort":24}},{"type":"Feature","geometry":{"type":"Point","coordinates":[110.30147,25.289925]},"properties":{"region_id":"17938385396593328127","region_name":"叠彩山景区","intensity":0,"avg_speed":25.38,"crowd_value_zs":0.18,"crowd_value_yj":1.375,"area":"叠彩区","sort":25}},{"type":"Feature","geometry":{"type":"Point","coordinates":[110.685734,25.602592]},"properties":{"region_id":"17938493281876836351","region_name":"灵渠水街景区","intensity":0,"avg_speed":30.18,"crowd_value_zs":3.77,"crowd_value_yj":1.363,"area":"兴安县","sort":26}},{"type":"Feature","geometry":{"type":"Point","coordinates":[110.271693,25.31019]},"properties":{"region_id":"15061346927619645743","region_name":"芦笛岩","intensity":0,"avg_speed":34.52,"crowd_value_zs":0.23,"crowd_value_yj":1.362,"area":"秀峰区","sort":27}},{"type":"Feature","geometry":{"type":"Point","coordinates":[110.531874,24.917966]},"properties":{"region_id":"17627335945097314303","region_name":"阳朔兴坪汽车站","intensity":0,"avg_speed":35.28,"crowd_value_zs":0.5,"crowd_value_yj":1.361,"area":"阳朔县","sort":28}},{"type":"Feature","geometry":{"type":"Point","coordinates":[110.644253,26.0322]},"properties":{"region_id":"17938432611168813055","region_name":"资源汽车总站","intensity":0,"avg_speed":45.09,"crowd_value_zs":0.23,"crowd_value_yj":1.354,"area":"资源县","sort":29}},{"type":"Feature","geometry":{"type":"Point","coordinates":[110.667911,25.612872]},"properties":{"region_id":"17938493956186701823","region_name":"兴安汽车总站","intensity":0,"avg_speed":29.07,"crowd_value_zs":0.26,"crowd_value_yj":1.349,"area":"兴安县","sort":30}},{"type":"Feature","geometry":{"type":"Point","coordinates":[110.289791,25.2411]},"properties":{"region_id":"6387202972940347206","region_name":"红街商业广场","intensity":0,"avg_speed":25.66,"crowd_value_zs":0.52,"crowd_value_yj":1.337,"area":"象山区","sort":31}},{"type":"Feature","geometry":{"type":"Point","coordinates":[110.376835,25.292589]},"properties":{"region_id":"17627334407499022335","region_name":"尧山景区","intensity":0,"avg_speed":38.97,"crowd_value_zs":0.02,"crowd_value_yj":1.32,"area":"七星区","sort":32}},{"type":"Feature","geometry":{"type":"Point","coordinates":[110.207634,25.245747]},"properties":{"region_id":"17938457165496844287","region_name":"临桂汽车站","intensity":0,"avg_speed":25.99,"crowd_value_zs":0.37,"crowd_value_yj":1.319,"area":"临桂区","sort":33}},{"type":"Feature","geometry":{"type":"Point","coordinates":[110.640126,24.642467]},"properties":{"region_id":"17938447012194156543","region_name":"平乐汽车总站","intensity":0,"avg_speed":53.59,"crowd_value_zs":0.15,"crowd_value_yj":1.311,"area":"平乐县","sort":34}},{"type":"Feature","geometry":{"type":"Point","coordinates":[110.675621,25.583967]},"properties":{"region_id":"17938494501647548415","region_name":"桂林乐满地主题公园","intensity":0,"avg_speed":34.65,"crowd_value_zs":0.27,"crowd_value_yj":1.311,"area":"兴安县","sort":35}},{"type":"Feature","geometry":{"type":"Point","coordinates":[110.78259,24.664535]},"properties":{"region_id":"17952000898188181503","region_name":"平乐二塘客运站","intensity":0,"avg_speed":37.45,"crowd_value_zs":0.33,"crowd_value_yj":1.307,"area":"平乐县","sort":36}},{"type":"Feature","geometry":{"type":"Point","coordinates":[110.307951,25.328908]},"properties":{"region_id":"7992494983494404584","region_name":"万鑫商贸广场","intensity":0,"avg_speed":29.63,"crowd_value_zs":1.06,"crowd_value_yj":1.279,"area":"叠彩区","sort":37}},{"type":"Feature","geometry":{"type":"Point","coordinates":[110.301763,25.329062]},"properties":{"region_id":"10862079356328917331","region_name":"桂林北站","intensity":0,"avg_speed":31.23,"crowd_value_zs":6.09,"crowd_value_yj":1.268,"area":"叠彩区","sort":38}},{"type":"Feature","geometry":{"type":"Point","coordinates":[110.30881,25.328879]},"properties":{"region_id":"12460301188305515917","region_name":"桂林汽车客运北站","intensity":0,"avg_speed":30.28,"crowd_value_zs":0.68,"crowd_value_yj":1.265,"area":"叠彩区","sort":39}},{"type":"Feature","geometry":{"type":"Point","coordinates":[110.299693,25.304814]},"properties":{"region_id":"7981193715150349403","region_name":"广运·美居购物广场","intensity":0,"avg_speed":28.35,"crowd_value_zs":1.41,"crowd_value_yj":1.262,"area":"叠彩区","sort":40}},{"type":"Feature","geometry":{"type":"Point","coordinates":[110.008684,25.800805]},"properties":{"region_id":"1417221011480353587","region_name":"龙胜各族自治县汽车客运服务站","intensity":0,"avg_speed":51.81,"crowd_value_zs":0.48,"crowd_value_yj":1.248,"area":"龙胜各族自治县","sort":41}},{"type":"Feature","geometry":{"type":"Point","coordinates":[110.166905,25.248413]},"properties":{"region_id":"10016068603605144517","region_name":"桂林吾悦广场","intensity":0,"avg_speed":33.65,"crowd_value_zs":6.03,"crowd_value_yj":1.216,"area":"临桂区","sort":42}},{"type":"Feature","geometry":{"type":"Point","coordinates":[111.044646,25.940332]},"properties":{"region_id":"14437747499110690911","region_name":"全州汽车客运西站","intensity":0,"avg_speed":39.83,"crowd_value_zs":0.19,"crowd_value_yj":1.199,"area":"全州县","sort":43}},{"type":"Feature","geometry":{"type":"Point","coordinates":[110.318979,25.314609]},"properties":{"region_id":"4533359788839582060","region_name":"桂林叠彩万达广场","intensity":0,"avg_speed":35.18,"crowd_value_zs":2.21,"crowd_value_yj":1.196,"area":"叠彩区","sort":44}},{"type":"Feature","geometry":{"type":"Point","coordinates":[110.870095,24.830335]},"properties":{"region_id":"10665818702045178229","region_name":"恭城站","intensity":0,"avg_speed":47.36,"crowd_value_zs":0.93,"crowd_value_yj":1.184,"area":"恭城瑶族自治县","sort":45}},{"type":"Feature","geometry":{"type":"Point","coordinates":[110.4337,25.127062]},"properties":{"region_id":"17938388175437168639","region_name":"桂林竹江码头","intensity":0,"avg_speed":51.62,"crowd_value_zs":0.08,"crowd_value_yj":1.183,"area":"七星区","sort":46}},{"type":"Feature","geometry":{"type":"Point","coordinates":[110.048106,25.217258]},"properties":{"region_id":"7328454928037743606","region_name":"桂林两江国际机场","intensity":0,"avg_speed":45.63,"crowd_value_zs":2.77,"crowd_value_yj":1.172,"area":"临桂区","sort":47}},{"type":"Feature","geometry":{"type":"Point","coordinates":[110.439375,24.637371]},"properties":{"region_id":"17672236907599233023","region_name":"桂林市荔浦银子岩风景旅游度假区","intensity":0,"avg_speed":63.01,"crowd_value_zs":3.13,"crowd_value_yj":1.096,"area":"荔浦市","sort":48}},{"type":"Feature","geometry":{"type":"Point","coordinates":[110.389094,24.863112]},"properties":{"region_id":"17823744992816922623","region_name":"世外桃源","intensity":0,"avg_speed":72.83,"crowd_value_zs":0.86,"crowd_value_yj":1.068,"area":"阳朔县","sort":49}},{"type":"Feature","geometry":{"type":"Point","coordinates":[110.097294,25.459162]},"properties":{"region_id":"17938456637215866879","region_name":"红溪景区","intensity":0,"avg_speed":98.58,"crowd_value_zs":0.03,"crowd_value_yj":1.035,"area":"临桂区","sort":50}},{"type":"Feature","geometry":{"type":"Point","coordinates":[110.14009,25.770668]},"properties":{"region_id":"17938394308650467327","region_name":"龙脊梯田风景名胜区","intensity":0,"avg_speed":74.14,"crowd_value_zs":3.26,"crowd_value_yj":1.021,"area":"龙胜各族自治县","sort":51}},{"type":"Feature","geometry":{"type":"Point","coordinates":[110.736603,26.271625]},"properties":{"region_id":"18004806662099042303","region_name":"八角寨景区","intensity":0,"avg_speed":56.57,"crowd_value_zs":0.35,"crowd_value_yj":0.933,"area":"资源县","sort":52}}]}}