{"msg":"获取成功！","end_at":"2024-03-20 01:20:16","data":{"type":"FeatureCollection","features":[{"type":"Feature","geometry":{"type":"Point","coordinates":[119.602871,39.930966]},"properties":{"region_id":"1262698411971313663","region_name":"华联商厦","intensity":0,"avg_speed":26.81,"crowd_value_zs":0.82,"crowd_value_yj":1.387,"area":"海港区","sort":1}},{"type":"Feature","geometry":{"type":"Point","coordinates":[119.604669,39.933596]},"properties":{"region_id":"9228444253125042618","region_name":"乐都汇(秦皇岛店)","intensity":0,"avg_speed":26.21,"crowd_value_zs":0.93,"crowd_value_yj":1.387,"area":"海港区","sort":2}},{"type":"Feature","geometry":{"type":"Point","coordinates":[119.60902,39.937783]},"properties":{"region_id":"1262698961727127551","region_name":"现代购物广场","intensity":0,"avg_speed":27.71,"crowd_value_zs":0.4,"crowd_value_yj":1.385,"area":"海港区","sort":3}},{"type":"Feature","geometry":{"type":"Point","coordinates":[119.606493,39.93413]},"properties":{"region_id":"1259045263113191423","region_name":"新天地广场","intensity":0,"avg_speed":26.54,"crowd_value_zs":2.49,"crowd_value_yj":1.378,"area":"海港区","sort":4}},{"type":"Feature","geometry":{"type":"Point","coordinates":[119.606187,39.944884]},"properties":{"region_id":"1260330944393379839","region_name":"亚泰批发商厦","intensity":0,"avg_speed":28.92,"crowd_value_zs":0.49,"crowd_value_yj":1.369,"area":"海港区","sort":5}},{"type":"Feature","geometry":{"type":"Point","coordinates":[119.604392,39.931693]},"properties":{"region_id":"2708795756795363204","region_name":"茂业百货(金都店)","intensity":0,"avg_speed":27.08,"crowd_value_zs":2.32,"crowd_value_yj":1.353,"area":"海港区","sort":6}},{"type":"Feature","geometry":{"type":"Point","coordinates":[119.554014,39.951053]},"properties":{"region_id":"18009289117602414591","region_name":"秦皇植物园","intensity":0,"avg_speed":31.64,"crowd_value_zs":0.77,"crowd_value_yj":1.349,"area":"海港区","sort":7}},{"type":"Feature","geometry":{"type":"Point","coordinates":[119.577091,39.951913]},"properties":{"region_id":"15084181563232937309","region_name":"万达广场","intensity":0,"avg_speed":29.24,"crowd_value_zs":3.44,"crowd_value_yj":1.349,"area":"海港区","sort":8}},{"type":"Feature","geometry":{"type":"Point","coordinates":[119.167903,39.704452]},"properties":{"region_id":"2058841325195598038","region_name":"昌黎站","intensity":0,"avg_speed":30.84,"crowd_value_zs":2.91,"crowd_value_yj":1.337,"area":"昌黎县","sort":9}},{"type":"Feature","geometry":{"type":"Point","coordinates":[119.599927,39.944493]},"properties":{"region_id":"18009289847746854911","region_name":"金街时代广场","intensity":0,"avg_speed":30.0,"crowd_value_zs":0.29,"crowd_value_yj":1.312,"area":"海港区","sort":10}},{"type":"Feature","geometry":{"type":"Point","coordinates":[119.166522,39.714952]},"properties":{"region_id":"4039399792614950211","region_name":"民生广场","intensity":0,"avg_speed":30.5,"crowd_value_zs":0.38,"crowd_value_yj":1.302,"area":"昌黎县","sort":11}},{"type":"Feature","geometry":{"type":"Point","coordinates":[119.588136,39.963132]},"properties":{"region_id":"7718348463890915632","region_name":"秦皇岛长途汽车站","intensity":0,"avg_speed":34.16,"crowd_value_zs":0.42,"crowd_value_yj":1.3,"area":"海港区","sort":12}},{"type":"Feature","geometry":{"type":"Point","coordinates":[119.767341,40.000455]},"properties":{"region_id":"7153958163131140688","region_name":"山海关站","intensity":0,"avg_speed":36.1,"crowd_value_zs":6.51,"crowd_value_yj":1.291,"area":"山海关区","sort":13}},{"type":"Feature","geometry":{"type":"Point","coordinates":[119.520179,39.98706]},"properties":{"region_id":"18009303763440893951","region_name":"栗园汽车站","intensity":0,"avg_speed":58.0,"crowd_value_zs":0.11,"crowd_value_yj":1.287,"area":"海港区","sort":14}},{"type":"Feature","geometry":{"type":"Point","coordinates":[119.584885,39.957849]},"properties":{"region_id":"17672098725616418815","region_name":"金色未来商厦","intensity":0,"avg_speed":32.98,"crowd_value_zs":0.43,"crowd_value_yj":1.286,"area":"海港区","sort":15}},{"type":"Feature","geometry":{"type":"Point","coordinates":[119.592278,39.965834]},"properties":{"region_id":"2451852629742376049","region_name":"秦皇岛站","intensity":0,"avg_speed":34.33,"crowd_value_zs":11.06,"crowd_value_yj":1.273,"area":"海港区","sort":16}},{"type":"Feature","geometry":{"type":"Point","coordinates":[119.761887,40.001913]},"properties":{"region_id":"18009285690218512383","region_name":"鑫和购物","intensity":0,"avg_speed":35.75,"crowd_value_zs":0.26,"crowd_value_yj":1.27,"area":"山海关区","sort":17}},{"type":"Feature","geometry":{"type":"Point","coordinates":[119.760843,40.010135]},"properties":{"region_id":"9248928842771044310","region_name":"山海关风景区-天下第一关景区","intensity":0,"avg_speed":40.71,"crowd_value_zs":0.68,"crowd_value_yj":1.26,"area":"山海关区","sort":18}},{"type":"Feature","geometry":{"type":"Point","coordinates":[119.76786,40.007906]},"properties":{"region_id":"18009285630088970239","region_name":"秦皇岛山海关长途汽车站","intensity":0,"avg_speed":37.35,"crowd_value_zs":0.2,"crowd_value_yj":1.26,"area":"山海关区","sort":19}},{"type":"Feature","geometry":{"type":"Point","coordinates":[119.604055,39.919783]},"properties":{"region_id":"5744784788604232947","region_name":"秦皇岛-仁川国际客运站","intensity":0,"avg_speed":36.66,"crowd_value_zs":0.08,"crowd_value_yj":1.249,"area":"海港区","sort":20}},{"type":"Feature","geometry":{"type":"Point","coordinates":[119.581753,39.947355]},"properties":{"region_id":"11586774578359888005","region_name":"世纪港湾","intensity":0,"avg_speed":30.26,"crowd_value_zs":2.44,"crowd_value_yj":1.244,"area":"海港区","sort":21}},{"type":"Feature","geometry":{"type":"Point","coordinates":[119.822754,40.036894]},"properties":{"region_id":"18009266053628035071","region_name":"孟姜女庙景区","intensity":0,"avg_speed":56.79,"crowd_value_zs":0.11,"crowd_value_yj":1.213,"area":"山海关区","sort":22}},{"type":"Feature","geometry":{"type":"Point","coordinates":[119.492034,39.823743]},"properties":{"region_id":"3410233308873012503","region_name":"海滨汽车站","intensity":0,"avg_speed":37.9,"crowd_value_zs":0.34,"crowd_value_yj":1.191,"area":"北戴河区","sort":23}},{"type":"Feature","geometry":{"type":"Point","coordinates":[119.432353,40.058542]},"properties":{"region_id":"13389069217207791902","region_name":"河北秦皇岛国家地质公园","intensity":0,"avg_speed":65.7,"crowd_value_zs":9.64,"crowd_value_yj":1.18,"area":"海港区","sort":24}},{"type":"Feature","geometry":{"type":"Point","coordinates":[119.545751,39.908718]},"properties":{"region_id":"7146919861631812894","region_name":"秦皇岛茂业天地","intensity":0,"avg_speed":33.14,"crowd_value_zs":5.07,"crowd_value_yj":1.172,"area":"海港区","sort":25}},{"type":"Feature","geometry":{"type":"Point","coordinates":[119.478981,39.815873]},"properties":{"region_id":"17820914910016569343","region_name":"平水桥公园","intensity":0,"avg_speed":39.88,"crowd_value_zs":0.27,"crowd_value_yj":1.168,"area":"北戴河区","sort":26}},{"type":"Feature","geometry":{"type":"Point","coordinates":[119.563576,39.90623]},"properties":{"region_id":"13318018361642658732","region_name":"新澳海底世界","intensity":0,"avg_speed":34.26,"crowd_value_zs":0.53,"crowd_value_yj":1.167,"area":"海港区","sort":27}},{"type":"Feature","geometry":{"type":"Point","coordinates":[118.8919,39.895889]},"properties":{"region_id":"18009295564348325887","region_name":"卢龙汽车站","intensity":0,"avg_speed":35.78,"crowd_value_zs":0.15,"crowd_value_yj":1.15,"area":"卢龙县","sort":28}},{"type":"Feature","geometry":{"type":"Point","coordinates":[119.798433,39.969471]},"properties":{"region_id":"18009285935031648255","region_name":"老龙头景区","intensity":0,"avg_speed":41.13,"crowd_value_zs":0.56,"crowd_value_yj":1.145,"area":"山海关区","sort":29}},{"type":"Feature","geometry":{"type":"Point","coordinates":[119.79882,39.970421]},"properties":{"region_id":"7841249607363047861","region_name":"山海关风景区","intensity":0,"avg_speed":41.13,"crowd_value_zs":0.56,"crowd_value_yj":1.145,"area":"山海关区","sort":30}},{"type":"Feature","geometry":{"type":"Point","coordinates":[119.170311,40.339659]},"properties":{"region_id":"18009264043583340543","region_name":"双山子汽车站","intensity":0,"avg_speed":43.8,"crowd_value_zs":0.03,"crowd_value_yj":1.143,"area":"青龙满族自治县","sort":31}},{"type":"Feature","geometry":{"type":"Point","coordinates":[119.734643,40.046467]},"properties":{"region_id":"8011013171780485964","region_name":"角山景区","intensity":0,"avg_speed":67.94,"crowd_value_zs":0.34,"crowd_value_yj":1.14,"area":"山海关区","sort":32}},{"type":"Feature","geometry":{"type":"Point","coordinates":[119.526794,39.836256]},"properties":{"region_id":"8099544933263724671","region_name":"鸽子窝公园","intensity":0,"avg_speed":39.85,"crowd_value_zs":0.96,"crowd_value_yj":1.137,"area":"北戴河区","sort":33}},{"type":"Feature","geometry":{"type":"Point","coordinates":[119.066942,39.665752]},"properties":{"region_id":"964972691741814917","region_name":"秦皇岛北戴河机场","intensity":0,"avg_speed":48.89,"crowd_value_zs":1.01,"crowd_value_yj":1.135,"area":"昌黎县","sort":34}},{"type":"Feature","geometry":{"type":"Point","coordinates":[119.514711,39.827889]},"properties":{"region_id":"1315845719138056947","region_name":"奥林匹克公园","intensity":0,"avg_speed":38.53,"crowd_value_zs":0.31,"crowd_value_yj":1.133,"area":"北戴河区","sort":35}},{"type":"Feature","geometry":{"type":"Point","coordinates":[119.489335,39.813618]},"properties":{"region_id":"7085046887875448254","region_name":"老虎石海上公园","intensity":0,"avg_speed":40.03,"crowd_value_zs":0.14,"crowd_value_yj":1.124,"area":"北戴河区","sort":36}},{"type":"Feature","geometry":{"type":"Point","coordinates":[119.344256,39.707922]},"properties":{"region_id":"4840494553296532641","region_name":"黄金海岸风景区","intensity":0,"avg_speed":60.16,"crowd_value_zs":0.35,"crowd_value_yj":1.123,"area":"昌黎县","sort":37}},{"type":"Feature","geometry":{"type":"Point","coordinates":[118.997617,40.408502]},"properties":{"region_id":"5118697910004480853","region_name":"青龙新汽车站","intensity":0,"avg_speed":53.99,"crowd_value_zs":0.52,"crowd_value_yj":1.122,"area":"青龙满族自治县","sort":38}},{"type":"Feature","geometry":{"type":"Point","coordinates":[119.249607,39.880477]},"properties":{"region_id":"13845200402962877065","region_name":"东购商场","intensity":0,"avg_speed":36.64,"crowd_value_zs":0.06,"crowd_value_yj":1.122,"area":"抚宁区","sort":39}},{"type":"Feature","geometry":{"type":"Point","coordinates":[119.393139,39.889267]},"properties":{"region_id":"2157576785756448630","region_name":"戴河生态园","intensity":0,"avg_speed":79.41,"crowd_value_zs":0.57,"crowd_value_yj":1.113,"area":"北戴河区","sort":40}},{"type":"Feature","geometry":{"type":"Point","coordinates":[119.75784,39.955404]},"properties":{"region_id":"9176085227760180040","region_name":"山海关欢乐海洋公园","intensity":0,"avg_speed":67.44,"crowd_value_zs":0.53,"crowd_value_yj":1.105,"area":"山海关区","sort":41}},{"type":"Feature","geometry":{"type":"Point","coordinates":[119.420005,39.851307]},"properties":{"region_id":"15647559724080919395","region_name":"北戴河站","intensity":0,"avg_speed":50.1,"crowd_value_zs":3.24,"crowd_value_yj":1.1,"area":"北戴河区","sort":42}},{"type":"Feature","geometry":{"type":"Point","coordinates":[119.521255,39.870146]},"properties":{"region_id":"1897790781846708488","region_name":"秦皇岛野生动物园","intensity":0,"avg_speed":59.83,"crowd_value_zs":2.02,"crowd_value_yj":1.083,"area":"北戴河区","sort":43}},{"type":"Feature","geometry":{"type":"Point","coordinates":[119.535,39.82044]},"properties":{"region_id":"18009290706740314111","region_name":"北戴河碧螺塔海上酒吧公园","intensity":0,"avg_speed":40.81,"crowd_value_zs":0.43,"crowd_value_yj":1.076,"area":"北戴河区","sort":44}},{"type":"Feature","geometry":{"type":"Point","coordinates":[118.840084,40.257083]},"properties":{"region_id":"18009264580454252543","region_name":"马道沟汽车站","intensity":0,"avg_speed":44.54,"crowd_value_zs":0.0,"crowd_value_yj":1.068,"area":"青龙满族自治县","sort":45}},{"type":"Feature","geometry":{"type":"Point","coordinates":[119.418295,39.820307]},"properties":{"region_id":"12540861586136228290","region_name":"北戴河集发农业专业合作社","intensity":0,"avg_speed":61.59,"crowd_value_zs":0.38,"crowd_value_yj":1.064,"area":"北戴河区","sort":46}},{"type":"Feature","geometry":{"type":"Point","coordinates":[119.726429,39.948921]},"properties":{"region_id":"12841574505946557374","region_name":"龙海源商厦","intensity":0,"avg_speed":74.39,"crowd_value_zs":0.01,"crowd_value_yj":1.031,"area":"山海关区","sort":47}},{"type":"Feature","geometry":{"type":"Point","coordinates":[119.28772,39.601409]},"properties":{"region_id":"9870754363681386605","region_name":"渔岛海洋温泉景区","intensity":0,"avg_speed":62.01,"crowd_value_zs":0.97,"crowd_value_yj":1.025,"area":"昌黎县","sort":48}},{"type":"Feature","geometry":{"type":"Point","coordinates":[118.939239,40.108328]},"properties":{"region_id":"18009295371074797567","region_name":"刘家营客运站","intensity":0,"avg_speed":57.55,"crowd_value_zs":0.01,"crowd_value_yj":0.99,"area":"卢龙县","sort":49}},{"type":"Feature","geometry":{"type":"Point","coordinates":[119.740485,40.067314]},"properties":{"region_id":"14414054224168413206","region_name":"长寿山景区","intensity":0,"avg_speed":54.6,"crowd_value_zs":0.03,"crowd_value_yj":0.977,"area":"山海关区","sort":50}},{"type":"Feature","geometry":{"type":"Point","coordinates":[119.067189,40.036257]},"properties":{"region_id":"18009295349599961087","region_name":"卢龙燕河营客运站","intensity":0,"avg_speed":54.53,"crowd_value_zs":0.03,"crowd_value_yj":0.969,"area":"卢龙县","sort":51}},{"type":"Feature","geometry":{"type":"Point","coordinates":[119.139642,40.022023]},"properties":{"region_id":"18009303707606319103","region_name":"顺发客运汽车站","intensity":0,"avg_speed":51.23,"crowd_value_zs":0.0,"crowd_value_yj":0.924,"area":"抚宁区","sort":52}},{"type":"Feature","geometry":{"type":"Point","coordinates":[119.293231,40.161348]},"properties":{"region_id":"18009264309871312895","region_name":"界岭口汽车站","intensity":0,"avg_speed":64.74,"crowd_value_zs":0.0,"crowd_value_yj":0.809,"area":"抚宁区","sort":53}}]}}