{"msg":"获取成功！","end_at":"2024-03-20 01:20:42","data":{"type":"FeatureCollection","features":[{"type":"Feature","geometry":{"type":"Point","coordinates":[114.468328,38.064178]},"properties":{"region_id":"8773662679029822710","region_name":"石家庄公路主枢纽客运北站","intensity":3,"avg_speed":21.06,"crowd_value_zs":0.9,"crowd_value_yj":2.13,"area":"新华区","sort":1}},{"type":"Feature","geometry":{"type":"Point","coordinates":[114.465618,38.066107]},"properties":{"region_id":"12919536825548376215","region_name":"石家庄北站","intensity":3,"avg_speed":21.97,"crowd_value_zs":4.41,"crowd_value_yj":2.046,"area":"新华区","sort":2}},{"type":"Feature","geometry":{"type":"Point","coordinates":[114.53259,38.072201]},"properties":{"region_id":"14751150589410190025","region_name":"保利广场购物中心","intensity":1,"avg_speed":29.41,"crowd_value_zs":0.92,"crowd_value_yj":1.725,"area":"长安区","sort":3}},{"type":"Feature","geometry":{"type":"Point","coordinates":[114.497289,38.049856]},"properties":{"region_id":"14745175282231409043","region_name":"桥东长途汽车东站","intensity":1,"avg_speed":23.9,"crowd_value_zs":0.54,"crowd_value_yj":1.587,"area":"长安区","sort":4}},{"type":"Feature","geometry":{"type":"Point","coordinates":[114.459447,37.994186]},"properties":{"region_id":"7351127322142601012","region_name":"西美·花街生活工场","intensity":1,"avg_speed":32.3,"crowd_value_zs":4.74,"crowd_value_yj":1.583,"area":"桥西区","sort":5}},{"type":"Feature","geometry":{"type":"Point","coordinates":[114.526059,38.022701]},"properties":{"region_id":"13813358966733714046","region_name":"怀特商业广场","intensity":0,"avg_speed":28.7,"crowd_value_zs":7.27,"crowd_value_yj":1.488,"area":"裕华区","sort":6}},{"type":"Feature","geometry":{"type":"Point","coordinates":[114.529978,38.023087]},"properties":{"region_id":"13944908058968644092","region_name":"怀特国际商城","intensity":0,"avg_speed":29.27,"crowd_value_zs":3.48,"crowd_value_yj":1.487,"area":"裕华区","sort":7}},{"type":"Feature","geometry":{"type":"Point","coordinates":[114.517367,38.085549]},"properties":{"region_id":"16992309412932404421","region_name":"北国商城益庄购物中心","intensity":0,"avg_speed":32.9,"crowd_value_zs":3.99,"crowd_value_yj":1.48,"area":"长安区","sort":8}},{"type":"Feature","geometry":{"type":"Point","coordinates":[114.484459,38.010565]},"properties":{"region_id":"12277568133355884305","region_name":"石家庄站","intensity":0,"avg_speed":30.69,"crowd_value_zs":38.52,"crowd_value_yj":1.453,"area":"桥西区","sort":9}},{"type":"Feature","geometry":{"type":"Point","coordinates":[115.215361,37.904681]},"properties":{"region_id":"4805461163596567562","region_name":"辛集站","intensity":0,"avg_speed":30.13,"crowd_value_zs":0.92,"crowd_value_yj":1.449,"area":"辛集市","sort":10}},{"type":"Feature","geometry":{"type":"Point","coordinates":[114.547667,38.043814]},"properties":{"region_id":"18009192021276753919","region_name":"建华百货大楼","intensity":0,"avg_speed":22.73,"crowd_value_zs":1.28,"crowd_value_yj":1.44,"area":"长安区","sort":11}},{"type":"Feature","geometry":{"type":"Point","coordinates":[114.544963,38.023993]},"properties":{"region_id":"9604759633365255226","region_name":"万达广场(石家庄裕华)","intensity":0,"avg_speed":27.91,"crowd_value_zs":7.47,"crowd_value_yj":1.435,"area":"裕华区","sort":12}},{"type":"Feature","geometry":{"type":"Point","coordinates":[114.55516,38.044056]},"properties":{"region_id":"17934484181140077288","region_name":"谈固公交枢纽站","intensity":0,"avg_speed":21.9,"crowd_value_zs":0.95,"crowd_value_yj":1.412,"area":"长安区","sort":13}},{"type":"Feature","geometry":{"type":"Point","coordinates":[114.510162,38.071363]},"properties":{"region_id":"8925263084061564694","region_name":"石家庄公路主枢纽运河桥客运站","intensity":0,"avg_speed":34.33,"crowd_value_zs":0.18,"crowd_value_yj":1.409,"area":"长安区","sort":14}},{"type":"Feature","geometry":{"type":"Point","coordinates":[114.450793,38.034205]},"properties":{"region_id":"1262727269856575487","region_name":"北国商城益友购物中心","intensity":0,"avg_speed":35.68,"crowd_value_zs":4.99,"crowd_value_yj":1.405,"area":"桥西区","sort":15}},{"type":"Feature","geometry":{"type":"Point","coordinates":[114.201983,38.260795]},"properties":{"region_id":"18009238475643027455","region_name":"平山汽车站","intensity":0,"avg_speed":31.43,"crowd_value_zs":0.71,"crowd_value_yj":1.398,"area":"平山县","sort":16}},{"type":"Feature","geometry":{"type":"Point","coordinates":[114.478093,38.044211]},"properties":{"region_id":"1262726110215405567","region_name":"新百广场","intensity":0,"avg_speed":24.43,"crowd_value_zs":7.46,"crowd_value_yj":1.376,"area":"桥西区","sort":17}},{"type":"Feature","geometry":{"type":"Point","coordinates":[114.992812,38.1758]},"properties":{"region_id":"17820826657028571135","region_name":"无极汽车站","intensity":0,"avg_speed":32.07,"crowd_value_zs":0.08,"crowd_value_yj":1.357,"area":"无极县","sort":18}},{"type":"Feature","geometry":{"type":"Point","coordinates":[114.388101,38.309594]},"properties":{"region_id":"18009213036551733247","region_name":"灵寿汽车站","intensity":0,"avg_speed":30.35,"crowd_value_zs":0.32,"crowd_value_yj":1.344,"area":"灵寿县","sort":19}},{"type":"Feature","geometry":{"type":"Point","coordinates":[114.5067,38.044818]},"properties":{"region_id":"18110937478498552962","region_name":"勒泰中心商场","intensity":0,"avg_speed":27.32,"crowd_value_zs":9.98,"crowd_value_yj":1.337,"area":"长安区","sort":20}},{"type":"Feature","geometry":{"type":"Point","coordinates":[114.545799,37.760203]},"properties":{"region_id":"18009227570721062911","region_name":"元氏汽车站","intensity":0,"avg_speed":34.1,"crowd_value_zs":0.23,"crowd_value_yj":1.329,"area":"元氏县","sort":21}},{"type":"Feature","geometry":{"type":"Point","coordinates":[114.56401,38.044412]},"properties":{"region_id":"5905276242392773240","region_name":"万达广场(长安店)","intensity":0,"avg_speed":33.34,"crowd_value_zs":6.19,"crowd_value_yj":1.319,"area":"长安区","sort":22}},{"type":"Feature","geometry":{"type":"Point","coordinates":[114.556185,38.161819]},"properties":{"region_id":"15824379264024677981","region_name":"正定站","intensity":0,"avg_speed":30.43,"crowd_value_zs":0.56,"crowd_value_yj":1.309,"area":"正定县","sort":23}},{"type":"Feature","geometry":{"type":"Point","coordinates":[114.555921,38.042837]},"properties":{"region_id":"86996964375699038","region_name":"东胜广场","intensity":0,"avg_speed":22.79,"crowd_value_zs":5.91,"crowd_value_yj":1.305,"area":"长安区","sort":24}},{"type":"Feature","geometry":{"type":"Point","coordinates":[114.579312,38.14823]},"properties":{"region_id":"3635888461862237169","region_name":"荣国府","intensity":0,"avg_speed":33.6,"crowd_value_zs":0.65,"crowd_value_yj":1.303,"area":"正定县","sort":25}},{"type":"Feature","geometry":{"type":"Point","coordinates":[114.415263,38.052445]},"properties":{"region_id":"18009193863817723903","region_name":"石家庄公路-主枢纽西王客运站","intensity":0,"avg_speed":26.89,"crowd_value_zs":0.32,"crowd_value_yj":1.3,"area":"桥西区","sort":26}},{"type":"Feature","geometry":{"type":"Point","coordinates":[114.479687,38.03633]},"properties":{"region_id":"9780625100721788277","region_name":"万象天成购物中心","intensity":0,"avg_speed":24.86,"crowd_value_zs":3.38,"crowd_value_yj":1.295,"area":"桥西区","sort":27}},{"type":"Feature","geometry":{"type":"Point","coordinates":[114.522706,38.040656]},"properties":{"region_id":"1258913411912171519","region_name":"河北博物院","intensity":0,"avg_speed":23.84,"crowd_value_zs":12.32,"crowd_value_yj":1.295,"area":"长安区","sort":28}},{"type":"Feature","geometry":{"type":"Point","coordinates":[114.552887,38.148904]},"properties":{"region_id":"2211052750363207578","region_name":"正定汽车站","intensity":0,"avg_speed":31.6,"crowd_value_zs":0.5,"crowd_value_yj":1.294,"area":"正定县","sort":29}},{"type":"Feature","geometry":{"type":"Point","coordinates":[114.474458,38.034716]},"properties":{"region_id":"2774924389007417077","region_name":"海悦天地购物广场","intensity":0,"avg_speed":31.13,"crowd_value_zs":7.03,"crowd_value_yj":1.287,"area":"桥西区","sort":30}},{"type":"Feature","geometry":{"type":"Point","coordinates":[114.69143,38.336238]},"properties":{"region_id":"18009201749377679359","region_name":"新乐汽车站","intensity":0,"avg_speed":31.29,"crowd_value_zs":0.07,"crowd_value_yj":1.287,"area":"新乐市","sort":31}},{"type":"Feature","geometry":{"type":"Point","coordinates":[114.598348,37.606271]},"properties":{"region_id":"18009241516479873023","region_name":"高邑汽车站","intensity":0,"avg_speed":41.1,"crowd_value_zs":0.26,"crowd_value_yj":1.278,"area":"高邑县","sort":32}},{"type":"Feature","geometry":{"type":"Point","coordinates":[114.478608,38.041776]},"properties":{"region_id":"11715766424975966436","region_name":"华润万象城","intensity":0,"avg_speed":24.87,"crowd_value_zs":20.42,"crowd_value_yj":1.276,"area":"桥西区","sort":33}},{"type":"Feature","geometry":{"type":"Point","coordinates":[114.510336,38.042467]},"properties":{"region_id":"15966196162825826203","region_name":"北国商城","intensity":0,"avg_speed":25.38,"crowd_value_zs":5.02,"crowd_value_yj":1.276,"area":"桥西区","sort":34}},{"type":"Feature","geometry":{"type":"Point","coordinates":[114.457481,38.076917]},"properties":{"region_id":"1259235083487805439","region_name":"水上公园","intensity":0,"avg_speed":35.92,"crowd_value_zs":3.02,"crowd_value_yj":1.274,"area":"新华区","sort":35}},{"type":"Feature","geometry":{"type":"Point","coordinates":[114.304749,38.062621]},"properties":{"region_id":"1259235135027412991","region_name":"石家庄市动物园","intensity":0,"avg_speed":36.14,"crowd_value_zs":2.56,"crowd_value_yj":1.272,"area":"鹿泉区","sort":36}},{"type":"Feature","geometry":{"type":"Point","coordinates":[114.555786,38.006801]},"properties":{"region_id":"7736296908967676384","region_name":"信誉楼百货(裕华店)","intensity":0,"avg_speed":36.96,"crowd_value_zs":1.91,"crowd_value_yj":1.27,"area":"裕华区","sort":37}},{"type":"Feature","geometry":{"type":"Point","coordinates":[114.613803,38.144547]},"properties":{"region_id":"541273144032226095","region_name":"河北省园博园","intensity":0,"avg_speed":31.24,"crowd_value_zs":0.82,"crowd_value_yj":1.269,"area":"正定县","sort":38}},{"type":"Feature","geometry":{"type":"Point","coordinates":[114.531579,37.99883]},"properties":{"region_id":"4882376009918368365","region_name":"南焦客运站","intensity":0,"avg_speed":38.59,"crowd_value_zs":1.46,"crowd_value_yj":1.26,"area":"裕华区","sort":39}},{"type":"Feature","geometry":{"type":"Point","coordinates":[114.768897,37.722504]},"properties":{"region_id":"7560657755446459578","region_name":"赵州桥景区","intensity":0,"avg_speed":40.85,"crowd_value_zs":0.9,"crowd_value_yj":1.254,"area":"赵县","sort":40}},{"type":"Feature","geometry":{"type":"Point","coordinates":[114.487936,38.037343]},"properties":{"region_id":"17973084355773333503","region_name":"石家庄客运总站","intensity":0,"avg_speed":25.39,"crowd_value_zs":0.81,"crowd_value_yj":1.245,"area":"桥西区","sort":41}},{"type":"Feature","geometry":{"type":"Point","coordinates":[114.440034,38.08715]},"properties":{"region_id":"12281971413951204587","region_name":"天河方圆荟购物中心","intensity":0,"avg_speed":42.84,"crowd_value_zs":1.85,"crowd_value_yj":1.237,"area":"新华区","sort":42}},{"type":"Feature","geometry":{"type":"Point","coordinates":[115.222297,37.981557]},"properties":{"region_id":"11091106467899878785","region_name":"辛集汽车站","intensity":0,"avg_speed":43.95,"crowd_value_zs":0.02,"crowd_value_yj":1.234,"area":"辛集市","sort":43}},{"type":"Feature","geometry":{"type":"Point","coordinates":[114.391183,38.015179]},"properties":{"region_id":"15141765936818375464","region_name":"河北省英烈纪念馆","intensity":0,"avg_speed":38.63,"crowd_value_zs":0.31,"crowd_value_yj":1.233,"area":"鹿泉区","sort":44}},{"type":"Feature","geometry":{"type":"Point","coordinates":[115.211779,37.883784]},"properties":{"region_id":"12460170214865633104","region_name":"辛集南站","intensity":0,"avg_speed":37.62,"crowd_value_zs":1.08,"crowd_value_yj":1.228,"area":"辛集市","sort":45}},{"type":"Feature","geometry":{"type":"Point","coordinates":[114.60728,38.038223]},"properties":{"region_id":"1262979070904238079","region_name":"天山海世界","intensity":0,"avg_speed":30.24,"crowd_value_zs":1.8,"crowd_value_yj":1.208,"area":"裕华区","sort":46}},{"type":"Feature","geometry":{"type":"Point","coordinates":[114.277043,38.088367]},"properties":{"region_id":"17820850738910199807","region_name":"抱犊寨风景区","intensity":0,"avg_speed":40.59,"crowd_value_zs":0.82,"crowd_value_yj":1.193,"area":"鹿泉区","sort":47}},{"type":"Feature","geometry":{"type":"Point","coordinates":[114.860377,38.026434]},"properties":{"region_id":"1261958986106667007","region_name":"信誉楼商厦(藁城店)","intensity":0,"avg_speed":32.14,"crowd_value_zs":2.59,"crowd_value_yj":1.175,"area":"藁城区","sort":48}},{"type":"Feature","geometry":{"type":"Point","coordinates":[114.346984,38.005193]},"properties":{"region_id":"9894364542367584830","region_name":"龙泉湖湿地","intensity":0,"avg_speed":57.19,"crowd_value_zs":1.31,"crowd_value_yj":1.172,"area":"鹿泉区","sort":49}},{"type":"Feature","geometry":{"type":"Point","coordinates":[114.288326,38.015432]},"properties":{"region_id":"10046840745948648922","region_name":"德明古镇","intensity":0,"avg_speed":51.51,"crowd_value_zs":0.78,"crowd_value_yj":1.128,"area":"鹿泉区","sort":50}},{"type":"Feature","geometry":{"type":"Point","coordinates":[114.401054,37.957615]},"properties":{"region_id":"9864183574126561324","region_name":"北国奥特莱斯","intensity":0,"avg_speed":57.13,"crowd_value_zs":2.68,"crowd_value_yj":1.126,"area":"鹿泉区","sort":51}},{"type":"Feature","geometry":{"type":"Point","coordinates":[114.381822,38.10579]},"properties":{"region_id":"6737219562239814832","region_name":"石家庄植物园","intensity":0,"avg_speed":62.3,"crowd_value_zs":3.85,"crowd_value_yj":1.116,"area":"新华区","sort":52}},{"type":"Feature","geometry":{"type":"Point","coordinates":[113.98139,38.249671]},"properties":{"region_id":"1261637254401490943","region_name":"白鹿温泉","intensity":0,"avg_speed":47.81,"crowd_value_zs":0.35,"crowd_value_yj":1.109,"area":"平山县","sort":53}},{"type":"Feature","geometry":{"type":"Point","coordinates":[113.944036,38.340269]},"properties":{"region_id":"12497425850139438370","region_name":"西柏坡景区","intensity":0,"avg_speed":47.26,"crowd_value_zs":2.01,"crowd_value_yj":1.096,"area":"平山县","sort":54}},{"type":"Feature","geometry":{"type":"Point","coordinates":[114.089816,37.488698]},"properties":{"region_id":"18009215579172372479","region_name":"嶂石岩风景区","intensity":0,"avg_speed":55.75,"crowd_value_zs":2.24,"crowd_value_yj":1.018,"area":"赞皇县","sort":55}},{"type":"Feature","geometry":{"type":"Point","coordinates":[114.155206,38.225802]},"properties":{"region_id":"16486516513216611471","region_name":"东方巨龟苑","intensity":0,"avg_speed":89.51,"crowd_value_zs":0.06,"crowd_value_yj":1.018,"area":"平山县","sort":56}},{"type":"Feature","geometry":{"type":"Point","coordinates":[113.75101,38.199869]},"properties":{"region_id":"18009239064053547007","region_name":"沕沕水生态风景区","intensity":0,"avg_speed":52.81,"crowd_value_zs":0.16,"crowd_value_yj":1.012,"area":"平山县","sort":57}},{"type":"Feature","geometry":{"type":"Point","coordinates":[113.81804,38.725443]},"properties":{"region_id":"18009238389743681535","region_name":"驼梁山风景区","intensity":0,"avg_speed":48.67,"crowd_value_zs":0.12,"crowd_value_yj":0.989,"area":"平山县","sort":58}},{"type":"Feature","geometry":{"type":"Point","coordinates":[113.749728,38.25987]},"properties":{"region_id":"17820852688825352191","region_name":"天桂山","intensity":0,"avg_speed":46.67,"crowd_value_zs":0.1,"crowd_value_yj":0.969,"area":"平山县","sort":59}},{"type":"Feature","geometry":{"type":"Point","coordinates":[114.171694,37.834573]},"properties":{"region_id":"18009245265986322431","region_name":"苍岩山风景区","intensity":0,"avg_speed":42.1,"crowd_value_zs":0.67,"crowd_value_yj":0.966,"area":"井陉县","sort":60}}]}}