{"msg":"获取成功！","end_at":"2024-03-19 10:09:10","data":{"type":"FeatureCollection","features":[{"type":"Feature","geometry":{"type":"Point","coordinates":[114.55916,36.61983]},"properties":{"region_id":"17720871896854185588","region_name":"邯郸东站","intensity":3,"avg_speed":19.29,"crowd_value_zs":7.88,"crowd_value_yj":2.557,"area":"丛台区","sort":1}},{"type":"Feature","geometry":{"type":"Point","coordinates":[114.556027,36.622369]},"properties":{"region_id":"13748896002791002348","region_name":"邯郸植物园","intensity":3,"avg_speed":18.78,"crowd_value_zs":1.52,"crowd_value_yj":2.404,"area":"丛台区","sort":2}},{"type":"Feature","geometry":{"type":"Point","coordinates":[114.563836,36.616967]},"properties":{"region_id":"18009442675568148479","region_name":"邯郸客运中心站","intensity":3,"avg_speed":22.48,"crowd_value_zs":0.93,"crowd_value_yj":2.24,"area":"丛台区","sort":3}},{"type":"Feature","geometry":{"type":"Point","coordinates":[114.472838,36.623947]},"properties":{"region_id":"13968806689522710249","region_name":"赵苑公园","intensity":1,"avg_speed":22.83,"crowd_value_zs":2.26,"crowd_value_yj":1.771,"area":"丛台区","sort":4}},{"type":"Feature","geometry":{"type":"Point","coordinates":[114.486673,36.604659]},"properties":{"region_id":"18009465533384097791","region_name":"国风购物中心","intensity":1,"avg_speed":20.21,"crowd_value_zs":2.62,"crowd_value_yj":1.69,"area":"丛台区","sort":5}},{"type":"Feature","geometry":{"type":"Point","coordinates":[114.490417,36.616139]},"properties":{"region_id":"17672118289192452095","region_name":"丛台公园","intensity":1,"avg_speed":20.88,"crowd_value_zs":2.86,"crowd_value_yj":1.686,"area":"丛台区","sort":6}},{"type":"Feature","geometry":{"type":"Point","coordinates":[114.522967,36.607623]},"properties":{"region_id":"15423707357699557828","region_name":"美乐城","intensity":1,"avg_speed":23.02,"crowd_value_zs":11.53,"crowd_value_yj":1.686,"area":"丛台区","sort":7}},{"type":"Feature","geometry":{"type":"Point","coordinates":[114.519977,36.626485]},"properties":{"region_id":"7194573317371896469","region_name":"阳光天鸿广场","intensity":1,"avg_speed":22.27,"crowd_value_zs":5.54,"crowd_value_yj":1.641,"area":"丛台区","sort":8}},{"type":"Feature","geometry":{"type":"Point","coordinates":[114.517791,36.613114]},"properties":{"region_id":"5075653553970133969","region_name":"龙湖公园","intensity":1,"avg_speed":21.96,"crowd_value_zs":3.89,"crowd_value_yj":1.598,"area":"丛台区","sort":9}},{"type":"Feature","geometry":{"type":"Point","coordinates":[114.475459,36.601153]},"properties":{"region_id":"10766040801413795250","region_name":"邯郸站","intensity":1,"avg_speed":22.31,"crowd_value_zs":8.69,"crowd_value_yj":1.591,"area":"邯山区","sort":10}},{"type":"Feature","geometry":{"type":"Point","coordinates":[114.491654,36.778019]},"properties":{"region_id":"17585552832710001254","region_name":"天骏商业广场","intensity":1,"avg_speed":27.07,"crowd_value_zs":3.4,"crowd_value_yj":1.539,"area":"永年区","sort":11}},{"type":"Feature","geometry":{"type":"Point","coordinates":[114.49428,36.625106]},"properties":{"region_id":"6422197627078565115","region_name":"万达商场","intensity":1,"avg_speed":22.45,"crowd_value_zs":1.84,"crowd_value_yj":1.539,"area":"丛台区","sort":12}},{"type":"Feature","geometry":{"type":"Point","coordinates":[114.493287,36.776972]},"properties":{"region_id":"17063291393219009122","region_name":"永年新世纪广场","intensity":1,"avg_speed":27.21,"crowd_value_zs":1.81,"crowd_value_yj":1.527,"area":"永年区","sort":13}},{"type":"Feature","geometry":{"type":"Point","coordinates":[114.923828,36.36045]},"properties":{"region_id":"18009435206620020735","region_name":"魏县汽车客运站","intensity":1,"avg_speed":25.81,"crowd_value_zs":0.08,"crowd_value_yj":1.513,"area":"魏县","sort":14}},{"type":"Feature","geometry":{"type":"Point","coordinates":[114.210266,36.423085]},"properties":{"region_id":"13318964171508554483","region_name":"峰峰新世纪广场(滏临南大街)","intensity":0,"avg_speed":25.32,"crowd_value_zs":1.79,"crowd_value_yj":1.496,"area":"峰峰矿区","sort":15}},{"type":"Feature","geometry":{"type":"Point","coordinates":[114.210371,36.424015]},"properties":{"region_id":"18009416566461956095","region_name":"邯郸峰峰汽车站","intensity":0,"avg_speed":25.38,"crowd_value_zs":0.24,"crowd_value_yj":1.492,"area":"峰峰矿区","sort":16}},{"type":"Feature","geometry":{"type":"Point","coordinates":[114.496088,36.780527]},"properties":{"region_id":"18009428227298164735","region_name":"永年汽车客运站","intensity":0,"avg_speed":28.41,"crowd_value_zs":0.07,"crowd_value_yj":1.491,"area":"永年区","sort":17}},{"type":"Feature","geometry":{"type":"Point","coordinates":[114.49527,36.610994]},"properties":{"region_id":"1259970038291496959","region_name":"新世纪商业广场(人民东路)","intensity":0,"avg_speed":22.73,"crowd_value_zs":12.24,"crowd_value_yj":1.481,"area":"丛台区","sort":18}},{"type":"Feature","geometry":{"type":"Point","coordinates":[114.49429,36.603933]},"properties":{"region_id":"18009458661436424191","region_name":"新丹兰·尚街(和平路)","intensity":0,"avg_speed":22.13,"crowd_value_zs":0.71,"crowd_value_yj":1.475,"area":"丛台区","sort":19}},{"type":"Feature","geometry":{"type":"Point","coordinates":[114.201924,36.691335]},"properties":{"region_id":"4063404889638523683","region_name":"兴安商业广场","intensity":0,"avg_speed":28.96,"crowd_value_zs":1.27,"crowd_value_yj":1.448,"area":"武安市","sort":20}},{"type":"Feature","geometry":{"type":"Point","coordinates":[114.477773,36.583868]},"properties":{"region_id":"9139549580337762814","region_name":"美食林新城购物广场","intensity":0,"avg_speed":24.57,"crowd_value_zs":1.71,"crowd_value_yj":1.43,"area":"邯山区","sort":21}},{"type":"Feature","geometry":{"type":"Point","coordinates":[114.197076,36.691721]},"properties":{"region_id":"1262697097711321087","region_name":"武安新世纪广场","intensity":0,"avg_speed":28.42,"crowd_value_zs":1.14,"crowd_value_yj":1.428,"area":"武安市","sort":22}},{"type":"Feature","geometry":{"type":"Point","coordinates":[114.373976,36.360086]},"properties":{"region_id":"17118513166935469836","region_name":"磁县汽车站","intensity":0,"avg_speed":30.49,"crowd_value_zs":0.31,"crowd_value_yj":1.407,"area":"磁县","sort":23}},{"type":"Feature","geometry":{"type":"Point","coordinates":[115.165538,36.282649]},"properties":{"region_id":"3984447156191630490","region_name":"冠兴商厦","intensity":0,"avg_speed":29.24,"crowd_value_zs":2.11,"crowd_value_yj":1.404,"area":"大名县","sort":24}},{"type":"Feature","geometry":{"type":"Point","coordinates":[114.479588,36.578419]},"properties":{"region_id":"12217477345526829757","region_name":"圆歌∙邯郸未来石","intensity":0,"avg_speed":28.21,"crowd_value_zs":2.26,"crowd_value_yj":1.396,"area":"邯山区","sort":25}},{"type":"Feature","geometry":{"type":"Point","coordinates":[115.129482,36.289507]},"properties":{"region_id":"230980191481033165","region_name":"万合集团大名汽车客运站","intensity":0,"avg_speed":29.63,"crowd_value_zs":0.8,"crowd_value_yj":1.383,"area":"大名县","sort":26}},{"type":"Feature","geometry":{"type":"Point","coordinates":[114.373415,36.380177]},"properties":{"region_id":"9838164880950220434","region_name":"中盛国贸广场","intensity":0,"avg_speed":32.64,"crowd_value_zs":2.31,"crowd_value_yj":1.382,"area":"磁县","sort":27}},{"type":"Feature","geometry":{"type":"Point","coordinates":[115.130463,36.291059]},"properties":{"region_id":"16860785515511560509","region_name":"宣和时代广场","intensity":0,"avg_speed":29.99,"crowd_value_zs":2.78,"crowd_value_yj":1.382,"area":"大名县","sort":28}},{"type":"Feature","geometry":{"type":"Point","coordinates":[114.95608,36.488183]},"properties":{"region_id":"18009447236823416831","region_name":"广平汽车客运","intensity":0,"avg_speed":32.66,"crowd_value_zs":0.26,"crowd_value_yj":1.38,"area":"广平县","sort":29}},{"type":"Feature","geometry":{"type":"Point","coordinates":[114.330307,36.407783]},"properties":{"region_id":"6685119195722345455","region_name":"溢泉湖旅游景区","intensity":0,"avg_speed":42.45,"crowd_value_zs":0.3,"crowd_value_yj":1.376,"area":"磁县","sort":30}},{"type":"Feature","geometry":{"type":"Point","coordinates":[114.186253,36.686408]},"properties":{"region_id":"18009478650214219775","region_name":"武安汽车站","intensity":0,"avg_speed":27.74,"crowd_value_zs":0.66,"crowd_value_yj":1.368,"area":"武安市","sort":31}},{"type":"Feature","geometry":{"type":"Point","coordinates":[113.671016,36.565314]},"properties":{"region_id":"18025859339090770683","region_name":"新世纪商业广场","intensity":0,"avg_speed":31.89,"crowd_value_zs":1.97,"crowd_value_yj":1.367,"area":"涉县","sort":32}},{"type":"Feature","geometry":{"type":"Point","coordinates":[115.284583,36.546975]},"properties":{"region_id":"13894011054349316251","region_name":"新天地购物广场","intensity":0,"avg_speed":28.59,"crowd_value_zs":0.78,"crowd_value_yj":1.355,"area":"馆陶县","sort":33}},{"type":"Feature","geometry":{"type":"Point","coordinates":[114.601234,36.344094]},"properties":{"region_id":"18009445454411988991","region_name":"临漳汽车站","intensity":0,"avg_speed":29.83,"crowd_value_zs":0.4,"crowd_value_yj":1.338,"area":"临漳县","sort":34}},{"type":"Feature","geometry":{"type":"Point","coordinates":[114.48279,36.591754]},"properties":{"region_id":"17575069317425425670","region_name":"春天百货(农林路)","intensity":0,"avg_speed":25.67,"crowd_value_zs":0.44,"crowd_value_yj":1.336,"area":"邯山区","sort":35}},{"type":"Feature","geometry":{"type":"Point","coordinates":[114.605157,36.336706]},"properties":{"region_id":"10959302788037646348","region_name":"天奕商厦","intensity":0,"avg_speed":27.93,"crowd_value_zs":1.62,"crowd_value_yj":1.329,"area":"临漳县","sort":36}},{"type":"Feature","geometry":{"type":"Point","coordinates":[114.477263,36.598839]},"properties":{"region_id":"18009464150404628479","region_name":"邯郸汽车客运总站","intensity":0,"avg_speed":25.82,"crowd_value_zs":2.39,"crowd_value_yj":1.328,"area":"邯山区","sort":37}},{"type":"Feature","geometry":{"type":"Point","coordinates":[114.361795,36.389083]},"properties":{"region_id":"15872387986014861767","region_name":"磁州客运站","intensity":0,"avg_speed":40.55,"crowd_value_zs":0.02,"crowd_value_yj":1.32,"area":"磁县","sort":38}},{"type":"Feature","geometry":{"type":"Point","coordinates":[114.502206,36.654648]},"properties":{"region_id":"12481597426176455961","region_name":"万合集团汽车客运北站","intensity":0,"avg_speed":41.49,"crowd_value_zs":0.3,"crowd_value_yj":1.302,"area":"丛台区","sort":39}},{"type":"Feature","geometry":{"type":"Point","coordinates":[114.962836,36.774718]},"properties":{"region_id":"18009438380600852479","region_name":"曲周汽车客运站","intensity":0,"avg_speed":29.43,"crowd_value_zs":0.06,"crowd_value_yj":1.297,"area":"曲周县","sort":40}},{"type":"Feature","geometry":{"type":"Point","coordinates":[114.487871,36.556922]},"properties":{"region_id":"9763042921053122190","region_name":"南湖湿地公园","intensity":0,"avg_speed":39.97,"crowd_value_zs":1.05,"crowd_value_yj":1.278,"area":"邯山区","sort":41}},{"type":"Feature","geometry":{"type":"Point","coordinates":[114.67914,36.459809]},"properties":{"region_id":"2659368124828538399","region_name":"成安汽车客运站","intensity":0,"avg_speed":33.59,"crowd_value_zs":0.08,"crowd_value_yj":1.269,"area":"成安县","sort":42}},{"type":"Feature","geometry":{"type":"Point","coordinates":[115.295916,36.535483]},"properties":{"region_id":"18009419057542987775","region_name":"馆陶汽车站","intensity":0,"avg_speed":30.59,"crowd_value_zs":0.1,"crowd_value_yj":1.252,"area":"馆陶县","sort":43}},{"type":"Feature","geometry":{"type":"Point","coordinates":[114.245927,36.709165]},"properties":{"region_id":"18009478671689056255","region_name":"东山文化博艺园","intensity":0,"avg_speed":45.15,"crowd_value_zs":0.28,"crowd_value_yj":1.244,"area":"武安市","sort":44}},{"type":"Feature","geometry":{"type":"Point","coordinates":[114.730337,36.701056]},"properties":{"region_id":"18009428570895548415","region_name":"广府古城","intensity":0,"avg_speed":46.68,"crowd_value_zs":7.11,"crowd_value_yj":1.24,"area":"永年区","sort":45}},{"type":"Feature","geometry":{"type":"Point","coordinates":[114.431317,36.525458]},"properties":{"region_id":"9089980666126083258","region_name":"邯郸机场","intensity":0,"avg_speed":50.97,"crowd_value_zs":1.3,"crowd_value_yj":1.237,"area":"邯山区","sort":46}},{"type":"Feature","geometry":{"type":"Point","coordinates":[113.681589,36.558884]},"properties":{"region_id":"18009424172849037311","region_name":"涉县汽车站","intensity":0,"avg_speed":50.39,"crowd_value_zs":0.2,"crowd_value_yj":1.232,"area":"涉县","sort":47}},{"type":"Feature","geometry":{"type":"Point","coordinates":[114.868506,36.387859]},"properties":{"region_id":"12795180073979485110","region_name":"胜营站","intensity":0,"avg_speed":47.59,"crowd_value_zs":0.0,"crowd_value_yj":1.188,"area":"广平县","sort":48}},{"type":"Feature","geometry":{"type":"Point","coordinates":[114.437074,36.787452]},"properties":{"region_id":"8146207602706864699","region_name":"朱山石刻文化园","intensity":0,"avg_speed":47.19,"crowd_value_zs":1.19,"crowd_value_yj":1.181,"area":"永年区","sort":49}},{"type":"Feature","geometry":{"type":"Point","coordinates":[114.170219,36.541424]},"properties":{"region_id":"17821110597316509695","region_name":"响堂山风景名胜区","intensity":0,"avg_speed":70.97,"crowd_value_zs":0.65,"crowd_value_yj":1.176,"area":"峰峰矿区","sort":50}},{"type":"Feature","geometry":{"type":"Point","coordinates":[113.950921,36.902429]},"properties":{"region_id":"18009479161315327999","region_name":"京娘湖景区","intensity":0,"avg_speed":51.25,"crowd_value_zs":0.92,"crowd_value_yj":1.155,"area":"武安市","sort":51}},{"type":"Feature","geometry":{"type":"Point","coordinates":[113.875254,36.932388]},"properties":{"region_id":"18009479144135458815","region_name":"七步沟景区","intensity":0,"avg_speed":57.03,"crowd_value_zs":0.31,"crowd_value_yj":1.137,"area":"武安市","sort":52}},{"type":"Feature","geometry":{"type":"Point","coordinates":[113.617836,36.641149]},"properties":{"region_id":"11255536682023223386","region_name":"娲皇宫景区","intensity":0,"avg_speed":55.05,"crowd_value_zs":0.94,"crowd_value_yj":1.111,"area":"涉县","sort":53}},{"type":"Feature","geometry":{"type":"Point","coordinates":[114.428788,36.572412]},"properties":{"region_id":"4915128066666137853","region_name":"赵王城遗址公园","intensity":0,"avg_speed":59.15,"crowd_value_zs":0.43,"crowd_value_yj":1.096,"area":"复兴区","sort":54}},{"type":"Feature","geometry":{"type":"Point","coordinates":[113.797692,36.920416]},"properties":{"region_id":"18009479148430426111","region_name":"朝阳沟风景区","intensity":0,"avg_speed":42.26,"crowd_value_zs":0.1,"crowd_value_yj":1.083,"area":"武安市","sort":55}},{"type":"Feature","geometry":{"type":"Point","coordinates":[113.951856,36.950682]},"properties":{"region_id":"18009479135545524223","region_name":"武安市古武当山景区","intensity":0,"avg_speed":48.69,"crowd_value_zs":0.57,"crowd_value_yj":1.013,"area":"武安市","sort":56}},{"type":"Feature","geometry":{"type":"Point","coordinates":[113.663543,36.522619]},"properties":{"region_id":"6202279465010622605","region_name":"太行五指山","intensity":0,"avg_speed":73.72,"crowd_value_zs":0.46,"crowd_value_yj":0.983,"area":"涉县","sort":57}}]}}