{"msg":"获取成功！","end_at":"2024-03-20 01:21:19","data":{"type":"FeatureCollection","features":[{"type":"Feature","geometry":{"type":"Point","coordinates":[113.968351,35.055454]},"properties":{"region_id":"17661116111988457471","region_name":"博大购物广场","intensity":0,"avg_speed":28.9,"crowd_value_zs":0.47,"crowd_value_yj":1.438,"area":"原阳县","sort":1}},{"type":"Feature","geometry":{"type":"Point","coordinates":[113.810688,35.170124]},"properties":{"region_id":"1110286989260559946","region_name":"新乡开发区客运站","intensity":0,"avg_speed":38.87,"crowd_value_zs":0.68,"crowd_value_yj":1.415,"area":"新乡县","sort":2}},{"type":"Feature","geometry":{"type":"Point","coordinates":[114.065842,35.401733]},"properties":{"region_id":"18008209710716551167","region_name":"卫辉市汽车总站","intensity":0,"avg_speed":28.62,"crowd_value_zs":0.26,"crowd_value_yj":1.389,"area":"卫辉市","sort":3}},{"type":"Feature","geometry":{"type":"Point","coordinates":[114.419115,35.044838]},"properties":{"region_id":"18008187527210467327","region_name":"封丘汽车站","intensity":0,"avg_speed":31.06,"crowd_value_zs":0.22,"crowd_value_yj":1.365,"area":"封丘县","sort":4}},{"type":"Feature","geometry":{"type":"Point","coordinates":[114.420823,35.045223]},"properties":{"region_id":"17799594293475460608","region_name":"佳联国际购物广场","intensity":0,"avg_speed":30.69,"crowd_value_zs":0.57,"crowd_value_yj":1.361,"area":"封丘县","sort":5}},{"type":"Feature","geometry":{"type":"Point","coordinates":[113.870363,35.297772]},"properties":{"region_id":"12364495659237151251","region_name":"新都汇购物中心","intensity":0,"avg_speed":26.27,"crowd_value_zs":0.41,"crowd_value_yj":1.328,"area":"卫滨区","sort":6}},{"type":"Feature","geometry":{"type":"Point","coordinates":[113.860962,35.303328]},"properties":{"region_id":"11000463156259482302","region_name":"新乡客运总站","intensity":0,"avg_speed":25.32,"crowd_value_zs":0.85,"crowd_value_yj":1.325,"area":"卫滨区","sort":7}},{"type":"Feature","geometry":{"type":"Point","coordinates":[113.871109,35.30288]},"properties":{"region_id":"6692219611738184727","region_name":"淘宝城","intensity":0,"avg_speed":25.92,"crowd_value_zs":0.73,"crowd_value_yj":1.324,"area":"卫滨区","sort":8}},{"type":"Feature","geometry":{"type":"Point","coordinates":[113.883858,35.280442]},"properties":{"region_id":"10375520831799533011","region_name":"弘润新悦城","intensity":0,"avg_speed":28.54,"crowd_value_zs":1.09,"crowd_value_yj":1.315,"area":"红旗区","sort":9}},{"type":"Feature","geometry":{"type":"Point","coordinates":[113.859272,35.306705]},"properties":{"region_id":"1067081644401552843","region_name":"新乡站","intensity":0,"avg_speed":26.18,"crowd_value_zs":4.58,"crowd_value_yj":1.314,"area":"卫滨区","sort":10}},{"type":"Feature","geometry":{"type":"Point","coordinates":[113.87128,35.304987]},"properties":{"region_id":"1262705438537809919","region_name":"新乡市百货大楼","intensity":0,"avg_speed":25.86,"crowd_value_zs":0.9,"crowd_value_yj":1.313,"area":"卫滨区","sort":11}},{"type":"Feature","geometry":{"type":"Point","coordinates":[113.883272,35.098002]},"properties":{"region_id":"17661106186319036415","region_name":"原阳黑羊山客运站","intensity":0,"avg_speed":49.33,"crowd_value_zs":0.05,"crowd_value_yj":1.313,"area":"原阳县","sort":12}},{"type":"Feature","geometry":{"type":"Point","coordinates":[113.865701,35.303121]},"properties":{"region_id":"17661111018157244415","region_name":"大商新玛特","intensity":0,"avg_speed":25.7,"crowd_value_zs":0.69,"crowd_value_yj":1.303,"area":"卫滨区","sort":13}},{"type":"Feature","geometry":{"type":"Point","coordinates":[114.684943,35.190886]},"properties":{"region_id":"17959827174710050815","region_name":"长垣汽车客运总站","intensity":0,"avg_speed":29.07,"crowd_value_zs":0.4,"crowd_value_yj":1.299,"area":"长垣市","sort":14}},{"type":"Feature","geometry":{"type":"Point","coordinates":[113.800212,35.458169]},"properties":{"region_id":"16372176653798390854","region_name":"时代广场","intensity":0,"avg_speed":30.19,"crowd_value_zs":3.76,"crowd_value_yj":1.289,"area":"辉县市","sort":15}},{"type":"Feature","geometry":{"type":"Point","coordinates":[114.660112,35.211007]},"properties":{"region_id":"10226718887048882243","region_name":"长垣站","intensity":0,"avg_speed":31.77,"crowd_value_zs":0.23,"crowd_value_yj":1.289,"area":"长垣市","sort":16}},{"type":"Feature","geometry":{"type":"Point","coordinates":[113.877002,35.304935]},"properties":{"region_id":"1440192491937539703","region_name":"大商百货","intensity":0,"avg_speed":26.6,"crowd_value_zs":0.04,"crowd_value_yj":1.288,"area":"红旗区","sort":17}},{"type":"Feature","geometry":{"type":"Point","coordinates":[113.879027,35.301477]},"properties":{"region_id":"7549644096393610173","region_name":"胖东来·大胖","intensity":0,"avg_speed":27.4,"crowd_value_zs":2.44,"crowd_value_yj":1.287,"area":"红旗区","sort":18}},{"type":"Feature","geometry":{"type":"Point","coordinates":[113.816899,35.465768]},"properties":{"region_id":"18008220491084464127","region_name":"辉县汽车站","intensity":0,"avg_speed":30.3,"crowd_value_zs":0.28,"crowd_value_yj":1.285,"area":"辉县市","sort":19}},{"type":"Feature","geometry":{"type":"Point","coordinates":[113.785179,35.188086]},"properties":{"region_id":"18008189515780325375","region_name":"京华园","intensity":0,"avg_speed":35.13,"crowd_value_zs":0.21,"crowd_value_yj":1.283,"area":"新乡县","sort":20}},{"type":"Feature","geometry":{"type":"Point","coordinates":[114.667443,35.184945]},"properties":{"region_id":"16942004666297542743","region_name":"万德隆时代广场","intensity":0,"avg_speed":28.97,"crowd_value_zs":0.56,"crowd_value_yj":1.279,"area":"长垣市","sort":21}},{"type":"Feature","geometry":{"type":"Point","coordinates":[113.791426,35.476778]},"properties":{"region_id":"8937873730290653392","region_name":"辉县汽车站百泉分站","intensity":0,"avg_speed":35.43,"crowd_value_zs":0.19,"crowd_value_yj":1.278,"area":"辉县市","sort":22}},{"type":"Feature","geometry":{"type":"Point","coordinates":[113.883792,35.298641]},"properties":{"region_id":"1084591455607394491","region_name":"人民公园","intensity":0,"avg_speed":28.21,"crowd_value_zs":3.19,"crowd_value_yj":1.278,"area":"红旗区","sort":23}},{"type":"Feature","geometry":{"type":"Point","coordinates":[113.905331,35.31713]},"properties":{"region_id":"13669922321597677285","region_name":"万达广场","intensity":0,"avg_speed":29.87,"crowd_value_zs":1.71,"crowd_value_yj":1.275,"area":"牧野区","sort":24}},{"type":"Feature","geometry":{"type":"Point","coordinates":[114.708856,35.202078]},"properties":{"region_id":"18008212674243985407","region_name":"长垣汽车站","intensity":0,"avg_speed":31.26,"crowd_value_zs":0.83,"crowd_value_yj":1.265,"area":"长垣市","sort":25}},{"type":"Feature","geometry":{"type":"Point","coordinates":[114.656185,35.183118]},"properties":{"region_id":"7431258673422489528","region_name":"联华城市广场","intensity":0,"avg_speed":31.29,"crowd_value_zs":1.43,"crowd_value_yj":1.26,"area":"长垣市","sort":26}},{"type":"Feature","geometry":{"type":"Point","coordinates":[113.739562,35.006049]},"properties":{"region_id":"17775587358139006240","region_name":"恒大·悦天下商业广场","intensity":0,"avg_speed":39.74,"crowd_value_zs":0.44,"crowd_value_yj":1.254,"area":"原阳县","sort":27}},{"type":"Feature","geometry":{"type":"Point","coordinates":[113.859223,35.328064]},"properties":{"region_id":"16054061747652255174","region_name":"新乡市牧野客运站","intensity":0,"avg_speed":40.11,"crowd_value_zs":0.16,"crowd_value_yj":1.234,"area":"牧野区","sort":28}},{"type":"Feature","geometry":{"type":"Point","coordinates":[114.048256,35.42676]},"properties":{"region_id":"8830153208414279634","region_name":"下园汽车客运站","intensity":0,"avg_speed":39.96,"crowd_value_zs":0.15,"crowd_value_yj":1.234,"area":"卫辉市","sort":29}},{"type":"Feature","geometry":{"type":"Point","coordinates":[113.865549,35.496151]},"properties":{"region_id":"544024329834054948","region_name":"五龙山野生动物王国","intensity":0,"avg_speed":43.08,"crowd_value_zs":0.15,"crowd_value_yj":1.231,"area":"辉县市","sort":30}},{"type":"Feature","geometry":{"type":"Point","coordinates":[114.081843,35.39064]},"properties":{"region_id":"10108770215552588827","region_name":"汽车客运南站","intensity":0,"avg_speed":59.2,"crowd_value_zs":0.01,"crowd_value_yj":1.221,"area":"卫辉市","sort":31}},{"type":"Feature","geometry":{"type":"Point","coordinates":[113.901509,35.294521]},"properties":{"region_id":"7784610651366358728","region_name":"新乡汽车东站","intensity":0,"avg_speed":29.99,"crowd_value_zs":0.41,"crowd_value_yj":1.22,"area":"红旗区","sort":32}},{"type":"Feature","geometry":{"type":"Point","coordinates":[113.747782,35.009699]},"properties":{"region_id":"5444957056385913707","region_name":"凤湖","intensity":0,"avg_speed":42.92,"crowd_value_zs":0.85,"crowd_value_yj":1.214,"area":"原阳县","sort":33}},{"type":"Feature","geometry":{"type":"Point","coordinates":[113.784031,35.487622]},"properties":{"region_id":"17671847311115812863","region_name":"百泉景区","intensity":0,"avg_speed":37.8,"crowd_value_zs":0.79,"crowd_value_yj":1.214,"area":"辉县市","sort":34}},{"type":"Feature","geometry":{"type":"Point","coordinates":[114.357977,35.461693]},"properties":{"region_id":"5253906886876086998","region_name":"新乡汽车运输总公司丰庄汽车站","intensity":0,"avg_speed":49.34,"crowd_value_zs":0.0,"crowd_value_yj":1.214,"area":"延津县","sort":35}},{"type":"Feature","geometry":{"type":"Point","coordinates":[113.958301,35.078351]},"properties":{"region_id":"3930352729783262306","region_name":"原阳汽车站","intensity":0,"avg_speed":37.43,"crowd_value_zs":0.48,"crowd_value_yj":1.208,"area":"原阳县","sort":36}},{"type":"Feature","geometry":{"type":"Point","coordinates":[113.867974,35.497]},"properties":{"region_id":"8759870076940040473","region_name":"五龙山响水河游乐园","intensity":0,"avg_speed":43.86,"crowd_value_zs":1.13,"crowd_value_yj":1.205,"area":"辉县市","sort":37}},{"type":"Feature","geometry":{"type":"Point","coordinates":[113.920612,35.294839]},"properties":{"region_id":"4680671339795936640","region_name":"宝龙城市广场","intensity":0,"avg_speed":30.63,"crowd_value_zs":2.8,"crowd_value_yj":1.203,"area":"红旗区","sort":38}},{"type":"Feature","geometry":{"type":"Point","coordinates":[114.185536,35.161397]},"properties":{"region_id":"9548809407487400749","region_name":"延津汽车客运站","intensity":0,"avg_speed":33.84,"crowd_value_zs":0.45,"crowd_value_yj":1.198,"area":"延津县","sort":39}},{"type":"Feature","geometry":{"type":"Point","coordinates":[113.926812,35.299543]},"properties":{"region_id":"7355421889990286007","region_name":"平原博物院","intensity":0,"avg_speed":30.49,"crowd_value_zs":0.8,"crowd_value_yj":1.196,"area":"红旗区","sort":40}},{"type":"Feature","geometry":{"type":"Point","coordinates":[113.64492,35.257815]},"properties":{"region_id":"8265921232982563710","region_name":"获嘉客运总站","intensity":0,"avg_speed":39.3,"crowd_value_zs":0.23,"crowd_value_yj":1.179,"area":"获嘉县","sort":41}},{"type":"Feature","geometry":{"type":"Point","coordinates":[113.937391,35.060824]},"properties":{"region_id":"2774696129256135474","region_name":"大商道购物广场","intensity":0,"avg_speed":31.23,"crowd_value_zs":0.44,"crowd_value_yj":1.177,"area":"原阳县","sort":42}},{"type":"Feature","geometry":{"type":"Point","coordinates":[113.957535,35.312221]},"properties":{"region_id":"9299322482895682388","region_name":"定国湖","intensity":0,"avg_speed":39.12,"crowd_value_zs":0.31,"crowd_value_yj":1.155,"area":"牧野区","sort":43}},{"type":"Feature","geometry":{"type":"Point","coordinates":[114.208427,35.05377]},"properties":{"region_id":"17661141667043868671","region_name":"原阳齐街乡汽车客运站","intensity":0,"avg_speed":46.76,"crowd_value_zs":0.04,"crowd_value_yj":1.153,"area":"原阳县","sort":44}},{"type":"Feature","geometry":{"type":"Point","coordinates":[113.484712,35.450143]},"properties":{"region_id":"3337845081182730447","region_name":"河南宝泉旅游度假区","intensity":0,"avg_speed":47.26,"crowd_value_zs":2.74,"crowd_value_yj":1.149,"area":"辉县市","sort":45}},{"type":"Feature","geometry":{"type":"Point","coordinates":[114.064986,35.302083]},"properties":{"region_id":"13254300173069436796","region_name":"平原湖公园","intensity":0,"avg_speed":53.84,"crowd_value_zs":0.61,"crowd_value_yj":1.14,"area":"红旗区","sort":46}},{"type":"Feature","geometry":{"type":"Point","coordinates":[113.925299,35.416579]},"properties":{"region_id":"18008199252471185407","region_name":"潞王陵","intensity":0,"avg_speed":48.2,"crowd_value_zs":0.25,"crowd_value_yj":1.081,"area":"凤泉区","sort":47}},{"type":"Feature","geometry":{"type":"Point","coordinates":[113.622139,35.724908]},"properties":{"region_id":"18008220448134791167","region_name":"万仙山景区","intensity":0,"avg_speed":70.24,"crowd_value_zs":2.44,"crowd_value_yj":1.059,"area":"辉县市","sort":48}},{"type":"Feature","geometry":{"type":"Point","coordinates":[113.644306,35.696402]},"properties":{"region_id":"4988347181013170155","region_name":"轿顶山景区","intensity":0,"avg_speed":74.52,"crowd_value_zs":0.29,"crowd_value_yj":1.053,"area":"辉县市","sort":49}},{"type":"Feature","geometry":{"type":"Point","coordinates":[113.563785,35.555052]},"properties":{"region_id":"17661108372457390079","region_name":"关山国家地质公园","intensity":0,"avg_speed":73.92,"crowd_value_zs":0.4,"crowd_value_yj":1.039,"area":"辉县市","sort":50}},{"type":"Feature","geometry":{"type":"Point","coordinates":[114.180661,35.275478]},"properties":{"region_id":"18008223128194383871","region_name":"黄河故道森林公园","intensity":0,"avg_speed":88.57,"crowd_value_zs":0.48,"crowd_value_yj":0.99,"area":"延津县","sort":51}},{"type":"Feature","geometry":{"type":"Point","coordinates":[114.505924,34.944354]},"properties":{"region_id":"5221472622466774979","region_name":"陈桥湿地","intensity":0,"avg_speed":108.41,"crowd_value_zs":0.06,"crowd_value_yj":0.977,"area":"封丘县","sort":52}},{"type":"Feature","geometry":{"type":"Point","coordinates":[114.087222,35.46594]},"properties":{"region_id":"18008209672061845503","region_name":"比干庙","intensity":0,"avg_speed":73.02,"crowd_value_zs":0.24,"crowd_value_yj":0.946,"area":"卫辉市","sort":53}}]}}