{"msg":"获取成功！","end_at":"2024-03-19 10:09:17","data":{"type":"FeatureCollection","features":[{"type":"Feature","geometry":{"type":"Point","coordinates":[112.606268,26.889147]},"properties":{"region_id":"17668228637727531648","region_name":"衡阳动物园","intensity":3,"avg_speed":16.06,"crowd_value_zs":0.06,"crowd_value_yj":2.218,"area":"雁峰区","sort":1}},{"type":"Feature","geometry":{"type":"Point","coordinates":[112.608193,26.890282]},"properties":{"region_id":"17671580512042352639","region_name":"岳屏公园","intensity":3,"avg_speed":16.72,"crowd_value_zs":1.24,"crowd_value_yj":2.184,"area":"雁峰区","sort":2}},{"type":"Feature","geometry":{"type":"Point","coordinates":[112.601877,26.894495]},"properties":{"region_id":"1262698433446150143","region_name":"大洋百货(衡阳店)","intensity":3,"avg_speed":16.44,"crowd_value_zs":1.42,"crowd_value_yj":2.109,"area":"雁峰区","sort":3}},{"type":"Feature","geometry":{"type":"Point","coordinates":[112.592254,26.883498]},"properties":{"region_id":"8308864211124331304","region_name":"衡阳万达广场店","intensity":3,"avg_speed":20.99,"crowd_value_zs":4.75,"crowd_value_yj":2.039,"area":"蒸湘区","sort":4}},{"type":"Feature","geometry":{"type":"Point","coordinates":[112.599307,26.904099]},"properties":{"region_id":"17671580825574965247","region_name":"崇盛晶珠广场","intensity":2,"avg_speed":15.93,"crowd_value_zs":0.24,"crowd_value_yj":1.981,"area":"蒸湘区","sort":5}},{"type":"Feature","geometry":{"type":"Point","coordinates":[112.630361,26.890128]},"properties":{"region_id":"2707572056969427271","region_name":"衡阳站","intensity":2,"avg_speed":22.18,"crowd_value_zs":3.72,"crowd_value_yj":1.965,"area":"珠晖区","sort":6}},{"type":"Feature","geometry":{"type":"Point","coordinates":[112.628929,26.888115]},"properties":{"region_id":"14597862528857904404","region_name":"鑫都国际广场","intensity":2,"avg_speed":22.04,"crowd_value_zs":1.08,"crowd_value_yj":1.957,"area":"珠晖区","sort":7}},{"type":"Feature","geometry":{"type":"Point","coordinates":[112.608394,26.896689]},"properties":{"region_id":"17294982486051287490","region_name":"美达·新天地","intensity":1,"avg_speed":18.29,"crowd_value_zs":0.68,"crowd_value_yj":1.786,"area":"石鼓区","sort":8}},{"type":"Feature","geometry":{"type":"Point","coordinates":[112.611786,26.890556]},"properties":{"region_id":"18005321615792930815","region_name":"香江岳屏商业广场","intensity":1,"avg_speed":20.18,"crowd_value_zs":0.38,"crowd_value_yj":1.763,"area":"雁峰区","sort":9}},{"type":"Feature","geometry":{"type":"Point","coordinates":[112.613818,26.8869]},"properties":{"region_id":"16066745179856921870","region_name":"南岳第一峰","intensity":1,"avg_speed":20.57,"crowd_value_zs":0.3,"crowd_value_yj":1.752,"area":"雁峰区","sort":10}},{"type":"Feature","geometry":{"type":"Point","coordinates":[112.60704,26.906718]},"properties":{"region_id":"18005325399659118591","region_name":"衡阳博物馆","intensity":1,"avg_speed":18.85,"crowd_value_zs":0.03,"crowd_value_yj":1.736,"area":"石鼓区","sort":11}},{"type":"Feature","geometry":{"type":"Point","coordinates":[112.606187,26.909594]},"properties":{"region_id":"17671580499157450751","region_name":"西湖公园","intensity":1,"avg_speed":19.52,"crowd_value_zs":1.35,"crowd_value_yj":1.692,"area":"石鼓区","sort":12}},{"type":"Feature","geometry":{"type":"Point","coordinates":[112.616324,26.91094]},"properties":{"region_id":"12920743646862797506","region_name":"石鼓书院","intensity":1,"avg_speed":21.92,"crowd_value_zs":0.48,"crowd_value_yj":1.629,"area":"石鼓区","sort":13}},{"type":"Feature","geometry":{"type":"Point","coordinates":[112.567355,26.892017]},"properties":{"region_id":"7900560727173256273","region_name":"步步高(广场衡阳店)","intensity":1,"avg_speed":24.2,"crowd_value_zs":2.67,"crowd_value_yj":1.59,"area":"蒸湘区","sort":14}},{"type":"Feature","geometry":{"type":"Point","coordinates":[112.850086,26.428958]},"properties":{"region_id":"18005436038016663551","region_name":"耒阳五里牌汽车站","intensity":1,"avg_speed":24.65,"crowd_value_zs":0.19,"crowd_value_yj":1.571,"area":"耒阳市","sort":15}},{"type":"Feature","geometry":{"type":"Point","coordinates":[112.54759,26.892204]},"properties":{"region_id":"18005325421133955071","region_name":"衡阳华新汽车站","intensity":1,"avg_speed":22.91,"crowd_value_zs":0.29,"crowd_value_yj":1.567,"area":"蒸湘区","sort":16}},{"type":"Feature","geometry":{"type":"Point","coordinates":[112.58125,26.908386]},"properties":{"region_id":"17250359968252094687","region_name":"衡阳中心汽车站","intensity":1,"avg_speed":25.21,"crowd_value_zs":1.29,"crowd_value_yj":1.543,"area":"蒸湘区","sort":17}},{"type":"Feature","geometry":{"type":"Point","coordinates":[112.557462,26.893798]},"properties":{"region_id":"17623176582949430885","region_name":"衡阳连卡福商业广场","intensity":1,"avg_speed":22.04,"crowd_value_zs":0.71,"crowd_value_yj":1.53,"area":"蒸湘区","sort":18}},{"type":"Feature","geometry":{"type":"Point","coordinates":[112.548089,26.885414]},"properties":{"region_id":"18005325403954085887","region_name":"衡阳保卫战纪念馆","intensity":1,"avg_speed":24.86,"crowd_value_zs":0.5,"crowd_value_yj":1.521,"area":"蒸湘区","sort":19}},{"type":"Feature","geometry":{"type":"Point","coordinates":[112.823883,26.401612]},"properties":{"region_id":"18005436295714701311","region_name":"灶市汽车站","intensity":1,"avg_speed":29.96,"crowd_value_zs":0.25,"crowd_value_yj":1.508,"area":"耒阳市","sort":20}},{"type":"Feature","geometry":{"type":"Point","coordinates":[112.575763,26.905615]},"properties":{"region_id":"18005325476968529919","region_name":"平湖公园","intensity":1,"avg_speed":25.4,"crowd_value_zs":1.59,"crowd_value_yj":1.504,"area":"蒸湘区","sort":21}},{"type":"Feature","geometry":{"type":"Point","coordinates":[112.822321,26.404051]},"properties":{"region_id":"12535895773880807520","region_name":"耒阳站","intensity":0,"avg_speed":30.93,"crowd_value_zs":0.32,"crowd_value_yj":1.478,"area":"耒阳市","sort":22}},{"type":"Feature","geometry":{"type":"Point","coordinates":[112.839777,26.412494]},"properties":{"region_id":"18005436665081888767","region_name":"海琼百货","intensity":0,"avg_speed":25.35,"crowd_value_zs":0.57,"crowd_value_yj":1.429,"area":"耒阳市","sort":23}},{"type":"Feature","geometry":{"type":"Point","coordinates":[112.395376,26.409391]},"properties":{"region_id":"8426614280009337108","region_name":"东方百货","intensity":0,"avg_speed":27.28,"crowd_value_zs":0.95,"crowd_value_yj":1.418,"area":"常宁市","sort":24}},{"type":"Feature","geometry":{"type":"Point","coordinates":[112.850904,26.408823]},"properties":{"region_id":"4306816101058019223","region_name":"耒阳中心车站","intensity":0,"avg_speed":24.65,"crowd_value_zs":0.18,"crowd_value_yj":1.397,"area":"耒阳市","sort":25}},{"type":"Feature","geometry":{"type":"Point","coordinates":[112.734484,27.245238]},"properties":{"region_id":"18016812444311093247","region_name":"南岳大庙","intensity":0,"avg_speed":27.74,"crowd_value_zs":0.79,"crowd_value_yj":1.392,"area":"南岳区","sort":26}},{"type":"Feature","geometry":{"type":"Point","coordinates":[112.575087,26.585696]},"properties":{"region_id":"18005349520195452927","region_name":"常宁松柏汽车站","intensity":0,"avg_speed":32.91,"crowd_value_zs":0.34,"crowd_value_yj":1.39,"area":"常宁市","sort":27}},{"type":"Feature","geometry":{"type":"Point","coordinates":[112.125138,26.779465]},"properties":{"region_id":"14735837379565220794","region_name":"祁东汽车站","intensity":0,"avg_speed":30.02,"crowd_value_zs":0.19,"crowd_value_yj":1.377,"area":"祁东县","sort":28}},{"type":"Feature","geometry":{"type":"Point","coordinates":[112.734022,27.23603]},"properties":{"region_id":"18005323750391676927","region_name":"南岳汽车站","intensity":0,"avg_speed":28.69,"crowd_value_zs":0.17,"crowd_value_yj":1.377,"area":"南岳区","sort":29}},{"type":"Feature","geometry":{"type":"Point","coordinates":[112.863515,26.404158]},"properties":{"region_id":"18005436308599603199","region_name":"杜甫公园","intensity":0,"avg_speed":26.5,"crowd_value_zs":0.42,"crowd_value_yj":1.361,"area":"耒阳市","sort":30}},{"type":"Feature","geometry":{"type":"Point","coordinates":[112.643026,26.852229]},"properties":{"region_id":"1191137275656099914","region_name":"金钟购物公园","intensity":0,"avg_speed":37.72,"crowd_value_zs":2.64,"crowd_value_yj":1.358,"area":"雁峰区","sort":31}},{"type":"Feature","geometry":{"type":"Point","coordinates":[112.666022,26.74434]},"properties":{"region_id":"18005406836534018047","region_name":"云集站","intensity":0,"avg_speed":29.52,"crowd_value_zs":0.16,"crowd_value_yj":1.348,"area":"衡南县","sort":32}},{"type":"Feature","geometry":{"type":"Point","coordinates":[112.657649,26.871638]},"properties":{"region_id":"18005324377456902143","region_name":"酃湖汽车站","intensity":0,"avg_speed":39.25,"crowd_value_zs":0.53,"crowd_value_yj":1.334,"area":"珠晖区","sort":33}},{"type":"Feature","geometry":{"type":"Point","coordinates":[112.631982,26.847248]},"properties":{"region_id":"18005324386046836735","region_name":"南郊公园","intensity":0,"avg_speed":39.16,"crowd_value_zs":0.46,"crowd_value_yj":1.326,"area":"雁峰区","sort":34}},{"type":"Feature","geometry":{"type":"Point","coordinates":[112.357466,26.97388]},"properties":{"region_id":"12207331416201549545","region_name":"蒸阳汽车站","intensity":0,"avg_speed":35.35,"crowd_value_zs":0.1,"crowd_value_yj":1.318,"area":"衡阳县","sort":35}},{"type":"Feature","geometry":{"type":"Point","coordinates":[112.949883,27.112584]},"properties":{"region_id":"18005375105315635199","region_name":"衡东汽车站","intensity":0,"avg_speed":36.78,"crowd_value_zs":0.34,"crowd_value_yj":1.315,"area":"衡东县","sort":36}},{"type":"Feature","geometry":{"type":"Point","coordinates":[112.483274,26.865945]},"properties":{"region_id":"15706727424570871705","region_name":"三塘镇客运站","intensity":0,"avg_speed":36.3,"crowd_value_zs":0.1,"crowd_value_yj":1.309,"area":"衡南县","sort":37}},{"type":"Feature","geometry":{"type":"Point","coordinates":[112.708263,26.898907]},"properties":{"region_id":"12678908401376637060","region_name":"王江汽车站","intensity":0,"avg_speed":41.18,"crowd_value_zs":0.69,"crowd_value_yj":1.292,"area":"珠晖区","sort":38}},{"type":"Feature","geometry":{"type":"Point","coordinates":[112.709677,26.896478]},"properties":{"region_id":"4044283611636527919","region_name":"衡阳东站","intensity":0,"avg_speed":41.03,"crowd_value_zs":6.77,"crowd_value_yj":1.289,"area":"珠晖区","sort":39}},{"type":"Feature","geometry":{"type":"Point","coordinates":[112.853574,27.246652]},"properties":{"region_id":"18005450834178998271","region_name":"衡山汽车站","intensity":0,"avg_speed":32.83,"crowd_value_zs":0.29,"crowd_value_yj":1.287,"area":"衡山县","sort":40}},{"type":"Feature","geometry":{"type":"Point","coordinates":[112.627587,26.919196]},"properties":{"region_id":"5897607625306305618","region_name":"来雁塔","intensity":0,"avg_speed":41.06,"crowd_value_zs":0.0,"crowd_value_yj":1.283,"area":"石鼓区","sort":41}},{"type":"Feature","geometry":{"type":"Point","coordinates":[112.715522,27.269758]},"properties":{"region_id":"9295457974427697989","region_name":"衡山国家重点风景名胜区","intensity":0,"avg_speed":34.48,"crowd_value_zs":10.54,"crowd_value_yj":1.279,"area":"南岳区","sort":42}},{"type":"Feature","geometry":{"type":"Point","coordinates":[112.789837,27.247379]},"properties":{"region_id":"7732138413341049412","region_name":"衡山西站","intensity":0,"avg_speed":46.65,"crowd_value_zs":1.64,"crowd_value_yj":1.274,"area":"衡山县","sort":43}},{"type":"Feature","geometry":{"type":"Point","coordinates":[112.61177,26.855513]},"properties":{"region_id":"9218061823800130921","region_name":"美美世界城市商业广场","intensity":0,"avg_speed":43.82,"crowd_value_zs":0.85,"crowd_value_yj":1.231,"area":"雁峰区","sort":44}},{"type":"Feature","geometry":{"type":"Point","coordinates":[112.788755,26.41423]},"properties":{"region_id":"2491957288350172506","region_name":"耒阳西站","intensity":0,"avg_speed":45.07,"crowd_value_zs":2.32,"crowd_value_yj":1.228,"area":"耒阳市","sort":45}},{"type":"Feature","geometry":{"type":"Point","coordinates":[112.588136,26.855012]},"properties":{"region_id":"428116779944336707","region_name":"衡阳市南湖公园","intensity":0,"avg_speed":50.41,"crowd_value_zs":0.86,"crowd_value_yj":1.153,"area":"雁峰区","sort":46}},{"type":"Feature","geometry":{"type":"Point","coordinates":[112.88777,26.385574]},"properties":{"region_id":"17277303010580384383","region_name":"鹿岐峰森林公园","intensity":0,"avg_speed":94.55,"crowd_value_zs":0.13,"crowd_value_yj":1.032,"area":"耒阳市","sort":47}},{"type":"Feature","geometry":{"type":"Point","coordinates":[113.155491,27.068672]},"properties":{"region_id":"18005374826142760959","region_name":"罗荣桓故居","intensity":0,"avg_speed":52.82,"crowd_value_zs":0.03,"crowd_value_yj":1.018,"area":"衡东县","sort":48}},{"type":"Feature","geometry":{"type":"Point","coordinates":[112.139514,26.869739]},"properties":{"region_id":"3765155486009807923","region_name":"岐山景区","intensity":0,"avg_speed":35.63,"crowd_value_zs":0.15,"crowd_value_yj":1.014,"area":"衡南县","sort":49}},{"type":"Feature","geometry":{"type":"Point","coordinates":[112.498992,26.203545]},"properties":{"region_id":"18005350173030481919","region_name":"中国印山","intensity":0,"avg_speed":102.61,"crowd_value_zs":0.45,"crowd_value_yj":1.013,"area":"常宁市","sort":50}},{"type":"Feature","geometry":{"type":"Point","coordinates":[112.980869,26.202488]},"properties":{"region_id":"9808704733639183752","region_name":"蔡伦竹海","intensity":0,"avg_speed":56.08,"crowd_value_zs":0.81,"crowd_value_yj":1.007,"area":"耒阳市","sort":51}},{"type":"Feature","geometry":{"type":"Point","coordinates":[112.624086,27.125464]},"properties":{"region_id":"17837462083273228287","region_name":"岣嵝峰","intensity":0,"avg_speed":48.11,"crowd_value_zs":0.14,"crowd_value_yj":0.94,"area":"衡阳县","sort":52}}]}}