{"msg":"获取成功！","end_at":"2024-03-20 01:22:00","data":{"type":"FeatureCollection","features":[{"type":"Feature","geometry":{"type":"Point","coordinates":[119.862773,32.07119]},"properties":{"region_id":"11375267128915075557","region_name":"界牌汽车站","intensity":0,"avg_speed":32.17,"crowd_value_zs":0.05,"crowd_value_yj":1.374,"area":"丹阳市","sort":1}},{"type":"Feature","geometry":{"type":"Point","coordinates":[119.826221,32.237728]},"properties":{"region_id":"9473911270433247855","region_name":"通达商厦(前进北路店)","intensity":0,"avg_speed":29.36,"crowd_value_zs":0.49,"crowd_value_yj":1.343,"area":"扬中市","sort":2}},{"type":"Feature","geometry":{"type":"Point","coordinates":[119.826581,32.238663]},"properties":{"region_id":"14192475700705839961","region_name":"扬中市雨润国际广场","intensity":0,"avg_speed":29.49,"crowd_value_zs":1.13,"crowd_value_yj":1.336,"area":"扬中市","sort":3}},{"type":"Feature","geometry":{"type":"Point","coordinates":[119.778942,32.084376]},"properties":{"region_id":"2709341160849304771","region_name":"后巷汽车客运站","intensity":0,"avg_speed":35.32,"crowd_value_zs":0.01,"crowd_value_yj":1.328,"area":"丹阳市","sort":4}},{"type":"Feature","geometry":{"type":"Point","coordinates":[119.095069,32.140725]},"properties":{"region_id":"16023841017331524288","region_name":"千华古村","intensity":0,"avg_speed":43.1,"crowd_value_zs":0.18,"crowd_value_yj":1.304,"area":"句容市","sort":5}},{"type":"Feature","geometry":{"type":"Point","coordinates":[119.81704,32.221113]},"properties":{"region_id":"17714705110430384127","region_name":"扬中汽车客运站","intensity":0,"avg_speed":31.52,"crowd_value_zs":0.32,"crowd_value_yj":1.303,"area":"扬中市","sort":6}},{"type":"Feature","geometry":{"type":"Point","coordinates":[119.315442,31.785602]},"properties":{"region_id":"6609256263431593455","region_name":"茅山景区","intensity":0,"avg_speed":44.54,"crowd_value_zs":2.75,"crowd_value_yj":1.296,"area":"句容市","sort":7}},{"type":"Feature","geometry":{"type":"Point","coordinates":[119.575105,31.990334]},"properties":{"region_id":"12003863197549063442","region_name":"丹阳金鹰天地","intensity":0,"avg_speed":28.18,"crowd_value_zs":1.76,"crowd_value_yj":1.28,"area":"丹阳市","sort":8}},{"type":"Feature","geometry":{"type":"Point","coordinates":[119.815509,32.221869]},"properties":{"region_id":"18437825848221790097","region_name":"扬中市公交客运总站","intensity":0,"avg_speed":31.5,"crowd_value_zs":0.15,"crowd_value_yj":1.278,"area":"扬中市","sort":9}},{"type":"Feature","geometry":{"type":"Point","coordinates":[119.591313,31.997302]},"properties":{"region_id":"13320048463632256768","region_name":"丹阳城东汽车客运站","intensity":0,"avg_speed":30.73,"crowd_value_zs":0.12,"crowd_value_yj":1.272,"area":"丹阳市","sort":10}},{"type":"Feature","geometry":{"type":"Point","coordinates":[119.167367,31.947759]},"properties":{"region_id":"9655254077927114453","region_name":"中央商场","intensity":0,"avg_speed":28.08,"crowd_value_zs":0.29,"crowd_value_yj":1.264,"area":"句容市","sort":11}},{"type":"Feature","geometry":{"type":"Point","coordinates":[119.172466,31.943945]},"properties":{"region_id":"1259681343474761727","region_name":"天一商城","intensity":0,"avg_speed":27.78,"crowd_value_zs":0.81,"crowd_value_yj":1.259,"area":"句容市","sort":12}},{"type":"Feature","geometry":{"type":"Point","coordinates":[119.172276,31.945043]},"properties":{"region_id":"13119226643900655507","region_name":"万象城","intensity":0,"avg_speed":27.88,"crowd_value_zs":0.43,"crowd_value_yj":1.257,"area":"句容市","sort":13}},{"type":"Feature","geometry":{"type":"Point","coordinates":[119.742058,31.992625]},"properties":{"region_id":"12712030891488209932","region_name":"访仙客运站","intensity":0,"avg_speed":38.88,"crowd_value_zs":0.04,"crowd_value_yj":1.257,"area":"丹阳市","sort":14}},{"type":"Feature","geometry":{"type":"Point","coordinates":[119.087833,32.129906]},"properties":{"region_id":"18002302210834169855","region_name":"宝华山国家森林公园","intensity":0,"avg_speed":48.56,"crowd_value_zs":0.89,"crowd_value_yj":1.251,"area":"句容市","sort":15}},{"type":"Feature","geometry":{"type":"Point","coordinates":[119.67778,32.132888]},"properties":{"region_id":"1822429878861293049","region_name":"大港南站","intensity":0,"avg_speed":38.65,"crowd_value_zs":1.55,"crowd_value_yj":1.251,"area":"京口区","sort":16}},{"type":"Feature","geometry":{"type":"Point","coordinates":[119.592853,32.001886]},"properties":{"region_id":"1900064929923715593","region_name":"丹阳站","intensity":0,"avg_speed":30.75,"crowd_value_zs":4.7,"crowd_value_yj":1.245,"area":"丹阳市","sort":17}},{"type":"Feature","geometry":{"type":"Point","coordinates":[119.571099,31.984822]},"properties":{"region_id":"10136999022030431910","region_name":"丹阳汽车客运站","intensity":0,"avg_speed":28.95,"crowd_value_zs":0.58,"crowd_value_yj":1.242,"area":"丹阳市","sort":18}},{"type":"Feature","geometry":{"type":"Point","coordinates":[119.447499,32.126991]},"properties":{"region_id":"906738725843324700","region_name":"镇江宝龙广场","intensity":0,"avg_speed":42.5,"crowd_value_zs":3.33,"crowd_value_yj":1.236,"area":"丹徒区","sort":19}},{"type":"Feature","geometry":{"type":"Point","coordinates":[119.218902,31.744744]},"properties":{"region_id":"14456967940456119323","region_name":"天王客运站","intensity":0,"avg_speed":46.42,"crowd_value_zs":0.04,"crowd_value_yj":1.224,"area":"句容市","sort":20}},{"type":"Feature","geometry":{"type":"Point","coordinates":[119.420261,32.153244]},"properties":{"region_id":"5492616517218785298","region_name":"镇江南徐汽车客运站","intensity":0,"avg_speed":42.8,"crowd_value_zs":0.09,"crowd_value_yj":1.217,"area":"丹徒区","sort":21}},{"type":"Feature","geometry":{"type":"Point","coordinates":[119.47962,32.102572]},"properties":{"region_id":"1259680905388097535","region_name":"中国镇江醋文化博物馆","intensity":0,"avg_speed":45.87,"crowd_value_zs":0.17,"crowd_value_yj":1.217,"area":"丹徒区","sort":22}},{"type":"Feature","geometry":{"type":"Point","coordinates":[119.676534,32.147942]},"properties":{"region_id":"12303367745809943798","region_name":"北湖公园","intensity":0,"avg_speed":36.65,"crowd_value_zs":0.5,"crowd_value_yj":1.217,"area":"京口区","sort":23}},{"type":"Feature","geometry":{"type":"Point","coordinates":[119.424355,32.152393]},"properties":{"region_id":"11452204766661549822","region_name":"镇江南站","intensity":0,"avg_speed":42.56,"crowd_value_zs":4.71,"crowd_value_yj":1.216,"area":"丹徒区","sort":24}},{"type":"Feature","geometry":{"type":"Point","coordinates":[119.742497,32.090176]},"properties":{"region_id":"14134142661166197595","region_name":"丹阳滨江新城汽车客运站","intensity":0,"avg_speed":49.17,"crowd_value_zs":0.01,"crowd_value_yj":1.206,"area":"丹阳市","sort":25}},{"type":"Feature","geometry":{"type":"Point","coordinates":[119.582178,31.950826]},"properties":{"region_id":"15296246311163491523","region_name":"丹凤公园","intensity":0,"avg_speed":36.06,"crowd_value_zs":0.18,"crowd_value_yj":1.203,"area":"丹阳市","sort":26}},{"type":"Feature","geometry":{"type":"Point","coordinates":[119.16813,31.92356]},"properties":{"region_id":"17781368737780009650","region_name":"句容汽车客运站","intensity":0,"avg_speed":36.59,"crowd_value_zs":0.89,"crowd_value_yj":1.202,"area":"句容市","sort":27}},{"type":"Feature","geometry":{"type":"Point","coordinates":[119.607995,31.996625]},"properties":{"region_id":"6516838299901449531","region_name":"新城吾悦广场","intensity":0,"avg_speed":32.76,"crowd_value_zs":3.05,"crowd_value_yj":1.2,"area":"丹阳市","sort":28}},{"type":"Feature","geometry":{"type":"Point","coordinates":[119.436355,32.195643]},"properties":{"region_id":"1260223647520391167","region_name":"万达广场(镇江店)","intensity":0,"avg_speed":37.0,"crowd_value_zs":3.48,"crowd_value_yj":1.194,"area":"润州区","sort":29}},{"type":"Feature","geometry":{"type":"Point","coordinates":[119.441001,32.170724]},"properties":{"region_id":"5300624665904199764","region_name":"南山风景名胜区","intensity":0,"avg_speed":43.36,"crowd_value_zs":5.04,"crowd_value_yj":1.183,"area":"润州区","sort":30}},{"type":"Feature","geometry":{"type":"Point","coordinates":[119.184541,32.161957]},"properties":{"region_id":"14949607493891384805","region_name":"句容市下蜀客运站","intensity":0,"avg_speed":40.02,"crowd_value_zs":0.15,"crowd_value_yj":1.178,"area":"句容市","sort":31}},{"type":"Feature","geometry":{"type":"Point","coordinates":[119.468278,32.167757]},"properties":{"region_id":"18069707547687985102","region_name":"官塘新城公交枢纽站","intensity":0,"avg_speed":54.69,"crowd_value_zs":0.09,"crowd_value_yj":1.177,"area":"润州区","sort":32}},{"type":"Feature","geometry":{"type":"Point","coordinates":[119.520233,32.114688]},"properties":{"region_id":"736682603203937074","region_name":"丹徒站","intensity":0,"avg_speed":44.9,"crowd_value_zs":2.26,"crowd_value_yj":1.171,"area":"丹徒区","sort":33}},{"type":"Feature","geometry":{"type":"Point","coordinates":[119.453141,32.205855]},"properties":{"region_id":"3083083160985657708","region_name":"镇江商业城","intensity":0,"avg_speed":34.46,"crowd_value_zs":0.52,"crowd_value_yj":1.16,"area":"京口区","sort":34}},{"type":"Feature","geometry":{"type":"Point","coordinates":[119.452878,32.20424]},"properties":{"region_id":"6369241525580437339","region_name":"苏宁广场","intensity":0,"avg_speed":34.81,"crowd_value_zs":4.81,"crowd_value_yj":1.154,"area":"京口区","sort":35}},{"type":"Feature","geometry":{"type":"Point","coordinates":[119.449198,32.20513]},"properties":{"region_id":"6348553572480617280","region_name":"镇江八佰伴(中山东路店)","intensity":0,"avg_speed":34.95,"crowd_value_zs":3.08,"crowd_value_yj":1.15,"area":"京口区","sort":36}},{"type":"Feature","geometry":{"type":"Point","coordinates":[119.910265,32.030193]},"properties":{"region_id":"18002226297287213055","region_name":"扬中西来桥汽车客运站","intensity":0,"avg_speed":41.93,"crowd_value_zs":0.03,"crowd_value_yj":1.15,"area":"扬中市","sort":37}},{"type":"Feature","geometry":{"type":"Point","coordinates":[119.432479,32.197312]},"properties":{"region_id":"7851031553221781685","region_name":"镇江站","intensity":0,"avg_speed":37.35,"crowd_value_zs":9.85,"crowd_value_yj":1.147,"area":"润州区","sort":38}},{"type":"Feature","geometry":{"type":"Point","coordinates":[119.435608,32.197007]},"properties":{"region_id":"6702270429040910482","region_name":"镇江汽车客运站","intensity":0,"avg_speed":37.51,"crowd_value_zs":1.83,"crowd_value_yj":1.127,"area":"润州区","sort":39}},{"type":"Feature","geometry":{"type":"Point","coordinates":[119.486687,32.236747]},"properties":{"region_id":"17660670367397576703","region_name":"焦山风景区","intensity":0,"avg_speed":40.77,"crowd_value_zs":1.14,"crowd_value_yj":1.125,"area":"润州区","sort":40}},{"type":"Feature","geometry":{"type":"Point","coordinates":[119.423882,32.206823]},"properties":{"region_id":"2119936436338584828","region_name":"镇江东方伟业广场","intensity":0,"avg_speed":37.7,"crowd_value_zs":0.68,"crowd_value_yj":1.123,"area":"润州区","sort":41}},{"type":"Feature","geometry":{"type":"Point","coordinates":[119.415595,32.213683]},"properties":{"region_id":"12069566224232881810","region_name":"镇江金山·焦山·北固山旅游景区","intensity":0,"avg_speed":38.5,"crowd_value_zs":6.03,"crowd_value_yj":1.116,"area":"润州区","sort":42}},{"type":"Feature","geometry":{"type":"Point","coordinates":[119.457347,32.216745]},"properties":{"region_id":"1259681029942149119","region_name":"北固山风景区","intensity":0,"avg_speed":36.06,"crowd_value_zs":1.49,"crowd_value_yj":1.116,"area":"京口区","sort":43}},{"type":"Feature","geometry":{"type":"Point","coordinates":[119.48083,32.209715]},"properties":{"region_id":"5392279676301932619","region_name":"D33文化广场","intensity":0,"avg_speed":38.35,"crowd_value_zs":1.01,"crowd_value_yj":1.116,"area":"京口区","sort":44}},{"type":"Feature","geometry":{"type":"Point","coordinates":[119.481736,32.219432]},"properties":{"region_id":"12906252508633951271","region_name":"红豆购物广场","intensity":0,"avg_speed":37.76,"crowd_value_zs":0.82,"crowd_value_yj":1.116,"area":"京口区","sort":45}},{"type":"Feature","geometry":{"type":"Point","coordinates":[119.00349,31.812248]},"properties":{"region_id":"15155736182970929648","region_name":"南京东郊奥特莱斯","intensity":0,"avg_speed":80.83,"crowd_value_zs":0.65,"crowd_value_yj":1.112,"area":"句容市","sort":46}},{"type":"Feature","geometry":{"type":"Point","coordinates":[119.430167,32.213355]},"properties":{"region_id":"10671667566019089323","region_name":"西津渡历史文化街区","intensity":0,"avg_speed":37.65,"crowd_value_zs":2.73,"crowd_value_yj":1.111,"area":"润州区","sort":47}},{"type":"Feature","geometry":{"type":"Point","coordinates":[119.405149,32.18471]},"properties":{"region_id":"2944069337887516735","region_name":"悦然广场","intensity":0,"avg_speed":42.94,"crowd_value_zs":1.25,"crowd_value_yj":1.107,"area":"润州区","sort":48}},{"type":"Feature","geometry":{"type":"Point","coordinates":[119.300042,31.895274]},"properties":{"region_id":"711161432161834994","region_name":"得撒石磨豆腐村","intensity":0,"avg_speed":55.06,"crowd_value_zs":0.2,"crowd_value_yj":1.106,"area":"句容市","sort":49}},{"type":"Feature","geometry":{"type":"Point","coordinates":[119.431746,32.213711]},"properties":{"region_id":"3021163915555607099","region_name":"镇江博物馆","intensity":0,"avg_speed":38.22,"crowd_value_zs":0.15,"crowd_value_yj":1.102,"area":"润州区","sort":50}},{"type":"Feature","geometry":{"type":"Point","coordinates":[119.414431,32.215265]},"properties":{"region_id":"2023507677612615816","region_name":"金山景区","intensity":0,"avg_speed":39.4,"crowd_value_zs":1.9,"crowd_value_yj":1.089,"area":"润州区","sort":51}},{"type":"Feature","geometry":{"type":"Point","coordinates":[119.487986,32.172568]},"properties":{"region_id":"3777391191019829577","region_name":"优盛生活广场","intensity":0,"avg_speed":57.54,"crowd_value_zs":0.52,"crowd_value_yj":1.078,"area":"京口区","sort":52}},{"type":"Feature","geometry":{"type":"Point","coordinates":[119.498261,32.177538]},"properties":{"region_id":"12726963927484295716","region_name":"吾悦广场","intensity":0,"avg_speed":57.05,"crowd_value_zs":4.87,"crowd_value_yj":1.066,"area":"京口区","sort":53}},{"type":"Feature","geometry":{"type":"Point","coordinates":[119.49405,32.180373]},"properties":{"region_id":"6931447884296739894","region_name":"沃得购物广场(谷阳路)","intensity":0,"avg_speed":57.87,"crowd_value_zs":0.92,"crowd_value_yj":1.056,"area":"京口区","sort":54}},{"type":"Feature","geometry":{"type":"Point","coordinates":[119.440164,31.890342]},"properties":{"region_id":"17660667412460077055","region_name":"九里风景区","intensity":0,"avg_speed":63.5,"crowd_value_zs":0.13,"crowd_value_yj":1.033,"area":"丹阳市","sort":55}}]}}