{"msg":"获取成功！","end_at":"2024-03-20 01:20:14","data":{"type":"FeatureCollection","features":[{"type":"Feature","geometry":{"type":"Point","coordinates":[121.597841,32.060178]},"properties":{"region_id":"17835290917175558143","region_name":"启东吕四汽车客运站","intensity":1,"avg_speed":28.29,"crowd_value_zs":0.31,"crowd_value_yj":1.514,"area":"启东市","sort":1}},{"type":"Feature","geometry":{"type":"Point","coordinates":[121.037069,32.31946]},"properties":{"region_id":"18003546170802044927","region_name":"马塘汽车客运站","intensity":0,"avg_speed":34.64,"crowd_value_zs":0.03,"crowd_value_yj":1.444,"area":"如东县","sort":2}},{"type":"Feature","geometry":{"type":"Point","coordinates":[120.858173,32.019521]},"properties":{"region_id":"18003452149672968191","region_name":"南通盆景园","intensity":0,"avg_speed":23.1,"crowd_value_zs":0.18,"crowd_value_yj":1.403,"area":"崇川区","sort":3}},{"type":"Feature","geometry":{"type":"Point","coordinates":[120.865819,32.01669]},"properties":{"region_id":"2034058699500317757","region_name":"南通八佰伴","intensity":0,"avg_speed":23.05,"crowd_value_zs":1.49,"crowd_value_yj":1.395,"area":"崇川区","sort":4}},{"type":"Feature","geometry":{"type":"Point","coordinates":[120.857254,32.021793]},"properties":{"region_id":"1259029268654981119","region_name":"南通濠河博物馆","intensity":0,"avg_speed":24.41,"crowd_value_zs":0.31,"crowd_value_yj":1.383,"area":"崇川区","sort":5}},{"type":"Feature","geometry":{"type":"Point","coordinates":[120.866089,32.015385]},"properties":{"region_id":"1258557148669935615","region_name":"文峰大世界(南大街店)","intensity":0,"avg_speed":23.42,"crowd_value_zs":1.06,"crowd_value_yj":1.377,"area":"崇川区","sort":6}},{"type":"Feature","geometry":{"type":"Point","coordinates":[120.872293,32.016101]},"properties":{"region_id":"1259686755133554687","region_name":"濠东绿苑","intensity":0,"avg_speed":23.97,"crowd_value_zs":0.34,"crowd_value_yj":1.352,"area":"崇川区","sort":7}},{"type":"Feature","geometry":{"type":"Point","coordinates":[121.184475,32.312028]},"properties":{"region_id":"1262690522116390911","region_name":"文峰大世界(如东店)","intensity":0,"avg_speed":28.93,"crowd_value_zs":0.46,"crowd_value_yj":1.351,"area":"如东县","sort":8}},{"type":"Feature","geometry":{"type":"Point","coordinates":[121.091005,31.966131]},"properties":{"region_id":"5331732281997675893","region_name":"叠石桥客运站","intensity":0,"avg_speed":29.72,"crowd_value_zs":0.18,"crowd_value_yj":1.332,"area":"海门区","sort":9}},{"type":"Feature","geometry":{"type":"Point","coordinates":[120.741666,32.102413]},"properties":{"region_id":"17671458603690622975","region_name":"平潮汽车站","intensity":0,"avg_speed":36.15,"crowd_value_zs":0.02,"crowd_value_yj":1.32,"area":"通州区","sort":10}},{"type":"Feature","geometry":{"type":"Point","coordinates":[120.869829,32.011273]},"properties":{"region_id":"1261793805959430143","region_name":"南通博物苑","intensity":0,"avg_speed":24.4,"crowd_value_zs":0.52,"crowd_value_yj":1.315,"area":"崇川区","sort":11}},{"type":"Feature","geometry":{"type":"Point","coordinates":[121.275838,32.055032]},"properties":{"region_id":"7786083877570499128","region_name":"货隆车站","intensity":0,"avg_speed":45.98,"crowd_value_zs":0.0,"crowd_value_yj":1.311,"area":"海门区","sort":12}},{"type":"Feature","geometry":{"type":"Point","coordinates":[120.752189,32.238221]},"properties":{"region_id":"9597912281968464423","region_name":"白蒲汽车客运站","intensity":0,"avg_speed":32.42,"crowd_value_zs":0.15,"crowd_value_yj":1.285,"area":"如皋市","sort":13}},{"type":"Feature","geometry":{"type":"Point","coordinates":[120.867012,32.014318]},"properties":{"region_id":"255808028904932082","region_name":"濠河风景区","intensity":0,"avg_speed":28.58,"crowd_value_zs":56.6,"crowd_value_yj":1.282,"area":"崇川区","sort":14}},{"type":"Feature","geometry":{"type":"Point","coordinates":[121.415493,32.145663]},"properties":{"region_id":"2188178532060414512","region_name":"通州湾汽运中心","intensity":0,"avg_speed":41.93,"crowd_value_zs":0.1,"crowd_value_yj":1.282,"area":"通州区","sort":15}},{"type":"Feature","geometry":{"type":"Point","coordinates":[120.453367,32.515411]},"properties":{"region_id":"17725002738573104712","region_name":"海安万达广场","intensity":0,"avg_speed":33.32,"crowd_value_zs":1.38,"crowd_value_yj":1.281,"area":"海安市","sort":16}},{"type":"Feature","geometry":{"type":"Point","coordinates":[121.063625,32.080361]},"properties":{"region_id":"18003511858308317183","region_name":"通州汽车客运站","intensity":0,"avg_speed":29.07,"crowd_value_zs":0.39,"crowd_value_yj":1.279,"area":"通州区","sort":17}},{"type":"Feature","geometry":{"type":"Point","coordinates":[120.5728,32.102559]},"properties":{"region_id":"13649487953889406294","region_name":"文峰大世界(长江店)","intensity":0,"avg_speed":35.3,"crowd_value_zs":0.58,"crowd_value_yj":1.278,"area":"如皋市","sort":18}},{"type":"Feature","geometry":{"type":"Point","coordinates":[121.658296,31.810891]},"properties":{"region_id":"195397817165383697","region_name":"文峰大世界(人民中路店)","intensity":0,"avg_speed":27.02,"crowd_value_zs":0.69,"crowd_value_yj":1.275,"area":"启东市","sort":19}},{"type":"Feature","geometry":{"type":"Point","coordinates":[121.666991,31.825411]},"properties":{"region_id":"15099904191586450337","region_name":"启东客运站","intensity":0,"avg_speed":29.31,"crowd_value_zs":0.77,"crowd_value_yj":1.263,"area":"启东市","sort":20}},{"type":"Feature","geometry":{"type":"Point","coordinates":[120.864243,32.033041]},"properties":{"region_id":"4973227609385629401","region_name":"五洲国际广场","intensity":0,"avg_speed":43.63,"crowd_value_zs":2.43,"crowd_value_yj":1.255,"area":"崇川区","sort":21}},{"type":"Feature","geometry":{"type":"Point","coordinates":[120.569367,32.396038]},"properties":{"region_id":"1259686793788260351","region_name":"水绘园","intensity":0,"avg_speed":25.85,"crowd_value_zs":1.1,"crowd_value_yj":1.245,"area":"如皋市","sort":22}},{"type":"Feature","geometry":{"type":"Point","coordinates":[120.562159,32.390937]},"properties":{"region_id":"1261351093615460351","region_name":"文峰大世界(中山路店)","intensity":0,"avg_speed":25.06,"crowd_value_zs":1.28,"crowd_value_yj":1.244,"area":"如皋市","sort":23}},{"type":"Feature","geometry":{"type":"Point","coordinates":[121.661447,31.787884]},"properties":{"region_id":"12489171398627058619","region_name":"新城吾悦广场(建设中)","intensity":0,"avg_speed":30.03,"crowd_value_zs":1.56,"crowd_value_yj":1.241,"area":"启东市","sort":24}},{"type":"Feature","geometry":{"type":"Point","coordinates":[121.349297,31.975953]},"properties":{"region_id":"4411650618603184305","region_name":"树勋客运站","intensity":0,"avg_speed":50.84,"crowd_value_zs":0.14,"crowd_value_yj":1.234,"area":"海门区","sort":25}},{"type":"Feature","geometry":{"type":"Point","coordinates":[120.577708,32.368592]},"properties":{"region_id":"7116878972568182813","region_name":"新城吾悦广场","intensity":0,"avg_speed":31.08,"crowd_value_zs":1.97,"crowd_value_yj":1.228,"area":"如皋市","sort":26}},{"type":"Feature","geometry":{"type":"Point","coordinates":[120.940595,31.955048]},"properties":{"region_id":"11165192571889781142","region_name":"紫琅湖沙滩","intensity":0,"avg_speed":31.74,"crowd_value_zs":0.05,"crowd_value_yj":1.223,"area":"崇川区","sort":27}},{"type":"Feature","geometry":{"type":"Point","coordinates":[121.183744,31.880035]},"properties":{"region_id":"17166004386071478547","region_name":"龙信购物广场","intensity":0,"avg_speed":32.52,"crowd_value_zs":1.42,"crowd_value_yj":1.222,"area":"海门区","sort":28}},{"type":"Feature","geometry":{"type":"Point","coordinates":[121.159595,31.889267]},"properties":{"region_id":"480073653527428404","region_name":"海门汽车客运站","intensity":0,"avg_speed":33.21,"crowd_value_zs":0.84,"crowd_value_yj":1.221,"area":"海门区","sort":29}},{"type":"Feature","geometry":{"type":"Point","coordinates":[121.090949,32.065018]},"properties":{"region_id":"2115342686899597209","region_name":"南通通州万达广场","intensity":0,"avg_speed":30.6,"crowd_value_zs":1.44,"crowd_value_yj":1.22,"area":"通州区","sort":30}},{"type":"Feature","geometry":{"type":"Point","coordinates":[120.606058,32.383178]},"properties":{"region_id":"5069310514562444218","region_name":"如皋站","intensity":0,"avg_speed":36.09,"crowd_value_zs":1.82,"crowd_value_yj":1.212,"area":"如皋市","sort":31}},{"type":"Feature","geometry":{"type":"Point","coordinates":[120.817164,32.064707]},"properties":{"region_id":"1259686772313423871","region_name":"唐闸公园","intensity":0,"avg_speed":31.95,"crowd_value_zs":0.51,"crowd_value_yj":1.206,"area":"崇川区","sort":32}},{"type":"Feature","geometry":{"type":"Point","coordinates":[121.183858,31.865211]},"properties":{"region_id":"1359603754806627410","region_name":"海门江海文化公园","intensity":0,"avg_speed":34.07,"crowd_value_zs":0.17,"crowd_value_yj":1.201,"area":"海门区","sort":33}},{"type":"Feature","geometry":{"type":"Point","coordinates":[120.556613,32.361423]},"properties":{"region_id":"13920857426650596282","region_name":"如皋汽车客运站","intensity":0,"avg_speed":33.85,"crowd_value_zs":0.25,"crowd_value_yj":1.2,"area":"如皋市","sort":34}},{"type":"Feature","geometry":{"type":"Point","coordinates":[120.504475,32.547573]},"properties":{"region_id":"16408187951477644087","region_name":"海安站","intensity":0,"avg_speed":40.58,"crowd_value_zs":3.8,"crowd_value_yj":1.192,"area":"海安市","sort":35}},{"type":"Feature","geometry":{"type":"Point","coordinates":[120.888319,31.986461]},"properties":{"region_id":"888905958243436822","region_name":"南通印象城","intensity":0,"avg_speed":36.31,"crowd_value_zs":3.45,"crowd_value_yj":1.189,"area":"崇川区","sort":36}},{"type":"Feature","geometry":{"type":"Point","coordinates":[120.884356,32.004934]},"properties":{"region_id":"301564592925052476","region_name":"南通市圆融购物中心(工农路店)","intensity":0,"avg_speed":31.72,"crowd_value_zs":5.01,"crowd_value_yj":1.186,"area":"崇川区","sort":37}},{"type":"Feature","geometry":{"type":"Point","coordinates":[120.824659,32.100816]},"properties":{"region_id":"17367041600655289070","region_name":"南通森林野生动物园","intensity":0,"avg_speed":48.21,"crowd_value_zs":1.68,"crowd_value_yj":1.174,"area":"崇川区","sort":38}},{"type":"Feature","geometry":{"type":"Point","coordinates":[120.951591,31.92093]},"properties":{"region_id":"4235756899738392616","region_name":"南通世茂广场","intensity":0,"avg_speed":30.16,"crowd_value_zs":1.93,"crowd_value_yj":1.173,"area":"崇川区","sort":39}},{"type":"Feature","geometry":{"type":"Point","coordinates":[120.48058,32.538094]},"properties":{"region_id":"18003491367019347967","region_name":"海安汽车客运站","intensity":0,"avg_speed":30.87,"crowd_value_zs":0.72,"crowd_value_yj":1.172,"area":"海安市","sort":40}},{"type":"Feature","geometry":{"type":"Point","coordinates":[121.704279,31.787064]},"properties":{"region_id":"16496977686043869134","region_name":"启东城东汽车客运站","intensity":0,"avg_speed":62.87,"crowd_value_zs":0.18,"crowd_value_yj":1.171,"area":"启东市","sort":41}},{"type":"Feature","geometry":{"type":"Point","coordinates":[120.627501,32.344927]},"properties":{"region_id":"17585557198747060529","region_name":"如皋南站","intensity":0,"avg_speed":46.77,"crowd_value_zs":0.31,"crowd_value_yj":1.169,"area":"如皋市","sort":42}},{"type":"Feature","geometry":{"type":"Point","coordinates":[120.893303,31.969082]},"properties":{"region_id":"1259687077256101887","region_name":"中南城购物中心","intensity":0,"avg_speed":36.97,"crowd_value_zs":2.7,"crowd_value_yj":1.169,"area":"崇川区","sort":43}},{"type":"Feature","geometry":{"type":"Point","coordinates":[120.898569,31.967392]},"properties":{"region_id":"1383930603039264952","region_name":"南通海底世界","intensity":0,"avg_speed":36.54,"crowd_value_zs":1.17,"crowd_value_yj":1.169,"area":"崇川区","sort":44}},{"type":"Feature","geometry":{"type":"Point","coordinates":[120.860326,32.068184]},"properties":{"region_id":"4468312733537845190","region_name":"南通站","intensity":0,"avg_speed":41.53,"crowd_value_zs":4.03,"crowd_value_yj":1.166,"area":"崇川区","sort":45}},{"type":"Feature","geometry":{"type":"Point","coordinates":[120.616962,32.340503]},"properties":{"region_id":"3022639312496343803","region_name":"如皋龙游湖生态公园","intensity":0,"avg_speed":46.16,"crowd_value_zs":0.65,"crowd_value_yj":1.162,"area":"如皋市","sort":46}},{"type":"Feature","geometry":{"type":"Point","coordinates":[121.486619,32.062015]},"properties":{"region_id":"16138358699715624244","region_name":"海门六甲汽车客运站","intensity":0,"avg_speed":47.67,"crowd_value_zs":0.1,"crowd_value_yj":1.158,"area":"海门区","sort":47}},{"type":"Feature","geometry":{"type":"Point","coordinates":[120.855003,32.041174]},"properties":{"region_id":"1261587510090268671","region_name":"奥特莱斯购物广场","intensity":0,"avg_speed":47.27,"crowd_value_zs":1.89,"crowd_value_yj":1.154,"area":"崇川区","sort":48}},{"type":"Feature","geometry":{"type":"Point","coordinates":[120.858933,32.052013]},"properties":{"region_id":"15081089416421630750","region_name":"南通万象城(永和路店)","intensity":0,"avg_speed":45.97,"crowd_value_zs":4.02,"crowd_value_yj":1.154,"area":"崇川区","sort":49}},{"type":"Feature","geometry":{"type":"Point","coordinates":[121.090867,32.059403]},"properties":{"region_id":"12952920124764964983","region_name":"南山湖公园","intensity":0,"avg_speed":38.22,"crowd_value_zs":0.68,"crowd_value_yj":1.149,"area":"通州区","sort":50}},{"type":"Feature","geometry":{"type":"Point","coordinates":[120.90855,31.96601]},"properties":{"region_id":"1259686832442966015","region_name":"啬园","intensity":0,"avg_speed":39.38,"crowd_value_zs":0.35,"crowd_value_yj":1.145,"area":"崇川区","sort":51}},{"type":"Feature","geometry":{"type":"Point","coordinates":[120.765507,32.101625]},"properties":{"region_id":"7653087715812725342","region_name":"南通西站","intensity":0,"avg_speed":56.35,"crowd_value_zs":5.63,"crowd_value_yj":1.142,"area":"通州区","sort":52}},{"type":"Feature","geometry":{"type":"Point","coordinates":[120.962002,31.923377]},"properties":{"region_id":"14427411143065405624","region_name":"永旺梦乐城(星湖店)","intensity":0,"avg_speed":40.97,"crowd_value_zs":2.01,"crowd_value_yj":1.138,"area":"崇川区","sort":53}},{"type":"Feature","geometry":{"type":"Point","coordinates":[120.887625,31.950076]},"properties":{"region_id":"5481323720121075806","region_name":"南通狼山风景名胜区","intensity":0,"avg_speed":42.75,"crowd_value_zs":1.43,"crowd_value_yj":1.125,"area":"崇川区","sort":54}},{"type":"Feature","geometry":{"type":"Point","coordinates":[121.109236,32.049908]},"properties":{"region_id":"2071902368724799581","region_name":"鲜花小镇","intensity":0,"avg_speed":41.33,"crowd_value_zs":0.23,"crowd_value_yj":1.125,"area":"通州区","sort":55}},{"type":"Feature","geometry":{"type":"Point","coordinates":[121.473686,32.101419]},"properties":{"region_id":"10163946977284818805","region_name":"滨海森林公园","intensity":0,"avg_speed":44.14,"crowd_value_zs":0.1,"crowd_value_yj":1.117,"area":"海门区","sort":56}},{"type":"Feature","geometry":{"type":"Point","coordinates":[120.871958,31.959019]},"properties":{"region_id":"1259686591924797439","region_name":"滨江公园(南郊路)","intensity":0,"avg_speed":55.84,"crowd_value_zs":0.6,"crowd_value_yj":1.099,"area":"崇川区","sort":57}},{"type":"Feature","geometry":{"type":"Point","coordinates":[120.834431,32.036086]},"properties":{"region_id":"12105988842548215084","region_name":"万达广场","intensity":0,"avg_speed":46.84,"crowd_value_zs":4.71,"crowd_value_yj":1.093,"area":"崇川区","sort":58}},{"type":"Feature","geometry":{"type":"Point","coordinates":[120.966647,32.024348]},"properties":{"region_id":"7487142096112150439","region_name":"南通绿博园","intensity":0,"avg_speed":80.37,"crowd_value_zs":0.21,"crowd_value_yj":1.076,"area":"通州区","sort":59}},{"type":"Feature","geometry":{"type":"Point","coordinates":[121.896957,31.698491]},"properties":{"region_id":"18003526297988366335","region_name":"圆陀角风景区","intensity":0,"avg_speed":52.4,"crowd_value_zs":0.03,"crowd_value_yj":1.046,"area":"启东市","sort":60}}]}}