{"msg":"获取成功！","end_at":"2024-03-19 10:10:16","data":{"type":"FeatureCollection","features":[{"type":"Feature","geometry":{"type":"Point","coordinates":[115.939243,28.672862]},"properties":{"region_id":"16965748793673872645","region_name":"恒茂梦时代广场","intensity":3,"avg_speed":12.05,"crowd_value_zs":11.38,"crowd_value_yj":3.66,"area":"青山湖区","sort":1}},{"type":"Feature","geometry":{"type":"Point","coordinates":[115.968413,28.675228]},"properties":{"region_id":"3935949578615328755","region_name":"天虹商场(京东店)","intensity":3,"avg_speed":12.56,"crowd_value_zs":2.12,"crowd_value_yj":3.18,"area":"青山湖区","sort":2}},{"type":"Feature","geometry":{"type":"Point","coordinates":[115.918966,28.661962]},"properties":{"region_id":"16017186509441011539","region_name":"南昌站","intensity":3,"avg_speed":15.4,"crowd_value_zs":13.85,"crowd_value_yj":2.957,"area":"青山湖区","sort":3}},{"type":"Feature","geometry":{"type":"Point","coordinates":[115.911082,28.647024]},"properties":{"region_id":"6228525185119550540","region_name":"徐坊客运站","intensity":3,"avg_speed":17.72,"crowd_value_zs":0.37,"crowd_value_yj":2.885,"area":"青云谱区","sort":4}},{"type":"Feature","geometry":{"type":"Point","coordinates":[115.921087,28.664252]},"properties":{"region_id":"10715324944827289302","region_name":"南昌长途汽车站","intensity":3,"avg_speed":16.05,"crowd_value_zs":1.52,"crowd_value_yj":2.841,"area":"青山湖区","sort":5}},{"type":"Feature","geometry":{"type":"Point","coordinates":[115.899784,28.660755]},"properties":{"region_id":"18001559001103335423","region_name":"绳金塔","intensity":3,"avg_speed":13.17,"crowd_value_zs":1.48,"crowd_value_yj":2.641,"area":"西湖区","sort":6}},{"type":"Feature","geometry":{"type":"Point","coordinates":[115.905253,28.65449]},"properties":{"region_id":"6181092575504231412","region_name":"王府井购物中心","intensity":3,"avg_speed":15.46,"crowd_value_zs":5.88,"crowd_value_yj":2.602,"area":"青云谱区","sort":7}},{"type":"Feature","geometry":{"type":"Point","coordinates":[115.912022,28.670482]},"properties":{"region_id":"9741165470329804187","region_name":"IM盈石广场","intensity":3,"avg_speed":14.55,"crowd_value_zs":2.53,"crowd_value_yj":2.368,"area":"西湖区","sort":8}},{"type":"Feature","geometry":{"type":"Point","coordinates":[115.891957,28.676347]},"properties":{"region_id":"1262746850612477951","region_name":"百盛购物中心(南昌店)","intensity":3,"avg_speed":14.54,"crowd_value_zs":6.29,"crowd_value_yj":2.316,"area":"东湖区","sort":9}},{"type":"Feature","geometry":{"type":"Point","coordinates":[115.956568,28.654491]},"properties":{"region_id":"18001559061232877567","region_name":"天香园","intensity":3,"avg_speed":16.53,"crowd_value_zs":0.19,"crowd_value_yj":2.215,"area":"青山湖区","sort":10}},{"type":"Feature","geometry":{"type":"Point","coordinates":[115.889411,28.674756]},"properties":{"region_id":"13247272933143024845","region_name":"南昌八一起义纪念馆","intensity":3,"avg_speed":14.59,"crowd_value_zs":2.0,"crowd_value_yj":2.204,"area":"西湖区","sort":11}},{"type":"Feature","geometry":{"type":"Point","coordinates":[115.892121,28.675216]},"properties":{"region_id":"1263046562020327423","region_name":"天虹商场(中山路店)","intensity":3,"avg_speed":14.36,"crowd_value_zs":5.76,"crowd_value_yj":2.199,"area":"西湖区","sort":12}},{"type":"Feature","geometry":{"type":"Point","coordinates":[115.895512,28.667131]},"properties":{"region_id":"14300029958145851455","region_name":"南昌新四军军部旧址陈列馆","intensity":3,"avg_speed":14.34,"crowd_value_zs":0.48,"crowd_value_yj":2.177,"area":"西湖区","sort":13}},{"type":"Feature","geometry":{"type":"Point","coordinates":[115.904342,28.676553]},"properties":{"region_id":"1262746773303066623","region_name":"万达广场(八一大道店)","intensity":3,"avg_speed":14.27,"crowd_value_zs":2.09,"crowd_value_yj":2.127,"area":"东湖区","sort":14}},{"type":"Feature","geometry":{"type":"Point","coordinates":[115.897386,28.67869]},"properties":{"region_id":"18001552910839709695","region_name":"八一公园","intensity":3,"avg_speed":16.29,"crowd_value_zs":2.44,"crowd_value_yj":2.076,"area":"东湖区","sort":15}},{"type":"Feature","geometry":{"type":"Point","coordinates":[115.830474,28.628509]},"properties":{"region_id":"8448636719848419796","region_name":"滨江月季园","intensity":2,"avg_speed":29.74,"crowd_value_zs":0.57,"crowd_value_yj":1.982,"area":"红谷滩区","sort":16}},{"type":"Feature","geometry":{"type":"Point","coordinates":[115.881135,28.681531]},"properties":{"region_id":"8160901533193274167","region_name":"滕王阁","intensity":2,"avg_speed":20.03,"crowd_value_zs":4.94,"crowd_value_yj":1.981,"area":"东湖区","sort":17}},{"type":"Feature","geometry":{"type":"Point","coordinates":[115.902905,28.688851]},"properties":{"region_id":"18001552777695723519","region_name":"青山客运站","intensity":2,"avg_speed":17.93,"crowd_value_zs":0.12,"crowd_value_yj":1.914,"area":"东湖区","sort":18}},{"type":"Feature","geometry":{"type":"Point","coordinates":[115.878173,28.632773]},"properties":{"region_id":"13922919338153737350","region_name":"南昌动物园(桃花南路)","intensity":2,"avg_speed":26.3,"crowd_value_zs":1.41,"crowd_value_yj":1.902,"area":"西湖区","sort":19}},{"type":"Feature","geometry":{"type":"Point","coordinates":[115.976569,28.673145]},"properties":{"region_id":"18001552897954807807","region_name":"南昌海洋公园","intensity":2,"avg_speed":23.02,"crowd_value_zs":0.2,"crowd_value_yj":1.885,"area":"青山湖区","sort":20}},{"type":"Feature","geometry":{"type":"Point","coordinates":[115.85234,28.674712]},"properties":{"region_id":"16811874852875134069","region_name":"天虹商场(红谷店)","intensity":1,"avg_speed":22.33,"crowd_value_zs":1.87,"crowd_value_yj":1.719,"area":"红谷滩区","sort":21}},{"type":"Feature","geometry":{"type":"Point","coordinates":[115.889291,28.719507]},"properties":{"region_id":"15422326651068081160","region_name":"南昌舰主题园","intensity":1,"avg_speed":30.43,"crowd_value_zs":0.2,"crowd_value_yj":1.657,"area":"红谷滩区","sort":22}},{"type":"Feature","geometry":{"type":"Point","coordinates":[115.848725,28.692918]},"properties":{"region_id":"18090867385764986152","region_name":"万达广场(红谷滩店)","intensity":1,"avg_speed":24.86,"crowd_value_zs":17.55,"crowd_value_yj":1.654,"area":"红谷滩区","sort":23}},{"type":"Feature","geometry":{"type":"Point","coordinates":[115.989748,28.690237]},"properties":{"region_id":"1259469524277657599","region_name":"艾溪湖森林湿地公园(艾溪湖北路)","intensity":1,"avg_speed":24.29,"crowd_value_zs":6.88,"crowd_value_yj":1.646,"area":"青山湖区","sort":24}},{"type":"Feature","geometry":{"type":"Point","coordinates":[115.726077,28.770215]},"properties":{"region_id":"13002914340746482966","region_name":"梅岭国家森林公园","intensity":1,"avg_speed":33.41,"crowd_value_zs":19.9,"crowd_value_yj":1.644,"area":"新建区","sort":25}},{"type":"Feature","geometry":{"type":"Point","coordinates":[115.864831,28.635136]},"properties":{"region_id":"5933944649901609284","region_name":"九洲天虹广场","intensity":1,"avg_speed":32.52,"crowd_value_zs":3.93,"crowd_value_yj":1.592,"area":"西湖区","sort":26}},{"type":"Feature","geometry":{"type":"Point","coordinates":[116.24621,28.354132]},"properties":{"region_id":"11139568758685020679","region_name":"进贤站","intensity":1,"avg_speed":29.15,"crowd_value_zs":0.56,"crowd_value_yj":1.514,"area":"进贤县","sort":27}},{"type":"Feature","geometry":{"type":"Point","coordinates":[115.85901,28.633043]},"properties":{"region_id":"14934000592973235450","region_name":"西湖万达广场","intensity":1,"avg_speed":35.43,"crowd_value_zs":3.47,"crowd_value_yj":1.508,"area":"西湖区","sort":28}},{"type":"Feature","geometry":{"type":"Point","coordinates":[115.834752,28.945023]},"properties":{"region_id":"15648683006324412391","region_name":"南昌新祺周客运站","intensity":1,"avg_speed":27.38,"crowd_value_zs":0.02,"crowd_value_yj":1.507,"area":"新建区","sort":29}},{"type":"Feature","geometry":{"type":"Point","coordinates":[115.881877,28.705687]},"properties":{"region_id":"11224842626106519451","region_name":"江西省博物馆新馆","intensity":0,"avg_speed":25.65,"crowd_value_zs":0.59,"crowd_value_yj":1.475,"area":"红谷滩区","sort":30}},{"type":"Feature","geometry":{"type":"Point","coordinates":[115.867155,28.692929]},"properties":{"region_id":"1438980584293831964","region_name":"世茂广场","intensity":0,"avg_speed":23.67,"crowd_value_zs":1.84,"crowd_value_yj":1.412,"area":"红谷滩区","sort":31}},{"type":"Feature","geometry":{"type":"Point","coordinates":[116.270183,28.374228]},"properties":{"region_id":"3790560438296248550","region_name":"进贤汽车北站","intensity":0,"avg_speed":25.03,"crowd_value_zs":0.11,"crowd_value_yj":1.401,"area":"进贤县","sort":32}},{"type":"Feature","geometry":{"type":"Point","coordinates":[115.962184,28.643069]},"properties":{"region_id":"2444303549644818758","region_name":"\t青山湖万达广场","intensity":0,"avg_speed":30.13,"crowd_value_zs":2.99,"crowd_value_yj":1.371,"area":"青山湖区","sort":33}},{"type":"Feature","geometry":{"type":"Point","coordinates":[116.232353,28.370297]},"properties":{"region_id":"7539807051160211469","region_name":"进贤汽车站","intensity":0,"avg_speed":31.32,"crowd_value_zs":0.24,"crowd_value_yj":1.361,"area":"进贤县","sort":34}},{"type":"Feature","geometry":{"type":"Point","coordinates":[115.893501,28.584624]},"properties":{"region_id":"11596189797820831526","region_name":"新力都荟","intensity":0,"avg_speed":25.52,"crowd_value_zs":2.01,"crowd_value_yj":1.34,"area":"南昌县","sort":35}},{"type":"Feature","geometry":{"type":"Point","coordinates":[115.800487,28.68655]},"properties":{"region_id":"9221787277503735814","region_name":"新建新城吾悦广场","intensity":0,"avg_speed":34.97,"crowd_value_zs":4.98,"crowd_value_yj":1.322,"area":"新建区","sort":36}},{"type":"Feature","geometry":{"type":"Point","coordinates":[115.726174,28.825186]},"properties":{"region_id":"13270731237734336330","region_name":"狮子峰","intensity":0,"avg_speed":45.01,"crowd_value_zs":1.57,"crowd_value_yj":1.315,"area":"新建区","sort":37}},{"type":"Feature","geometry":{"type":"Point","coordinates":[115.961805,28.436229]},"properties":{"region_id":"7984170922004908409","region_name":"向塘客运站","intensity":0,"avg_speed":31.98,"crowd_value_zs":0.02,"crowd_value_yj":1.313,"area":"南昌县","sort":38}},{"type":"Feature","geometry":{"type":"Point","coordinates":[115.55268,28.838366]},"properties":{"region_id":"14972009958176741745","region_name":"安义客运站","intensity":0,"avg_speed":33.2,"crowd_value_zs":0.09,"crowd_value_yj":1.306,"area":"安义县","sort":39}},{"type":"Feature","geometry":{"type":"Point","coordinates":[115.971418,28.712075]},"properties":{"region_id":"12386284746115586602","region_name":"新城吾悦广场","intensity":0,"avg_speed":26.77,"crowd_value_zs":6.06,"crowd_value_yj":1.304,"area":"青山湖区","sort":40}},{"type":"Feature","geometry":{"type":"Point","coordinates":[115.810024,28.704958]},"properties":{"region_id":"13391395387099382869","region_name":"\t南昌首创奥特莱斯","intensity":0,"avg_speed":27.59,"crowd_value_zs":0.87,"crowd_value_yj":1.261,"area":"青山湖区","sort":41}},{"type":"Feature","geometry":{"type":"Point","coordinates":[115.790362,28.579873]},"properties":{"region_id":"17242391373189448523","region_name":"万达茂","intensity":0,"avg_speed":34.4,"crowd_value_zs":1.54,"crowd_value_yj":1.26,"area":"红谷滩区","sort":42}},{"type":"Feature","geometry":{"type":"Point","coordinates":[115.792727,28.622555]},"properties":{"region_id":"12018312089474816958","region_name":"南昌西站","intensity":0,"avg_speed":33.32,"crowd_value_zs":23.4,"crowd_value_yj":1.255,"area":"红谷滩区","sort":43}},{"type":"Feature","geometry":{"type":"Point","coordinates":[116.021661,28.674094]},"properties":{"region_id":"10994680608843340411","region_name":"天虹酷加商场","intensity":0,"avg_speed":29.96,"crowd_value_zs":3.58,"crowd_value_yj":1.251,"area":"南昌县","sort":44}},{"type":"Feature","geometry":{"type":"Point","coordinates":[115.790138,28.626123]},"properties":{"region_id":"14162442325588115583","region_name":"南昌长途汽车西站","intensity":0,"avg_speed":34.39,"crowd_value_zs":0.56,"crowd_value_yj":1.248,"area":"红谷滩区","sort":45}},{"type":"Feature","geometry":{"type":"Point","coordinates":[115.786182,28.577661]},"properties":{"region_id":"12621389660118742402","region_name":"南昌万达主题乐园","intensity":0,"avg_speed":33.99,"crowd_value_zs":2.19,"crowd_value_yj":1.23,"area":"红谷滩区","sort":46}},{"type":"Feature","geometry":{"type":"Point","coordinates":[115.958733,28.521606]},"properties":{"region_id":"2085314074016902540","region_name":"原城纪·南昌","intensity":0,"avg_speed":47.75,"crowd_value_zs":0.71,"crowd_value_yj":1.223,"area":"南昌县","sort":47}},{"type":"Feature","geometry":{"type":"Point","coordinates":[115.962047,28.442382]},"properties":{"region_id":"4874821240594926542","region_name":"向塘站","intensity":0,"avg_speed":30.92,"crowd_value_zs":1.61,"crowd_value_yj":1.222,"area":"南昌县","sort":48}},{"type":"Feature","geometry":{"type":"Point","coordinates":[115.803813,28.582111]},"properties":{"region_id":"9922710140783431830","region_name":"九龙湖湿地公园(装修中)","intensity":0,"avg_speed":34.28,"crowd_value_zs":1.66,"crowd_value_yj":1.22,"area":"红谷滩区","sort":49}},{"type":"Feature","geometry":{"type":"Point","coordinates":[115.777515,28.570503]},"properties":{"region_id":"16717959910486585617","region_name":"南昌杉杉奥特莱斯广场","intensity":0,"avg_speed":35.95,"crowd_value_zs":2.24,"crowd_value_yj":1.215,"area":"红谷滩区","sort":50}},{"type":"Feature","geometry":{"type":"Point","coordinates":[116.420345,28.584717]},"properties":{"region_id":"14146974160734306723","region_name":"梅庄镇汽车站","intensity":0,"avg_speed":50.55,"crowd_value_zs":0.01,"crowd_value_yj":1.214,"area":"进贤县","sort":51}},{"type":"Feature","geometry":{"type":"Point","coordinates":[115.674251,28.386279]},"properties":{"region_id":"7474648567689039638","region_name":"松湖汽车站","intensity":0,"avg_speed":44.14,"crowd_value_zs":0.0,"crowd_value_yj":1.194,"area":"新建区","sort":52}},{"type":"Feature","geometry":{"type":"Point","coordinates":[116.061312,28.671378]},"properties":{"region_id":"16204139842669351660","region_name":"瑶湖郊野森林公园","intensity":0,"avg_speed":53.0,"crowd_value_zs":0.8,"crowd_value_yj":1.151,"area":"南昌县","sort":53}},{"type":"Feature","geometry":{"type":"Point","coordinates":[115.86279,28.413437]},"properties":{"region_id":"18217684925234429773","region_name":"冈上客运","intensity":0,"avg_speed":83.45,"crowd_value_zs":0.02,"crowd_value_yj":1.136,"area":"南昌县","sort":54}},{"type":"Feature","geometry":{"type":"Point","coordinates":[115.912881,28.858962]},"properties":{"region_id":"121438336705698979","region_name":"南昌昌北国际机场","intensity":0,"avg_speed":67.16,"crowd_value_zs":9.35,"crowd_value_yj":1.113,"area":"新建区","sort":55}},{"type":"Feature","geometry":{"type":"Point","coordinates":[116.456231,28.2856]},"properties":{"region_id":"8137469172352147933","region_name":"衙前车站","intensity":0,"avg_speed":49.34,"crowd_value_zs":0.03,"crowd_value_yj":1.105,"area":"进贤县","sort":56}},{"type":"Feature","geometry":{"type":"Point","coordinates":[116.234716,28.337751]},"properties":{"region_id":"18162870467322108180","region_name":"进贤南站","intensity":0,"avg_speed":97.19,"crowd_value_zs":1.4,"crowd_value_yj":1.058,"area":"进贤县","sort":57}},{"type":"Feature","geometry":{"type":"Point","coordinates":[116.388052,28.680818]},"properties":{"region_id":"12700217218383008366","region_name":"三里客运站","intensity":0,"avg_speed":82.85,"crowd_value_zs":0.03,"crowd_value_yj":1.05,"area":"进贤县","sort":58}},{"type":"Feature","geometry":{"type":"Point","coordinates":[116.006841,28.36866]},"properties":{"region_id":"9637666311111034247","region_name":"凤凰沟风景区","intensity":0,"avg_speed":86.69,"crowd_value_zs":1.68,"crowd_value_yj":0.962,"area":"南昌县","sort":59}}]}}