{"msg":"获取成功！","end_at":"2024-03-19 10:08:48","data":{"type":"FeatureCollection","features":[{"type":"Feature","geometry":{"type":"Point","coordinates":[121.779066,39.049607]},"properties":{"region_id":"1263766054941753343","region_name":"安盛购物广场(金马路店)","intensity":3,"avg_speed":16.07,"crowd_value_zs":5.24,"crowd_value_yj":2.167,"area":"金州区","sort":1}},{"type":"Feature","geometry":{"type":"Point","coordinates":[121.775632,39.055995]},"properties":{"region_id":"17975497465968721919","region_name":"大连开发区汽车站","intensity":2,"avg_speed":17.69,"crowd_value_zs":0.21,"crowd_value_yj":1.975,"area":"金州区","sort":2}},{"type":"Feature","geometry":{"type":"Point","coordinates":[121.78359,39.059855]},"properties":{"region_id":"14803461364078508093","region_name":"大连开发区万达广场","intensity":2,"avg_speed":19.03,"crowd_value_zs":14.18,"crowd_value_yj":1.847,"area":"金州区","sort":3}},{"type":"Feature","geometry":{"type":"Point","coordinates":[121.492529,38.907009]},"properties":{"region_id":"7150516537399260564","region_name":"大连西郊国家森林公园","intensity":1,"avg_speed":22.84,"crowd_value_zs":14.38,"crowd_value_yj":1.729,"area":"甘井子区","sort":4}},{"type":"Feature","geometry":{"type":"Point","coordinates":[121.962474,39.401881]},"properties":{"region_id":"18000418622861737983","region_name":"普兰店汽车站","intensity":1,"avg_speed":21.06,"crowd_value_zs":0.56,"crowd_value_yj":1.703,"area":"普兰店区","sort":5}},{"type":"Feature","geometry":{"type":"Point","coordinates":[121.960376,39.401459]},"properties":{"region_id":"1224505340638169129","region_name":"普兰店站","intensity":1,"avg_speed":21.71,"crowd_value_zs":1.17,"crowd_value_yj":1.699,"area":"普兰店区","sort":6}},{"type":"Feature","geometry":{"type":"Point","coordinates":[121.609301,38.907027]},"properties":{"region_id":"5119778393207762980","region_name":"恒隆广场","intensity":1,"avg_speed":21.18,"crowd_value_zs":6.68,"crowd_value_yj":1.626,"area":"西岗区","sort":7}},{"type":"Feature","geometry":{"type":"Point","coordinates":[121.26502,38.810484]},"properties":{"region_id":"16853572077697009061","region_name":"大商新玛特(旅顺世达店)","intensity":1,"avg_speed":23.39,"crowd_value_zs":3.07,"crowd_value_yj":1.619,"area":"旅顺口区","sort":8}},{"type":"Feature","geometry":{"type":"Point","coordinates":[121.587479,38.917051]},"properties":{"region_id":"9951690091973939806","region_name":"福佳新天地广场","intensity":1,"avg_speed":22.36,"crowd_value_zs":8.92,"crowd_value_yj":1.617,"area":"沙河口区","sort":9}},{"type":"Feature","geometry":{"type":"Point","coordinates":[121.265642,38.825076]},"properties":{"region_id":"4704505497732885389","region_name":"旅顺日俄监狱旧址博物馆","intensity":1,"avg_speed":24.82,"crowd_value_zs":0.35,"crowd_value_yj":1.614,"area":"旅顺口区","sort":10}},{"type":"Feature","geometry":{"type":"Point","coordinates":[121.586502,38.912651]},"properties":{"region_id":"8461570101976777757","region_name":"大连罗斯福广场","intensity":1,"avg_speed":20.51,"crowd_value_zs":14.94,"crowd_value_yj":1.539,"area":"沙河口区","sort":11}},{"type":"Feature","geometry":{"type":"Point","coordinates":[121.741723,39.029106]},"properties":{"region_id":"7692745478308941885","region_name":"大连港客运站(轮渡站)","intensity":1,"avg_speed":29.0,"crowd_value_zs":0.15,"crowd_value_yj":1.528,"area":"甘井子区","sort":12}},{"type":"Feature","geometry":{"type":"Point","coordinates":[121.588502,38.911002]},"properties":{"region_id":"1045358856770370419","region_name":"锦辉购物广场(黄河路店)","intensity":1,"avg_speed":21.82,"crowd_value_zs":3.99,"crowd_value_yj":1.521,"area":"沙河口区","sort":13}},{"type":"Feature","geometry":{"type":"Point","coordinates":[121.262914,38.816119]},"properties":{"region_id":"18000398531004727295","region_name":"大连旅顺汽车站","intensity":1,"avg_speed":24.72,"crowd_value_zs":0.41,"crowd_value_yj":1.515,"area":"旅顺口区","sort":14}},{"type":"Feature","geometry":{"type":"Point","coordinates":[121.58798,38.896834]},"properties":{"region_id":"2737724462719077246","region_name":"凯德和平广场","intensity":1,"avg_speed":23.16,"crowd_value_zs":5.03,"crowd_value_yj":1.5,"area":"沙河口区","sort":15}},{"type":"Feature","geometry":{"type":"Point","coordinates":[121.148715,38.789326]},"properties":{"region_id":"3187391873316821871","region_name":"世界和平公园","intensity":0,"avg_speed":28.97,"crowd_value_zs":1.1,"crowd_value_yj":1.472,"area":"旅顺口区","sort":16}},{"type":"Feature","geometry":{"type":"Point","coordinates":[121.557616,38.873841]},"properties":{"region_id":"17959522146132688895","region_name":"黑石礁汽车站","intensity":0,"avg_speed":27.58,"crowd_value_zs":1.77,"crowd_value_yj":1.47,"area":"沙河口区","sort":17}},{"type":"Feature","geometry":{"type":"Point","coordinates":[121.726731,39.086972]},"properties":{"region_id":"13975731722188151937","region_name":"金州站","intensity":0,"avg_speed":24.66,"crowd_value_zs":2.97,"crowd_value_yj":1.469,"area":"金州区","sort":18}},{"type":"Feature","geometry":{"type":"Point","coordinates":[121.604495,38.927571]},"properties":{"region_id":"10584821101342731108","region_name":"香炉礁长途客运站","intensity":0,"avg_speed":29.62,"crowd_value_zs":0.3,"crowd_value_yj":1.464,"area":"西岗区","sort":19}},{"type":"Feature","geometry":{"type":"Point","coordinates":[121.586085,38.888482]},"properties":{"region_id":"1893646900574677065","region_name":"大连博物馆","intensity":0,"avg_speed":26.3,"crowd_value_zs":0.92,"crowd_value_yj":1.456,"area":"沙河口区","sort":20}},{"type":"Feature","geometry":{"type":"Point","coordinates":[121.700043,38.899362]},"properties":{"region_id":"3490773855187650579","region_name":"海之韵公园","intensity":0,"avg_speed":32.12,"crowd_value_zs":0.27,"crowd_value_yj":1.456,"area":"中山区","sort":21}},{"type":"Feature","geometry":{"type":"Point","coordinates":[121.971011,39.625435]},"properties":{"region_id":"18000439071201034239","region_name":"瓦房店中心客运站","intensity":0,"avg_speed":29.07,"crowd_value_zs":1.15,"crowd_value_yj":1.435,"area":"瓦房店市","sort":22}},{"type":"Feature","geometry":{"type":"Point","coordinates":[121.650203,38.924206]},"properties":{"region_id":"1263898339934470143","region_name":"大连时代购物广场","intensity":0,"avg_speed":23.28,"crowd_value_zs":3.46,"crowd_value_yj":1.422,"area":"中山区","sort":23}},{"type":"Feature","geometry":{"type":"Point","coordinates":[121.710904,39.024218]},"properties":{"region_id":"18175745354285943126","region_name":"新港客运站","intensity":0,"avg_speed":36.87,"crowd_value_zs":0.33,"crowd_value_yj":1.421,"area":"甘井子区","sort":24}},{"type":"Feature","geometry":{"type":"Point","coordinates":[121.645729,38.92278]},"properties":{"region_id":"1263921588592443391","region_name":"大连友谊商城中山店","intensity":0,"avg_speed":23.67,"crowd_value_zs":2.02,"crowd_value_yj":1.416,"area":"中山区","sort":25}},{"type":"Feature","geometry":{"type":"Point","coordinates":[121.94033,39.401906]},"properties":{"region_id":"14232429629563588167","region_name":"万达广场(普兰店)","intensity":0,"avg_speed":30.0,"crowd_value_zs":3.01,"crowd_value_yj":1.412,"area":"普兰店区","sort":26}},{"type":"Feature","geometry":{"type":"Point","coordinates":[121.607402,39.016779]},"properties":{"region_id":"11861087670472603176","region_name":"大连北站","intensity":0,"avg_speed":35.49,"crowd_value_zs":16.04,"crowd_value_yj":1.408,"area":"甘井子区","sort":27}},{"type":"Feature","geometry":{"type":"Point","coordinates":[121.2555,38.812933]},"properties":{"region_id":"18000398526709759999","region_name":"白玉山景区","intensity":0,"avg_speed":27.6,"crowd_value_zs":0.63,"crowd_value_yj":1.399,"area":"旅顺口区","sort":28}},{"type":"Feature","geometry":{"type":"Point","coordinates":[121.627264,38.977704]},"properties":{"region_id":"17072349248496098969","region_name":"甘井子客运站","intensity":0,"avg_speed":29.46,"crowd_value_zs":0.08,"crowd_value_yj":1.396,"area":"甘井子区","sort":29}},{"type":"Feature","geometry":{"type":"Point","coordinates":[122.977855,39.715763]},"properties":{"region_id":"17627472018251186175","region_name":"庄河岭东汽车站","intensity":0,"avg_speed":33.58,"crowd_value_zs":0.21,"crowd_value_yj":1.385,"area":"庄河市","sort":30}},{"type":"Feature","geometry":{"type":"Point","coordinates":[122.008328,39.62578]},"properties":{"region_id":"16070860144442616792","region_name":"瓦房店站","intensity":0,"avg_speed":26.22,"crowd_value_zs":2.99,"crowd_value_yj":1.381,"area":"瓦房店市","sort":31}},{"type":"Feature","geometry":{"type":"Point","coordinates":[121.637523,38.922189]},"properties":{"region_id":"12722211660762673210","region_name":"佳兆业广场","intensity":0,"avg_speed":25.17,"crowd_value_zs":2.53,"crowd_value_yj":1.376,"area":"中山区","sort":32}},{"type":"Feature","geometry":{"type":"Point","coordinates":[121.610586,38.882982]},"properties":{"region_id":"2092235897329435974","region_name":"大连森林动物园","intensity":0,"avg_speed":32.27,"crowd_value_zs":3.96,"crowd_value_yj":1.375,"area":"西岗区","sort":33}},{"type":"Feature","geometry":{"type":"Point","coordinates":[121.659211,38.909566]},"properties":{"region_id":"846994007801064441","region_name":"大连植物园","intensity":0,"avg_speed":23.07,"crowd_value_zs":1.25,"crowd_value_yj":1.375,"area":"中山区","sort":34}},{"type":"Feature","geometry":{"type":"Point","coordinates":[121.63638,38.916276]},"properties":{"region_id":"7357782233827925908","region_name":"百年城","intensity":0,"avg_speed":23.33,"crowd_value_zs":2.4,"crowd_value_yj":1.371,"area":"中山区","sort":35}},{"type":"Feature","geometry":{"type":"Point","coordinates":[121.634952,38.919866]},"properties":{"region_id":"13477386922489900115","region_name":"胜利购物广场","intensity":0,"avg_speed":24.79,"crowd_value_zs":3.37,"crowd_value_yj":1.364,"area":"中山区","sort":36}},{"type":"Feature","geometry":{"type":"Point","coordinates":[121.632659,38.922331]},"properties":{"region_id":"4004434815719464371","region_name":"大连站","intensity":0,"avg_speed":25.5,"crowd_value_zs":7.17,"crowd_value_yj":1.357,"area":"中山区","sort":37}},{"type":"Feature","geometry":{"type":"Point","coordinates":[122.979923,39.664288]},"properties":{"region_id":"3232499899664427192","region_name":"万达广场(庄河店)","intensity":0,"avg_speed":28.44,"crowd_value_zs":3.52,"crowd_value_yj":1.356,"area":"庄河市","sort":38}},{"type":"Feature","geometry":{"type":"Point","coordinates":[121.540011,38.948718]},"properties":{"region_id":"2158217167084993391","region_name":"万达广场(大连甘井子店)","intensity":0,"avg_speed":26.32,"crowd_value_zs":5.64,"crowd_value_yj":1.355,"area":"甘井子区","sort":39}},{"type":"Feature","geometry":{"type":"Point","coordinates":[121.635337,38.916252]},"properties":{"region_id":"1263800260061298687","region_name":"麦凯乐(大连总店)","intensity":0,"avg_speed":23.75,"crowd_value_zs":3.5,"crowd_value_yj":1.355,"area":"中山区","sort":40}},{"type":"Feature","geometry":{"type":"Point","coordinates":[122.00937,39.626443]},"properties":{"region_id":"18000438276632084479","region_name":"瓦房店汽车站","intensity":0,"avg_speed":26.2,"crowd_value_zs":0.11,"crowd_value_yj":1.355,"area":"瓦房店市","sort":41}},{"type":"Feature","geometry":{"type":"Point","coordinates":[121.71912,39.122589]},"properties":{"region_id":"10401240951859937354","region_name":"金州新区中心汽车站","intensity":0,"avg_speed":30.27,"crowd_value_zs":0.31,"crowd_value_yj":1.352,"area":"金州区","sort":42}},{"type":"Feature","geometry":{"type":"Point","coordinates":[121.634743,38.911686]},"properties":{"region_id":"18373100925823414778","region_name":"劳动公园","intensity":0,"avg_speed":24.25,"crowd_value_zs":2.47,"crowd_value_yj":1.345,"area":"中山区","sort":43}},{"type":"Feature","geometry":{"type":"Point","coordinates":[121.691949,38.924698]},"properties":{"region_id":"13947349186926413340","region_name":"海昌·东方水城","intensity":0,"avg_speed":25.48,"crowd_value_zs":2.83,"crowd_value_yj":1.34,"area":"中山区","sort":44}},{"type":"Feature","geometry":{"type":"Point","coordinates":[121.676161,38.872215]},"properties":{"region_id":"13661409527363670143","region_name":"老虎滩海洋公园","intensity":0,"avg_speed":33.37,"crowd_value_zs":1.97,"crowd_value_yj":1.339,"area":"中山区","sort":45}},{"type":"Feature","geometry":{"type":"Point","coordinates":[121.145639,38.807406]},"properties":{"region_id":"13547908762012827241","region_name":"旅顺港客运站","intensity":0,"avg_speed":33.07,"crowd_value_zs":0.31,"crowd_value_yj":1.338,"area":"旅顺口区","sort":46}},{"type":"Feature","geometry":{"type":"Point","coordinates":[121.674801,38.923392]},"properties":{"region_id":"15809131524695135599","region_name":"大连凯丹广场","intensity":0,"avg_speed":24.48,"crowd_value_zs":4.9,"crowd_value_yj":1.335,"area":"中山区","sort":47}},{"type":"Feature","geometry":{"type":"Point","coordinates":[121.680748,38.929273]},"properties":{"region_id":"4920336357582684476","region_name":"东港游艇码头","intensity":0,"avg_speed":25.0,"crowd_value_zs":0.2,"crowd_value_yj":1.317,"area":"中山区","sort":48}},{"type":"Feature","geometry":{"type":"Point","coordinates":[121.533736,38.86219]},"properties":{"region_id":"4851646554436120325","region_name":"大连高新万达广场","intensity":0,"avg_speed":26.95,"crowd_value_zs":10.41,"crowd_value_yj":1.316,"area":"甘井子区","sort":49}},{"type":"Feature","geometry":{"type":"Point","coordinates":[121.543168,38.963144]},"properties":{"region_id":"18093866270565387275","region_name":"大连周水子国际机场","intensity":0,"avg_speed":27.18,"crowd_value_zs":17.88,"crowd_value_yj":1.307,"area":"甘井子区","sort":50}},{"type":"Feature","geometry":{"type":"Point","coordinates":[121.629125,38.918162]},"properties":{"region_id":"13675230318035650379","region_name":"柏威年购物中心","intensity":0,"avg_speed":26.04,"crowd_value_zs":13.9,"crowd_value_yj":1.293,"area":"中山区","sort":51}},{"type":"Feature","geometry":{"type":"Point","coordinates":[121.570687,38.878161]},"properties":{"region_id":"17785354852146026997","region_name":"圣亚海洋世界","intensity":0,"avg_speed":34.73,"crowd_value_zs":2.85,"crowd_value_yj":1.285,"area":"沙河口区","sort":52}},{"type":"Feature","geometry":{"type":"Point","coordinates":[121.567924,38.877821]},"properties":{"region_id":"17671208889997066239","region_name":"星海公园","intensity":0,"avg_speed":32.32,"crowd_value_zs":1.71,"crowd_value_yj":1.268,"area":"沙河口区","sort":53}},{"type":"Feature","geometry":{"type":"Point","coordinates":[122.00363,39.081669]},"properties":{"region_id":"6107868824024589136","region_name":"金石滩主题公园","intensity":0,"avg_speed":36.84,"crowd_value_zs":0.27,"crowd_value_yj":1.247,"area":"金州区","sort":54}},{"type":"Feature","geometry":{"type":"Point","coordinates":[121.561589,38.870386]},"properties":{"region_id":"10103747146424317717","region_name":"大连自然博物馆","intensity":0,"avg_speed":35.52,"crowd_value_zs":0.34,"crowd_value_yj":1.232,"area":"沙河口区","sort":55}},{"type":"Feature","geometry":{"type":"Point","coordinates":[121.994152,39.095863]},"properties":{"region_id":"18000382467827040255","region_name":"金石滩国家旅游度假区","intensity":0,"avg_speed":49.28,"crowd_value_zs":96.09,"crowd_value_yj":1.174,"area":"金州区","sort":56}},{"type":"Feature","geometry":{"type":"Point","coordinates":[121.718885,38.885171]},"properties":{"region_id":"12108081620081026663","region_name":"棒棰岛","intensity":0,"avg_speed":38.21,"crowd_value_zs":0.0,"crowd_value_yj":1.154,"area":"中山区","sort":57}},{"type":"Feature","geometry":{"type":"Point","coordinates":[121.939448,39.283738]},"properties":{"region_id":"18000382618150895615","region_name":"关向应纪念馆","intensity":0,"avg_speed":55.49,"crowd_value_zs":0.15,"crowd_value_yj":1.123,"area":"金州区","sort":58}},{"type":"Feature","geometry":{"type":"Point","coordinates":[121.917515,39.30282]},"properties":{"region_id":"1731179981877544790","region_name":"紫云花汐景区","intensity":0,"avg_speed":52.03,"crowd_value_zs":0.06,"crowd_value_yj":1.08,"area":"金州区","sort":59}},{"type":"Feature","geometry":{"type":"Point","coordinates":[121.35854,38.895787]},"properties":{"region_id":"18000398243241918463","region_name":"英歌石植物园","intensity":0,"avg_speed":47.96,"crowd_value_zs":0.56,"crowd_value_yj":1.049,"area":"旅顺口区","sort":60}}]}}