{"msg":"获取成功！","end_at":"2024-03-20 01:21:40","data":{"type":"FeatureCollection","features":[{"type":"Feature","geometry":{"type":"Point","coordinates":[120.701266,33.246525]},"properties":{"region_id":"4723940464497513054","region_name":"大丰港动物园","intensity":1,"avg_speed":42.69,"crowd_value_zs":0.1,"crowd_value_yj":1.554,"area":"大丰区","sort":1}},{"type":"Feature","geometry":{"type":"Point","coordinates":[120.221362,33.76061]},"properties":{"region_id":"17660702390673735679","region_name":"射阳汽车客运站","intensity":0,"avg_speed":30.2,"crowd_value_zs":0.99,"crowd_value_yj":1.424,"area":"射阳县","sort":2}},{"type":"Feature","geometry":{"type":"Point","coordinates":[119.643827,33.571867]},"properties":{"region_id":"14898167578224865288","region_name":"阜宁南站","intensity":0,"avg_speed":44.83,"crowd_value_zs":0.85,"crowd_value_yj":1.367,"area":"阜宁县","sort":3}},{"type":"Feature","geometry":{"type":"Point","coordinates":[120.341731,32.869248]},"properties":{"region_id":"7638910830425598241","region_name":"东台汽车客运站","intensity":0,"avg_speed":37.35,"crowd_value_zs":0.86,"crowd_value_yj":1.329,"area":"东台市","sort":4}},{"type":"Feature","geometry":{"type":"Point","coordinates":[120.343766,32.87445]},"properties":{"region_id":"6383819376630502324","region_name":"东台站","intensity":0,"avg_speed":39.18,"crowd_value_zs":2.48,"crowd_value_yj":1.328,"area":"东台市","sort":5}},{"type":"Feature","geometry":{"type":"Point","coordinates":[120.316602,32.846738]},"properties":{"region_id":"1259516678723600383","region_name":"百盛(鼓楼路步行街)","intensity":0,"avg_speed":28.45,"crowd_value_zs":0.38,"crowd_value_yj":1.318,"area":"东台市","sort":6}},{"type":"Feature","geometry":{"type":"Point","coordinates":[120.019582,33.682359]},"properties":{"region_id":"7538439542649145230","region_name":"射阳站","intensity":0,"avg_speed":50.69,"crowd_value_zs":0.44,"crowd_value_yj":1.317,"area":"射阳县","sort":7}},{"type":"Feature","geometry":{"type":"Point","coordinates":[119.79427,33.470842]},"properties":{"region_id":"14906633122783942949","region_name":"恒隆广场","intensity":0,"avg_speed":29.28,"crowd_value_zs":0.41,"crowd_value_yj":1.309,"area":"建湖县","sort":8}},{"type":"Feature","geometry":{"type":"Point","coordinates":[119.821308,33.465573]},"properties":{"region_id":"5479715401673746180","region_name":"万彩国际购物中心","intensity":0,"avg_speed":33.24,"crowd_value_zs":0.69,"crowd_value_yj":1.296,"area":"建湖县","sort":9}},{"type":"Feature","geometry":{"type":"Point","coordinates":[120.3013,33.143551]},"properties":{"region_id":"6214415835356561382","region_name":"刘庄汽车站","intensity":0,"avg_speed":48.0,"crowd_value_zs":0.04,"crowd_value_yj":1.293,"area":"大丰区","sort":10}},{"type":"Feature","geometry":{"type":"Point","coordinates":[120.319003,32.862174]},"properties":{"region_id":"5016782569134348183","region_name":"德润广场","intensity":0,"avg_speed":29.51,"crowd_value_zs":1.31,"crowd_value_yj":1.279,"area":"东台市","sort":11}},{"type":"Feature","geometry":{"type":"Point","coordinates":[119.776413,33.478919]},"properties":{"region_id":"17626463169088061439","region_name":"建湖汽车客运站","intensity":0,"avg_speed":33.59,"crowd_value_zs":0.38,"crowd_value_yj":1.261,"area":"建湖县","sort":12}},{"type":"Feature","geometry":{"type":"Point","coordinates":[120.305314,33.769678]},"properties":{"region_id":"15137257696536381319","region_name":"射阳吾悦广场","intensity":0,"avg_speed":32.03,"crowd_value_zs":2.81,"crowd_value_yj":1.256,"area":"射阳县","sort":13}},{"type":"Feature","geometry":{"type":"Point","coordinates":[120.129611,33.380884]},"properties":{"region_id":"1260255022256488447","region_name":"金鹰国际购物中心(盐城店)","intensity":0,"avg_speed":25.48,"crowd_value_zs":1.73,"crowd_value_yj":1.254,"area":"亭湖区","sort":14}},{"type":"Feature","geometry":{"type":"Point","coordinates":[120.473724,33.157741]},"properties":{"region_id":"2574438473660460223","region_name":"星星乐园","intensity":0,"avg_speed":46.22,"crowd_value_zs":0.03,"crowd_value_yj":1.252,"area":"大丰区","sort":15}},{"type":"Feature","geometry":{"type":"Point","coordinates":[119.605647,33.596303]},"properties":{"region_id":"18002404890617315327","region_name":"阜宁益林汽车站","intensity":0,"avg_speed":39.55,"crowd_value_zs":0.07,"crowd_value_yj":1.251,"area":"阜宁县","sort":16}},{"type":"Feature","geometry":{"type":"Point","coordinates":[120.461928,33.200158]},"properties":{"region_id":"17660704465142939647","region_name":"盐阜人民商场大丰购物中心","intensity":0,"avg_speed":27.17,"crowd_value_zs":0.06,"crowd_value_yj":1.251,"area":"大丰区","sort":17}},{"type":"Feature","geometry":{"type":"Point","coordinates":[120.415647,33.18736]},"properties":{"region_id":"17834180848518168575","region_name":"大丰汽车客运站","intensity":0,"avg_speed":43.01,"crowd_value_zs":0.72,"crowd_value_yj":1.246,"area":"大丰区","sort":18}},{"type":"Feature","geometry":{"type":"Point","coordinates":[120.131375,33.382354]},"properties":{"region_id":"1262701568772276223","region_name":"盐城商业大厦","intensity":0,"avg_speed":25.24,"crowd_value_zs":0.32,"crowd_value_yj":1.245,"area":"亭湖区","sort":19}},{"type":"Feature","geometry":{"type":"Point","coordinates":[120.407096,32.730775]},"properties":{"region_id":"3325893948793836197","region_name":"安丰客运站","intensity":0,"avg_speed":45.99,"crowd_value_zs":0.02,"crowd_value_yj":1.243,"area":"东台市","sort":20}},{"type":"Feature","geometry":{"type":"Point","coordinates":[120.10535,33.601754]},"properties":{"region_id":"11582241804910202099","region_name":"胜利桥车站","intensity":0,"avg_speed":51.02,"crowd_value_zs":0.03,"crowd_value_yj":1.238,"area":"射阳县","sort":21}},{"type":"Feature","geometry":{"type":"Point","coordinates":[120.135573,33.383207]},"properties":{"region_id":"1262696814243479551","region_name":"盐阜人民商场","intensity":0,"avg_speed":24.86,"crowd_value_zs":0.43,"crowd_value_yj":1.225,"area":"亭湖区","sort":22}},{"type":"Feature","geometry":{"type":"Point","coordinates":[120.139952,33.381012]},"properties":{"region_id":"11236358078552449569","region_name":"五洲国际广场","intensity":0,"avg_speed":25.97,"crowd_value_zs":3.03,"crowd_value_yj":1.213,"area":"亭湖区","sort":23}},{"type":"Feature","geometry":{"type":"Point","coordinates":[119.825609,33.746823]},"properties":{"region_id":"5633157361435696685","region_name":"阜宁汽车总站(射阜线)","intensity":0,"avg_speed":41.39,"crowd_value_zs":0.43,"crowd_value_yj":1.211,"area":"阜宁县","sort":24}},{"type":"Feature","geometry":{"type":"Point","coordinates":[120.13961,33.382541]},"properties":{"region_id":"11892844433856356683","region_name":"中茵·海华广场","intensity":0,"avg_speed":25.75,"crowd_value_zs":2.54,"crowd_value_yj":1.211,"area":"亭湖区","sort":25}},{"type":"Feature","geometry":{"type":"Point","coordinates":[120.288644,32.837228]},"properties":{"region_id":"4939159588947737179","region_name":"东台西溪游览区","intensity":0,"avg_speed":42.24,"crowd_value_zs":1.35,"crowd_value_yj":1.206,"area":"东台市","sort":26}},{"type":"Feature","geometry":{"type":"Point","coordinates":[120.457772,33.183489]},"properties":{"region_id":"18002389226871586815","region_name":"大丰汽车南站","intensity":0,"avg_speed":32.1,"crowd_value_zs":0.05,"crowd_value_yj":1.203,"area":"大丰区","sort":27}},{"type":"Feature","geometry":{"type":"Point","coordinates":[119.938517,33.799296]},"properties":{"region_id":"8141475752474852309","region_name":"阜宁东站","intensity":0,"avg_speed":45.97,"crowd_value_zs":0.56,"crowd_value_yj":1.189,"area":"阜宁县","sort":28}},{"type":"Feature","geometry":{"type":"Point","coordinates":[120.30264,32.944424]},"properties":{"region_id":"18002389905476419583","region_name":"草堰汽车站","intensity":0,"avg_speed":47.23,"crowd_value_zs":0.02,"crowd_value_yj":1.188,"area":"大丰区","sort":29}},{"type":"Feature","geometry":{"type":"Point","coordinates":[119.828319,34.004308]},"properties":{"region_id":"12034561416589281866","region_name":"名尚国际购物广场","intensity":0,"avg_speed":30.07,"crowd_value_zs":0.64,"crowd_value_yj":1.187,"area":"滨海县","sort":30}},{"type":"Feature","geometry":{"type":"Point","coordinates":[120.243849,33.986107]},"properties":{"region_id":"10648895699765425039","region_name":"八大家汽车站","intensity":0,"avg_speed":45.42,"crowd_value_zs":0.02,"crowd_value_yj":1.178,"area":"射阳县","sort":31}},{"type":"Feature","geometry":{"type":"Point","coordinates":[120.172714,33.33987]},"properties":{"region_id":"17853753116052648436","region_name":"金鹰奥莱城","intensity":0,"avg_speed":29.68,"crowd_value_zs":0.6,"crowd_value_yj":1.177,"area":"盐都区","sort":32}},{"type":"Feature","geometry":{"type":"Point","coordinates":[120.250399,34.084893]},"properties":{"region_id":"6105655453534317336","region_name":"六垛汽车站","intensity":0,"avg_speed":47.64,"crowd_value_zs":0.0,"crowd_value_yj":1.176,"area":"射阳县","sort":33}},{"type":"Feature","geometry":{"type":"Point","coordinates":[119.847798,34.02347]},"properties":{"region_id":"3189977028162179365","region_name":"滨海汽车站","intensity":0,"avg_speed":36.18,"crowd_value_zs":0.35,"crowd_value_yj":1.175,"area":"滨海县","sort":34}},{"type":"Feature","geometry":{"type":"Point","coordinates":[119.822778,33.175358]},"properties":{"region_id":"18002314034879135743","region_name":"大纵湖旅游度假区","intensity":0,"avg_speed":49.04,"crowd_value_zs":1.0,"crowd_value_yj":1.172,"area":"盐都区","sort":35}},{"type":"Feature","geometry":{"type":"Point","coordinates":[120.163692,33.339817]},"properties":{"region_id":"5641911815456251650","region_name":"金鹰聚龙湖购物中心","intensity":0,"avg_speed":31.09,"crowd_value_zs":2.23,"crowd_value_yj":1.172,"area":"盐都区","sort":36}},{"type":"Feature","geometry":{"type":"Point","coordinates":[120.171965,33.357795]},"properties":{"region_id":"17660691893773664255","region_name":"盐城市海盐博物馆","intensity":0,"avg_speed":33.12,"crowd_value_zs":0.14,"crowd_value_yj":1.166,"area":"亭湖区","sort":37}},{"type":"Feature","geometry":{"type":"Point","coordinates":[119.859777,34.059548]},"properties":{"region_id":"12191651058534773916","region_name":"滨海港站","intensity":0,"avg_speed":78.45,"crowd_value_zs":1.47,"crowd_value_yj":1.164,"area":"滨海县","sort":38}},{"type":"Feature","geometry":{"type":"Point","coordinates":[120.837494,32.872132]},"properties":{"region_id":"18002423539365314559","region_name":"黄海国家森林公园","intensity":0,"avg_speed":52.76,"crowd_value_zs":1.2,"crowd_value_yj":1.164,"area":"东台市","sort":39}},{"type":"Feature","geometry":{"type":"Point","coordinates":[120.19262,33.436245]},"properties":{"region_id":"13618818882407349596","region_name":"盐城大洋湾生态旅游景区","intensity":0,"avg_speed":49.23,"crowd_value_zs":2.44,"crowd_value_yj":1.163,"area":"亭湖区","sort":40}},{"type":"Feature","geometry":{"type":"Point","coordinates":[120.113057,33.431896]},"properties":{"region_id":"9681903334287010699","region_name":"盐城汽车客运北站","intensity":0,"avg_speed":45.82,"crowd_value_zs":0.21,"crowd_value_yj":1.153,"area":"亭湖区","sort":41}},{"type":"Feature","geometry":{"type":"Point","coordinates":[120.434217,33.266978]},"properties":{"region_id":"15189658691864870954","region_name":"荷兰花海","intensity":0,"avg_speed":44.64,"crowd_value_zs":1.26,"crowd_value_yj":1.153,"area":"大丰区","sort":42}},{"type":"Feature","geometry":{"type":"Point","coordinates":[120.424163,33.227202]},"properties":{"region_id":"2327367246417131996","region_name":"梅花湾","intensity":0,"avg_speed":42.5,"crowd_value_zs":0.39,"crowd_value_yj":1.148,"area":"大丰区","sort":43}},{"type":"Feature","geometry":{"type":"Point","coordinates":[120.161194,33.390302]},"properties":{"region_id":"18002329110214344703","region_name":"新四军纪念馆","intensity":0,"avg_speed":43.63,"crowd_value_zs":0.71,"crowd_value_yj":1.138,"area":"亭湖区","sort":44}},{"type":"Feature","geometry":{"type":"Point","coordinates":[120.186653,33.418846]},"properties":{"region_id":"1987974805605936666","region_name":"盐城长乐水世界(游乐区)","intensity":0,"avg_speed":54.4,"crowd_value_zs":0.07,"crowd_value_yj":1.137,"area":"亭湖区","sort":45}},{"type":"Feature","geometry":{"type":"Point","coordinates":[119.802803,33.718727]},"properties":{"region_id":"6252686351392987857","region_name":"金沙湖旅游区","intensity":0,"avg_speed":50.89,"crowd_value_zs":0.6,"crowd_value_yj":1.131,"area":"阜宁县","sort":46}},{"type":"Feature","geometry":{"type":"Point","coordinates":[120.15575,33.359671]},"properties":{"region_id":"5363599552063444007","region_name":"盐城宝龙城市广场-南区","intensity":0,"avg_speed":37.76,"crowd_value_zs":0.71,"crowd_value_yj":1.125,"area":"亭湖区","sort":47}},{"type":"Feature","geometry":{"type":"Point","coordinates":[120.23738,33.387783]},"properties":{"region_id":"9025351561757945874","region_name":"城东宝龙广场","intensity":0,"avg_speed":41.03,"crowd_value_zs":1.92,"crowd_value_yj":1.123,"area":"亭湖区","sort":48}},{"type":"Feature","geometry":{"type":"Point","coordinates":[120.153737,33.360561]},"properties":{"region_id":"7423431539564863140","region_name":"宝龙城市广场购物中心","intensity":0,"avg_speed":39.51,"crowd_value_zs":6.68,"crowd_value_yj":1.12,"area":"亭湖区","sort":49}},{"type":"Feature","geometry":{"type":"Point","coordinates":[120.17959,33.32185]},"properties":{"region_id":"8665962763339345871","region_name":"盐城中南城购物中心","intensity":0,"avg_speed":33.89,"crowd_value_zs":3.14,"crowd_value_yj":1.118,"area":"盐都区","sort":50}},{"type":"Feature","geometry":{"type":"Point","coordinates":[120.15823,33.364231]},"properties":{"region_id":"17958999895289364479","region_name":"盐渎公园","intensity":0,"avg_speed":41.01,"crowd_value_zs":2.39,"crowd_value_yj":1.114,"area":"亭湖区","sort":51}},{"type":"Feature","geometry":{"type":"Point","coordinates":[120.190335,33.405737]},"properties":{"region_id":"9322517248465581627","region_name":"峰尚广场","intensity":0,"avg_speed":44.32,"crowd_value_zs":0.99,"crowd_value_yj":1.114,"area":"亭湖区","sort":52}},{"type":"Feature","geometry":{"type":"Point","coordinates":[120.815417,32.983902]},"properties":{"region_id":"18002389875411648511","region_name":"中华麋鹿园","intensity":0,"avg_speed":65.42,"crowd_value_zs":0.37,"crowd_value_yj":1.086,"area":"大丰区","sort":53}},{"type":"Feature","geometry":{"type":"Point","coordinates":[120.126964,33.359393]},"properties":{"region_id":"3173204446311483222","region_name":"盐城万达广场","intensity":0,"avg_speed":49.94,"crowd_value_zs":1.53,"crowd_value_yj":1.072,"area":"盐都区","sort":54}},{"type":"Feature","geometry":{"type":"Point","coordinates":[120.387394,32.972365]},"properties":{"region_id":"13273884483332183748","region_name":"梦幻迷宫","intensity":0,"avg_speed":80.65,"crowd_value_zs":0.16,"crowd_value_yj":0.957,"area":"大丰区","sort":55}},{"type":"Feature","geometry":{"type":"Point","coordinates":[119.61262,33.40458]},"properties":{"region_id":"18002373481521479679","region_name":"九龙口风景区","intensity":0,"avg_speed":76.96,"crowd_value_zs":0.44,"crowd_value_yj":0.945,"area":"建湖县","sort":56}},{"type":"Feature","geometry":{"type":"Point","coordinates":[120.600376,33.250791]},"properties":{"region_id":"18002389055072894975","region_name":"上海知青纪念馆","intensity":0,"avg_speed":76.59,"crowd_value_zs":0.07,"crowd_value_yj":0.937,"area":"大丰区","sort":57}}]}}