{"msg":"获取成功！","end_at":"2024-03-20 01:20:23","data":{"type":"FeatureCollection","features":[{"type":"Feature","geometry":{"type":"Point","coordinates":[120.378991,36.088311]},"properties":{"region_id":"1263864121930022911","region_name":"万达广场(青岛CBD店)","intensity":1,"avg_speed":26.48,"crowd_value_zs":5.38,"crowd_value_yj":1.575,"area":"市北区","sort":1}},{"type":"Feature","geometry":{"type":"Point","coordinates":[120.379473,36.090556]},"properties":{"region_id":"6467058665858854581","region_name":"卓越大融城","intensity":1,"avg_speed":26.43,"crowd_value_zs":11.08,"crowd_value_yj":1.575,"area":"市北区","sort":2}},{"type":"Feature","geometry":{"type":"Point","coordinates":[120.387752,36.096791]},"properties":{"region_id":"1259711378181062655","region_name":"新业广场","intensity":0,"avg_speed":27.03,"crowd_value_zs":6.02,"crowd_value_yj":1.464,"area":"市北区","sort":3}},{"type":"Feature","geometry":{"type":"Point","coordinates":[120.361595,36.105704]},"properties":{"region_id":"17624572129310968497","region_name":"悦荟","intensity":0,"avg_speed":31.73,"crowd_value_zs":2.25,"crowd_value_yj":1.335,"area":"市北区","sort":4}},{"type":"Feature","geometry":{"type":"Point","coordinates":[120.377777,36.066989]},"properties":{"region_id":"8730146340538061670","region_name":"青岛华润万象城","intensity":0,"avg_speed":25.65,"crowd_value_zs":10.82,"crowd_value_yj":1.321,"area":"市南区","sort":5}},{"type":"Feature","geometry":{"type":"Point","coordinates":[120.462949,36.093482]},"properties":{"region_id":"1718642048200091399","region_name":"利群金鼎广场","intensity":0,"avg_speed":26.79,"crowd_value_zs":3.26,"crowd_value_yj":1.321,"area":"崂山区","sort":6}},{"type":"Feature","geometry":{"type":"Point","coordinates":[120.692105,36.379664]},"properties":{"region_id":"11675403970882881590","region_name":"滨海公园","intensity":0,"avg_speed":38.85,"crowd_value_zs":0.34,"crowd_value_yj":1.319,"area":"即墨区","sort":7}},{"type":"Feature","geometry":{"type":"Point","coordinates":[120.469655,36.103967]},"properties":{"region_id":"11815300608648170027","region_name":"丽达购物中心","intensity":0,"avg_speed":25.89,"crowd_value_zs":4.65,"crowd_value_yj":1.309,"area":"崂山区","sort":8}},{"type":"Feature","geometry":{"type":"Point","coordinates":[120.464292,36.095777]},"properties":{"region_id":"15380187080463964796","region_name":"金狮广场","intensity":0,"avg_speed":27.39,"crowd_value_zs":3.99,"crowd_value_yj":1.303,"area":"崂山区","sort":9}},{"type":"Feature","geometry":{"type":"Point","coordinates":[120.468649,36.090428]},"properties":{"region_id":"8067613737838627661","region_name":"石老人海水浴场","intensity":0,"avg_speed":27.73,"crowd_value_zs":1.85,"crowd_value_yj":1.293,"area":"崂山区","sort":10}},{"type":"Feature","geometry":{"type":"Point","coordinates":[120.336464,36.058822]},"properties":{"region_id":"17997064274878398463","region_name":"小鱼山景区","intensity":0,"avg_speed":22.98,"crowd_value_zs":0.09,"crowd_value_yj":1.283,"area":"市南区","sort":11}},{"type":"Feature","geometry":{"type":"Point","coordinates":[120.395738,36.114062]},"properties":{"region_id":"1230343343512835833","region_name":"凯德MALL(新都心店)","intensity":0,"avg_speed":26.06,"crowd_value_zs":11.18,"crowd_value_yj":1.28,"area":"市北区","sort":12}},{"type":"Feature","geometry":{"type":"Point","coordinates":[120.335883,36.057013]},"properties":{"region_id":"17863895495730966301","region_name":"青岛海底世界","intensity":0,"avg_speed":23.51,"crowd_value_zs":1.57,"crowd_value_yj":1.277,"area":"市南区","sort":13}},{"type":"Feature","geometry":{"type":"Point","coordinates":[120.332615,36.054756]},"properties":{"region_id":"4026320158006210714","region_name":"鲁迅公园","intensity":0,"avg_speed":23.43,"crowd_value_zs":1.8,"crowd_value_yj":1.274,"area":"市南区","sort":14}},{"type":"Feature","geometry":{"type":"Point","coordinates":[120.328771,36.061463]},"properties":{"region_id":"17997064150324346879","region_name":"青岛德国监狱旧址博物馆","intensity":0,"avg_speed":25.25,"crowd_value_zs":0.26,"crowd_value_yj":1.263,"area":"市南区","sort":15}},{"type":"Feature","geometry":{"type":"Point","coordinates":[120.341234,36.057178]},"properties":{"region_id":"1263207786502684671","region_name":"第一海水浴场","intensity":0,"avg_speed":24.11,"crowd_value_zs":0.69,"crowd_value_yj":1.256,"area":"市南区","sort":16}},{"type":"Feature","geometry":{"type":"Point","coordinates":[120.66612,36.236688]},"properties":{"region_id":"8394769481986474104","region_name":"仰口游览区","intensity":0,"avg_speed":47.77,"crowd_value_zs":0.21,"crowd_value_yj":1.256,"area":"崂山区","sort":17}},{"type":"Feature","geometry":{"type":"Point","coordinates":[120.47315,36.101581]},"properties":{"region_id":"17665454565828329471","region_name":"青岛市博物馆","intensity":0,"avg_speed":26.13,"crowd_value_zs":0.58,"crowd_value_yj":1.254,"area":"崂山区","sort":18}},{"type":"Feature","geometry":{"type":"Point","coordinates":[120.414557,36.111206]},"properties":{"region_id":"14909241402763724905","region_name":"永旺广场(合肥路店)","intensity":0,"avg_speed":32.31,"crowd_value_zs":2.28,"crowd_value_yj":1.251,"area":"市北区","sort":19}},{"type":"Feature","geometry":{"type":"Point","coordinates":[120.468081,36.388254]},"properties":{"region_id":"2559975026161059707","region_name":"即墨古城","intensity":0,"avg_speed":28.63,"crowd_value_zs":2.87,"crowd_value_yj":1.248,"area":"即墨区","sort":20}},{"type":"Feature","geometry":{"type":"Point","coordinates":[120.027411,36.27156]},"properties":{"region_id":"7243328792594761403","region_name":"胶州宝龙城市广场","intensity":0,"avg_speed":28.3,"crowd_value_zs":6.99,"crowd_value_yj":1.238,"area":"胶州市","sort":21}},{"type":"Feature","geometry":{"type":"Point","coordinates":[120.331508,36.06654]},"properties":{"region_id":"1264398274127724543","region_name":"信号山公园","intensity":0,"avg_speed":31.54,"crowd_value_zs":0.51,"crowd_value_yj":1.236,"area":"市南区","sort":22}},{"type":"Feature","geometry":{"type":"Point","coordinates":[120.324166,36.053271]},"properties":{"region_id":"17997064094489772031","region_name":"小青岛景区","intensity":0,"avg_speed":24.07,"crowd_value_zs":0.14,"crowd_value_yj":1.234,"area":"市南区","sort":23}},{"type":"Feature","geometry":{"type":"Point","coordinates":[120.455006,36.391724]},"properties":{"region_id":"11472149144865639023","region_name":"宝龙生活广场","intensity":0,"avg_speed":27.74,"crowd_value_zs":2.74,"crowd_value_yj":1.234,"area":"即墨区","sort":24}},{"type":"Feature","geometry":{"type":"Point","coordinates":[120.355288,36.082452]},"properties":{"region_id":"15911656481530361833","region_name":"万达广场(台东店)","intensity":0,"avg_speed":28.38,"crowd_value_zs":10.48,"crowd_value_yj":1.23,"area":"市北区","sort":25}},{"type":"Feature","geometry":{"type":"Point","coordinates":[119.907549,35.649072]},"properties":{"region_id":"15673396368304513820","region_name":"琅琊台风景名胜区","intensity":0,"avg_speed":42.36,"crowd_value_zs":0.27,"crowd_value_yj":1.226,"area":"黄岛区","sort":26}},{"type":"Feature","geometry":{"type":"Point","coordinates":[120.055596,35.87356]},"properties":{"region_id":"9675216693179383476","region_name":"城市阳台景区","intensity":0,"avg_speed":31.04,"crowd_value_zs":1.6,"crowd_value_yj":1.224,"area":"黄岛区","sort":27}},{"type":"Feature","geometry":{"type":"Point","coordinates":[120.319203,36.061759]},"properties":{"region_id":"16466562069464043682","region_name":"栈桥景区","intensity":0,"avg_speed":30.14,"crowd_value_zs":1.54,"crowd_value_yj":1.223,"area":"市南区","sort":28}},{"type":"Feature","geometry":{"type":"Point","coordinates":[120.619214,36.184467]},"properties":{"region_id":"17962473372780593151","region_name":"崂山风景区","intensity":0,"avg_speed":38.17,"crowd_value_zs":30.44,"crowd_value_yj":1.222,"area":"崂山区","sort":29}},{"type":"Feature","geometry":{"type":"Point","coordinates":[120.507868,36.097631]},"properties":{"region_id":"14087554891633210754","region_name":"石老人观光园","intensity":0,"avg_speed":34.59,"crowd_value_zs":0.29,"crowd_value_yj":1.209,"area":"崂山区","sort":30}},{"type":"Feature","geometry":{"type":"Point","coordinates":[119.984607,35.786115]},"properties":{"region_id":"12493680485689295900","region_name":"大珠山风景区","intensity":0,"avg_speed":40.08,"crowd_value_zs":1.18,"crowd_value_yj":1.2,"area":"黄岛区","sort":31}},{"type":"Feature","geometry":{"type":"Point","coordinates":[120.282758,36.209051]},"properties":{"region_id":"17142994278656447279","region_name":"青岛方特梦幻王国","intensity":0,"avg_speed":35.88,"crowd_value_zs":1.05,"crowd_value_yj":1.2,"area":"城阳区","sort":32}},{"type":"Feature","geometry":{"type":"Point","coordinates":[120.349566,36.069756]},"properties":{"region_id":"17996958287970435071","region_name":"青岛动物园","intensity":0,"avg_speed":32.37,"crowd_value_zs":1.54,"crowd_value_yj":1.2,"area":"市南区","sort":33}},{"type":"Feature","geometry":{"type":"Point","coordinates":[120.420773,36.157031]},"properties":{"region_id":"14438746391651547076","region_name":"奥克斯广场","intensity":0,"avg_speed":30.82,"crowd_value_zs":3.96,"crowd_value_yj":1.195,"area":"李沧区","sort":34}},{"type":"Feature","geometry":{"type":"Point","coordinates":[120.418494,36.148774]},"properties":{"region_id":"6010181111375281166","region_name":"李沧宝龙城市广场","intensity":0,"avg_speed":35.79,"crowd_value_zs":2.49,"crowd_value_yj":1.183,"area":"李沧区","sort":35}},{"type":"Feature","geometry":{"type":"Point","coordinates":[120.185925,35.952058]},"properties":{"region_id":"1264352038804783103","region_name":"家佳源(长江中路店)","intensity":0,"avg_speed":27.66,"crowd_value_zs":2.97,"crowd_value_yj":1.181,"area":"黄岛区","sort":36}},{"type":"Feature","geometry":{"type":"Point","coordinates":[120.391677,36.066482]},"properties":{"region_id":"11942121887396755083","region_name":"银座INZONE(香港中路店)","intensity":0,"avg_speed":26.1,"crowd_value_zs":6.66,"crowd_value_yj":1.17,"area":"市南区","sort":37}},{"type":"Feature","geometry":{"type":"Point","coordinates":[120.164255,35.928616]},"properties":{"region_id":"8470683765691327470","region_name":"青岛新城吾悦广场","intensity":0,"avg_speed":31.29,"crowd_value_zs":3.71,"crowd_value_yj":1.168,"area":"黄岛区","sort":38}},{"type":"Feature","geometry":{"type":"Point","coordinates":[120.434414,36.167252]},"properties":{"region_id":"8638171307595832664","region_name":"万达广场(青岛李沧店)","intensity":0,"avg_speed":41.78,"crowd_value_zs":4.08,"crowd_value_yj":1.168,"area":"李沧区","sort":39}},{"type":"Feature","geometry":{"type":"Point","coordinates":[120.165049,35.931267]},"properties":{"region_id":"1802256017374939639","region_name":"永旺梦乐城","intensity":0,"avg_speed":32.93,"crowd_value_zs":3.23,"crowd_value_yj":1.167,"area":"黄岛区","sort":40}}]}}