{"msg":"获取成功！","end_at":"2024-03-20 01:20:56","data":{"type":"FeatureCollection","features":[{"type":"Feature","geometry":{"type":"Point","coordinates":[121.431204,28.558855]},"properties":{"region_id":"5211354552633817136","region_name":"台州路桥机场","intensity":1,"avg_speed":27.32,"crowd_value_zs":1.22,"crowd_value_yj":1.629,"area":"路桥区","sort":1}},{"type":"Feature","geometry":{"type":"Point","coordinates":[121.417075,28.636487]},"properties":{"region_id":"13046513588736959828","region_name":"万达广场(台州经开店)","intensity":0,"avg_speed":29.93,"crowd_value_zs":4.9,"crowd_value_yj":1.415,"area":"椒江区","sort":2}},{"type":"Feature","geometry":{"type":"Point","coordinates":[121.047697,29.170425]},"properties":{"region_id":"17991069548505202687","region_name":"国清寺","intensity":0,"avg_speed":37.29,"crowd_value_zs":0.81,"crowd_value_yj":1.403,"area":"天台县","sort":3}},{"type":"Feature","geometry":{"type":"Point","coordinates":[121.246663,28.880141]},"properties":{"region_id":"4201250882474251895","region_name":"临海站","intensity":0,"avg_speed":41.76,"crowd_value_zs":2.76,"crowd_value_yj":1.384,"area":"临海市","sort":4}},{"type":"Feature","geometry":{"type":"Point","coordinates":[121.398596,28.621928]},"properties":{"region_id":"11064467416202211833","region_name":"台州银泰汇","intensity":0,"avg_speed":33.05,"crowd_value_zs":2.66,"crowd_value_yj":1.346,"area":"椒江区","sort":5}},{"type":"Feature","geometry":{"type":"Point","coordinates":[121.254512,28.469287]},"properties":{"region_id":"5214744744673632861","region_name":"大溪车站","intensity":0,"avg_speed":50.63,"crowd_value_zs":0.19,"crowd_value_yj":1.329,"area":"温岭市","sort":6}},{"type":"Feature","geometry":{"type":"Point","coordinates":[121.414374,28.651388]},"properties":{"region_id":"7511677221387616331","region_name":"现代天地店","intensity":0,"avg_speed":27.51,"crowd_value_zs":0.91,"crowd_value_yj":1.32,"area":"椒江区","sort":7}},{"type":"Feature","geometry":{"type":"Point","coordinates":[121.437933,28.681448]},"properties":{"region_id":"10261694686484599245","region_name":"七号码头车站","intensity":0,"avg_speed":24.43,"crowd_value_zs":0.07,"crowd_value_yj":1.32,"area":"椒江区","sort":8}},{"type":"Feature","geometry":{"type":"Point","coordinates":[121.117307,28.853489]},"properties":{"region_id":"2598268172422797187","region_name":"江南长城景区","intensity":0,"avg_speed":41.15,"crowd_value_zs":1.62,"crowd_value_yj":1.289,"area":"临海市","sort":9}},{"type":"Feature","geometry":{"type":"Point","coordinates":[121.381683,28.352684]},"properties":{"region_id":"17991155396311515135","region_name":"温岭南城汽车客运站","intensity":0,"avg_speed":38.64,"crowd_value_zs":0.48,"crowd_value_yj":1.28,"area":"温岭市","sort":10}},{"type":"Feature","geometry":{"type":"Point","coordinates":[121.365244,28.502722]},"properties":{"region_id":"5427670601954082703","region_name":"泽国车站","intensity":0,"avg_speed":29.1,"crowd_value_zs":0.21,"crowd_value_yj":1.274,"area":"温岭市","sort":11}},{"type":"Feature","geometry":{"type":"Point","coordinates":[121.276575,28.248778]},"properties":{"region_id":"16918450765688069566","region_name":"清港客运中心","intensity":0,"avg_speed":30.6,"crowd_value_zs":0.29,"crowd_value_yj":1.267,"area":"玉环市","sort":12}},{"type":"Feature","geometry":{"type":"Point","coordinates":[121.410107,28.657757]},"properties":{"region_id":"12137373903118534434","region_name":"青悦城","intensity":0,"avg_speed":28.75,"crowd_value_zs":1.23,"crowd_value_yj":1.267,"area":"椒江区","sort":13}},{"type":"Feature","geometry":{"type":"Point","coordinates":[121.117245,28.846582]},"properties":{"region_id":"7099980549556459723","region_name":"台州府城文化旅游区","intensity":0,"avg_speed":42.08,"crowd_value_zs":30.44,"crowd_value_yj":1.265,"area":"临海市","sort":14}},{"type":"Feature","geometry":{"type":"Point","coordinates":[121.362057,28.506532]},"properties":{"region_id":"17670025652276822015","region_name":"泽国购物中心","intensity":0,"avg_speed":28.59,"crowd_value_zs":0.24,"crowd_value_yj":1.258,"area":"温岭市","sort":15}},{"type":"Feature","geometry":{"type":"Point","coordinates":[121.413202,28.653257]},"properties":{"region_id":"17101037493956435024","region_name":"台州意得国际广场","intensity":0,"avg_speed":28.86,"crowd_value_zs":0.99,"crowd_value_yj":1.257,"area":"椒江区","sort":16}},{"type":"Feature","geometry":{"type":"Point","coordinates":[121.140518,28.855951]},"properties":{"region_id":"5306919342832805018","region_name":"临海银泰城","intensity":0,"avg_speed":29.28,"crowd_value_zs":1.31,"crowd_value_yj":1.25,"area":"临海市","sort":17}},{"type":"Feature","geometry":{"type":"Point","coordinates":[121.424772,29.098034]},"properties":{"region_id":"11478816972556039293","region_name":"三门客运中心","intensity":0,"avg_speed":48.54,"crowd_value_zs":1.34,"crowd_value_yj":1.247,"area":"三门县","sort":18}},{"type":"Feature","geometry":{"type":"Point","coordinates":[121.494111,28.756021]},"properties":{"region_id":"17851524678078693375","region_name":"杜桥长途客运站","intensity":0,"avg_speed":30.07,"crowd_value_zs":0.81,"crowd_value_yj":1.245,"area":"临海市","sort":19}},{"type":"Feature","geometry":{"type":"Point","coordinates":[121.414372,28.660702]},"properties":{"region_id":"2542001142769262314","region_name":"台州海洋世界","intensity":0,"avg_speed":29.36,"crowd_value_zs":0.4,"crowd_value_yj":1.241,"area":"椒江区","sort":20}},{"type":"Feature","geometry":{"type":"Point","coordinates":[121.375646,28.367251]},"properties":{"region_id":"17734279421941179165","region_name":"温岭老车站","intensity":0,"avg_speed":27.38,"crowd_value_zs":0.13,"crowd_value_yj":1.238,"area":"温岭市","sort":21}},{"type":"Feature","geometry":{"type":"Point","coordinates":[121.228352,28.114115]},"properties":{"region_id":"12401839812542474887","region_name":"台州玉环吾悦广场","intensity":0,"avg_speed":27.98,"crowd_value_zs":2.84,"crowd_value_yj":1.228,"area":"玉环市","sort":22}},{"type":"Feature","geometry":{"type":"Point","coordinates":[121.23849,28.122642]},"properties":{"region_id":"17991103199573966847","region_name":"玉环客运中心","intensity":0,"avg_speed":27.51,"crowd_value_zs":1.0,"crowd_value_yj":1.222,"area":"玉环市","sort":23}},{"type":"Feature","geometry":{"type":"Point","coordinates":[121.287602,28.68745]},"properties":{"region_id":"10128463353470912059","region_name":"黄岩客运中心","intensity":0,"avg_speed":40.62,"crowd_value_zs":1.05,"crowd_value_yj":1.22,"area":"黄岩区","sort":24}},{"type":"Feature","geometry":{"type":"Point","coordinates":[121.324842,28.479047]},"properties":{"region_id":"14693950809357057816","region_name":"温岭站","intensity":0,"avg_speed":36.45,"crowd_value_zs":6.12,"crowd_value_yj":1.219,"area":"温岭市","sort":25}},{"type":"Feature","geometry":{"type":"Point","coordinates":[121.362832,29.055112]},"properties":{"region_id":"15806482498006694674","region_name":"三门县站","intensity":0,"avg_speed":46.58,"crowd_value_zs":1.87,"crowd_value_yj":1.218,"area":"三门县","sort":26}},{"type":"Feature","geometry":{"type":"Point","coordinates":[121.596437,28.344673]},"properties":{"region_id":"16436629134777960426","region_name":"松门车站","intensity":0,"avg_speed":38.15,"crowd_value_zs":0.06,"crowd_value_yj":1.218,"area":"温岭市","sort":27}},{"type":"Feature","geometry":{"type":"Point","coordinates":[121.391316,28.561345]},"properties":{"region_id":"4563529044913269039","region_name":"台州路桥客运南站","intensity":0,"avg_speed":40.47,"crowd_value_zs":0.98,"crowd_value_yj":1.217,"area":"路桥区","sort":28}},{"type":"Feature","geometry":{"type":"Point","coordinates":[121.376721,28.590355]},"properties":{"region_id":"3503383517723281078","region_name":"台州星光耀广场","intensity":0,"avg_speed":30.7,"crowd_value_zs":1.54,"crowd_value_yj":1.216,"area":"路桥区","sort":29}},{"type":"Feature","geometry":{"type":"Point","coordinates":[121.378962,28.578392]},"properties":{"region_id":"1262705275329052671","region_name":"中盛·城市广场","intensity":0,"avg_speed":29.12,"crowd_value_zs":1.92,"crowd_value_yj":1.216,"area":"路桥区","sort":30}},{"type":"Feature","geometry":{"type":"Point","coordinates":[121.401431,28.671123]},"properties":{"region_id":"3725148844846187535","region_name":"台州客运总站","intensity":0,"avg_speed":29.84,"crowd_value_zs":0.98,"crowd_value_yj":1.209,"area":"椒江区","sort":31}},{"type":"Feature","geometry":{"type":"Point","coordinates":[121.281216,28.218292]},"properties":{"region_id":"7658700907222056520","region_name":"楚门客运中心","intensity":0,"avg_speed":31.6,"crowd_value_zs":0.75,"crowd_value_yj":1.208,"area":"玉环市","sort":32}},{"type":"Feature","geometry":{"type":"Point","coordinates":[121.26122,28.654094]},"properties":{"region_id":"16523138680363436378","region_name":"台州新城吾悦广场","intensity":0,"avg_speed":29.11,"crowd_value_zs":2.78,"crowd_value_yj":1.206,"area":"黄岩区","sort":33}},{"type":"Feature","geometry":{"type":"Point","coordinates":[121.290107,28.685907]},"properties":{"region_id":"17972414591532773482","region_name":"台州站","intensity":0,"avg_speed":43.67,"crowd_value_zs":6.26,"crowd_value_yj":1.203,"area":"黄岩区","sort":34}},{"type":"Feature","geometry":{"type":"Point","coordinates":[121.374422,28.375129]},"properties":{"region_id":"17991156341204320255","region_name":"温岭市购物中心(万昌大厦东)","intensity":0,"avg_speed":28.28,"crowd_value_zs":1.1,"crowd_value_yj":1.203,"area":"温岭市","sort":35}},{"type":"Feature","geometry":{"type":"Point","coordinates":[121.442574,28.436324]},"properties":{"region_id":"1341854999197438037","region_name":"温岭长屿硐天","intensity":0,"avg_speed":48.78,"crowd_value_zs":0.56,"crowd_value_yj":1.198,"area":"温岭市","sort":36}},{"type":"Feature","geometry":{"type":"Point","coordinates":[121.360974,28.392493]},"properties":{"region_id":"4375148145809922363","region_name":"银泰百货","intensity":0,"avg_speed":30.08,"crowd_value_zs":1.68,"crowd_value_yj":1.191,"area":"温岭市","sort":37}},{"type":"Feature","geometry":{"type":"Point","coordinates":[121.361395,28.392668]},"properties":{"region_id":"3848400535953957984","region_name":"银泰百货","intensity":0,"avg_speed":30.06,"crowd_value_zs":1.7,"crowd_value_yj":1.19,"area":"温岭市","sort":38}},{"type":"Feature","geometry":{"type":"Point","coordinates":[121.327125,28.566578]},"properties":{"region_id":"13315500221335068011","region_name":"台州市客运南站","intensity":0,"avg_speed":40.67,"crowd_value_zs":1.29,"crowd_value_yj":1.184,"area":"路桥区","sort":39}},{"type":"Feature","geometry":{"type":"Point","coordinates":[120.720966,28.845663]},"properties":{"region_id":"651953506849131044","region_name":"仙居吾悦广场","intensity":0,"avg_speed":34.77,"crowd_value_zs":1.38,"crowd_value_yj":1.183,"area":"仙居县","sort":40}},{"type":"Feature","geometry":{"type":"Point","coordinates":[121.389766,28.367691]},"properties":{"region_id":"1619841268274835606","region_name":"锦屏新天地","intensity":0,"avg_speed":37.53,"crowd_value_zs":0.4,"crowd_value_yj":1.172,"area":"温岭市","sort":41}},{"type":"Feature","geometry":{"type":"Point","coordinates":[121.430479,28.651086]},"properties":{"region_id":"1262696238717861887","region_name":"耀达百货","intensity":0,"avg_speed":29.18,"crowd_value_zs":1.7,"crowd_value_yj":1.172,"area":"椒江区","sort":42}},{"type":"Feature","geometry":{"type":"Point","coordinates":[121.38618,28.37746]},"properties":{"region_id":"6478510096288451290","region_name":"锦江购物中心(温岭店)","intensity":0,"avg_speed":35.73,"crowd_value_zs":0.37,"crowd_value_yj":1.157,"area":"温岭市","sort":43}},{"type":"Feature","geometry":{"type":"Point","coordinates":[121.381826,28.400893]},"properties":{"region_id":"1259514668678905855","region_name":"时代广场","intensity":0,"avg_speed":38.25,"crowd_value_zs":0.81,"crowd_value_yj":1.146,"area":"温岭市","sort":44}},{"type":"Feature","geometry":{"type":"Point","coordinates":[121.371538,28.399145]},"properties":{"region_id":"16507986522748396684","region_name":"九龙湖生态湿地公园","intensity":0,"avg_speed":35.84,"crowd_value_zs":1.63,"crowd_value_yj":1.144,"area":"温岭市","sort":45}},{"type":"Feature","geometry":{"type":"Point","coordinates":[121.267733,28.557305]},"properties":{"region_id":"13677875255416842570","region_name":"台州黄岩奥特莱斯广场","intensity":0,"avg_speed":33.19,"crowd_value_zs":1.14,"crowd_value_yj":1.143,"area":"黄岩区","sort":46}},{"type":"Feature","geometry":{"type":"Point","coordinates":[121.234272,28.229405]},"properties":{"region_id":"9700320602240959686","region_name":"漩门湾国家湿地公园","intensity":0,"avg_speed":51.7,"crowd_value_zs":6.5,"crowd_value_yj":1.142,"area":"玉环市","sort":47}},{"type":"Feature","geometry":{"type":"Point","coordinates":[120.603127,28.688223]},"properties":{"region_id":"14172437928688467840","region_name":"神仙居景区","intensity":0,"avg_speed":64.15,"crowd_value_zs":3.05,"crowd_value_yj":1.137,"area":"仙居县","sort":48}},{"type":"Feature","geometry":{"type":"Point","coordinates":[121.617028,28.25699]},"properties":{"region_id":"17851533856423804927","region_name":"千年曙光园","intensity":0,"avg_speed":37.76,"crowd_value_zs":0.31,"crowd_value_yj":1.13,"area":"温岭市","sort":49}},{"type":"Feature","geometry":{"type":"Point","coordinates":[121.035483,29.156997]},"properties":{"region_id":"9140089122739869238","region_name":"天台山旅游风景区","intensity":0,"avg_speed":59.11,"crowd_value_zs":15.13,"crowd_value_yj":1.125,"area":"天台县","sort":50}},{"type":"Feature","geometry":{"type":"Point","coordinates":[121.643738,28.310361]},"properties":{"region_id":"13407699907262570863","region_name":"洞下沙滩","intensity":0,"avg_speed":35.7,"crowd_value_zs":0.04,"crowd_value_yj":1.106,"area":"温岭市","sort":51}},{"type":"Feature","geometry":{"type":"Point","coordinates":[121.529389,28.654167]},"properties":{"region_id":"1509256266885589254","region_name":"台州湾野生动物园","intensity":0,"avg_speed":89.82,"crowd_value_zs":0.15,"crowd_value_yj":1.039,"area":"椒江区","sort":52}},{"type":"Feature","geometry":{"type":"Point","coordinates":[121.631498,28.287379]},"properties":{"region_id":"1041525913418971179","region_name":"温岭滨海绿道·珍珠滩度假区","intensity":0,"avg_speed":38.0,"crowd_value_zs":0.91,"crowd_value_yj":1.037,"area":"温岭市","sort":53}},{"type":"Feature","geometry":{"type":"Point","coordinates":[121.586812,29.142364]},"properties":{"region_id":"17851536081216864255","region_name":"蛇蟠岛景区","intensity":0,"avg_speed":92.39,"crowd_value_zs":0.93,"crowd_value_yj":1.031,"area":"三门县","sort":54}},{"type":"Feature","geometry":{"type":"Point","coordinates":[121.685308,29.005418]},"properties":{"region_id":"4333173881871948765","region_name":"木勺沙滩","intensity":0,"avg_speed":48.48,"crowd_value_zs":0.05,"crowd_value_yj":0.984,"area":"三门县","sort":55}},{"type":"Feature","geometry":{"type":"Point","coordinates":[121.649494,28.393896]},"properties":{"region_id":"9844550100348273055","region_name":"龙门沙滩","intensity":0,"avg_speed":60.41,"crowd_value_zs":0.09,"crowd_value_yj":0.977,"area":"温岭市","sort":56}},{"type":"Feature","geometry":{"type":"Point","coordinates":[121.451698,28.301775]},"properties":{"region_id":"11189486044017848427","region_name":"吉捕岙沙滩","intensity":0,"avg_speed":63.14,"crowd_value_zs":0.03,"crowd_value_yj":0.81,"area":"温岭市","sort":57}}]}}