{"msg":"获取成功！","end_at":"2024-03-20 01:21:46","data":{"type":"FeatureCollection","features":[{"type":"Feature","geometry":{"type":"Point","coordinates":[114.894783,40.792324]},"properties":{"region_id":"3401950802593376660","region_name":"冠垣广场","intensity":1,"avg_speed":25.78,"crowd_value_zs":2.38,"crowd_value_yj":1.798,"area":"桥东区","sort":1}},{"type":"Feature","geometry":{"type":"Point","coordinates":[114.895943,40.786313]},"properties":{"region_id":"6056679514255143360","region_name":"乐享城","intensity":1,"avg_speed":24.71,"crowd_value_zs":1.76,"crowd_value_yj":1.753,"area":"桥东区","sort":2}},{"type":"Feature","geometry":{"type":"Point","coordinates":[114.894211,40.79795]},"properties":{"region_id":"17639481408564488021","region_name":"容辰广场","intensity":1,"avg_speed":25.24,"crowd_value_zs":5.12,"crowd_value_yj":1.629,"area":"桥东区","sort":3}},{"type":"Feature","geometry":{"type":"Point","coordinates":[114.889909,40.794384]},"properties":{"region_id":"8496795028600790134","region_name":"工业文化主题公园","intensity":1,"avg_speed":25.61,"crowd_value_zs":0.71,"crowd_value_yj":1.545,"area":"桥东区","sort":4}},{"type":"Feature","geometry":{"type":"Point","coordinates":[114.894226,40.798844]},"properties":{"region_id":"12993787800326218629","region_name":"银座商城(张家口店)","intensity":1,"avg_speed":26.29,"crowd_value_zs":3.03,"crowd_value_yj":1.541,"area":"桥东区","sort":5}},{"type":"Feature","geometry":{"type":"Point","coordinates":[114.423314,40.657616]},"properties":{"region_id":"18008978505567567871","region_name":"怀安柴沟堡汽车站","intensity":1,"avg_speed":36.11,"crowd_value_zs":0.04,"crowd_value_yj":1.53,"area":"怀安县","sort":6}},{"type":"Feature","geometry":{"type":"Point","coordinates":[114.880789,40.834245]},"properties":{"region_id":"18008960350740807679","region_name":"张家口汽车客运站","intensity":1,"avg_speed":29.12,"crowd_value_zs":1.02,"crowd_value_yj":1.507,"area":"桥西区","sort":7}},{"type":"Feature","geometry":{"type":"Point","coordinates":[115.05539,40.598089]},"properties":{"region_id":"15064720923310941111","region_name":"宣化站","intensity":0,"avg_speed":27.15,"crowd_value_zs":0.37,"crowd_value_yj":1.443,"area":"宣化区","sort":8}},{"type":"Feature","geometry":{"type":"Point","coordinates":[115.517275,40.396086]},"properties":{"region_id":"12367590622338047783","region_name":"沙城站","intensity":0,"avg_speed":30.31,"crowd_value_zs":0.59,"crowd_value_yj":1.413,"area":"怀来县","sort":9}},{"type":"Feature","geometry":{"type":"Point","coordinates":[114.88425,40.821542]},"properties":{"region_id":"17916015515512112781","region_name":"尚峰广场","intensity":0,"avg_speed":25.9,"crowd_value_zs":4.65,"crowd_value_yj":1.411,"area":"桥西区","sort":10}},{"type":"Feature","geometry":{"type":"Point","coordinates":[115.042281,40.610763]},"properties":{"region_id":"1767703900107155753","region_name":"阳光建材家居广场","intensity":0,"avg_speed":28.89,"crowd_value_zs":0.41,"crowd_value_yj":1.405,"area":"宣化区","sort":11}},{"type":"Feature","geometry":{"type":"Point","coordinates":[114.869239,40.822779]},"properties":{"region_id":"11656494992246576862","region_name":"金鼎国贸中心","intensity":0,"avg_speed":32.05,"crowd_value_zs":2.08,"crowd_value_yj":1.399,"area":"桥西区","sort":12}},{"type":"Feature","geometry":{"type":"Point","coordinates":[115.034495,40.615178]},"properties":{"region_id":"14092705653531302440","region_name":"宣化古城","intensity":0,"avg_speed":32.5,"crowd_value_zs":0.06,"crowd_value_yj":1.396,"area":"宣化区","sort":13}},{"type":"Feature","geometry":{"type":"Point","coordinates":[115.056058,40.602938]},"properties":{"region_id":"11491321871919627829","region_name":"宣化人民公园","intensity":0,"avg_speed":25.84,"crowd_value_zs":2.49,"crowd_value_yj":1.395,"area":"宣化区","sort":14}},{"type":"Feature","geometry":{"type":"Point","coordinates":[115.06255,40.607285]},"properties":{"region_id":"12699862155005827990","region_name":"万汇源阳光商厦","intensity":0,"avg_speed":25.18,"crowd_value_zs":0.27,"crowd_value_yj":1.393,"area":"宣化区","sort":15}},{"type":"Feature","geometry":{"type":"Point","coordinates":[114.890234,40.826403]},"properties":{"region_id":"18008960904791588863","region_name":"人民公园(清水河北路)","intensity":0,"avg_speed":26.95,"crowd_value_zs":3.52,"crowd_value_yj":1.38,"area":"桥西区","sort":16}},{"type":"Feature","geometry":{"type":"Point","coordinates":[114.591046,39.844423]},"properties":{"region_id":"18008974807600726015","region_name":"蔚县汽车客运站","intensity":0,"avg_speed":30.37,"crowd_value_zs":0.54,"crowd_value_yj":1.37,"area":"蔚县","sort":17}},{"type":"Feature","geometry":{"type":"Point","coordinates":[114.848723,40.852437]},"properties":{"region_id":"18008960483884793855","region_name":"水母宫","intensity":0,"avg_speed":42.34,"crowd_value_zs":0.03,"crowd_value_yj":1.37,"area":"桥西区","sort":18}},{"type":"Feature","geometry":{"type":"Point","coordinates":[115.215475,40.378765]},"properties":{"region_id":"16125538238065598914","region_name":"万人商厦","intensity":0,"avg_speed":26.85,"crowd_value_zs":0.31,"crowd_value_yj":1.362,"area":"涿鹿县","sort":19}},{"type":"Feature","geometry":{"type":"Point","coordinates":[115.211861,40.375636]},"properties":{"region_id":"18008942045590192127","region_name":"涿鹿汽车站","intensity":0,"avg_speed":27.76,"crowd_value_zs":0.19,"crowd_value_yj":1.358,"area":"涿鹿县","sort":20}},{"type":"Feature","geometry":{"type":"Point","coordinates":[114.740118,40.756149]},"properties":{"region_id":"18008933507195207679","region_name":"万全孔家庄汽车站","intensity":0,"avg_speed":32.95,"crowd_value_zs":0.32,"crowd_value_yj":1.354,"area":"万全区","sort":21}},{"type":"Feature","geometry":{"type":"Point","coordinates":[114.750521,40.766355]},"properties":{"region_id":"17663411376953639387","region_name":"华凯·万全区时代广场","intensity":0,"avg_speed":31.03,"crowd_value_zs":0.51,"crowd_value_yj":1.353,"area":"万全区","sort":22}},{"type":"Feature","geometry":{"type":"Point","coordinates":[114.886698,40.817126]},"properties":{"region_id":"1259283251546030079","region_name":"百盛购物中心(花园路店)","intensity":0,"avg_speed":26.06,"crowd_value_zs":1.65,"crowd_value_yj":1.349,"area":"桥东区","sort":23}},{"type":"Feature","geometry":{"type":"Point","coordinates":[115.836004,40.906138]},"properties":{"region_id":"18008930419113721855","region_name":"赤城汽车客运站","intensity":0,"avg_speed":29.56,"crowd_value_zs":0.4,"crowd_value_yj":1.348,"area":"赤城县","sort":24}},{"type":"Feature","geometry":{"type":"Point","coordinates":[115.101991,40.606146]},"properties":{"region_id":"15676442455940964114","region_name":"光大新天地","intensity":0,"avg_speed":31.29,"crowd_value_zs":1.17,"crowd_value_yj":1.34,"area":"宣化区","sort":25}},{"type":"Feature","geometry":{"type":"Point","coordinates":[114.586282,39.834243]},"properties":{"region_id":"18008975249982357503","region_name":"万人商厦(前进路店)","intensity":0,"avg_speed":28.83,"crowd_value_zs":0.07,"crowd_value_yj":1.336,"area":"蔚县","sort":26}},{"type":"Feature","geometry":{"type":"Point","coordinates":[114.717982,41.157144]},"properties":{"region_id":"3730210221237956827","region_name":"新东方商厦","intensity":0,"avg_speed":25.98,"crowd_value_zs":1.23,"crowd_value_yj":1.332,"area":"张北县","sort":27}},{"type":"Feature","geometry":{"type":"Point","coordinates":[114.885136,40.843369]},"properties":{"region_id":"18008960355035774975","region_name":"西太平山公园","intensity":0,"avg_speed":34.1,"crowd_value_zs":0.07,"crowd_value_yj":1.33,"area":"桥西区","sort":28}},{"type":"Feature","geometry":{"type":"Point","coordinates":[114.886726,40.814761]},"properties":{"region_id":"13261511681394986204","region_name":"百货大楼","intensity":0,"avg_speed":25.71,"crowd_value_zs":0.52,"crowd_value_yj":1.327,"area":"桥东区","sort":29}},{"type":"Feature","geometry":{"type":"Point","coordinates":[115.520449,40.405607]},"properties":{"region_id":"2033837474373075818","region_name":"万悦广场","intensity":0,"avg_speed":28.96,"crowd_value_zs":2.48,"crowd_value_yj":1.326,"area":"怀来县","sort":30}},{"type":"Feature","geometry":{"type":"Point","coordinates":[114.14962,40.111869]},"properties":{"region_id":"18008949664862175231","region_name":"阳原汽车站","intensity":0,"avg_speed":29.42,"crowd_value_zs":0.27,"crowd_value_yj":1.321,"area":"阳原县","sort":31}},{"type":"Feature","geometry":{"type":"Point","coordinates":[115.279445,40.487839]},"properties":{"region_id":"18008969009394876415","region_name":"张家口下花园汽车站","intensity":0,"avg_speed":32.61,"crowd_value_zs":0.17,"crowd_value_yj":1.316,"area":"下花园区","sort":32}},{"type":"Feature","geometry":{"type":"Point","coordinates":[115.08085,40.611936]},"properties":{"region_id":"10861020203695051101","region_name":"宣化汽车客运站","intensity":0,"avg_speed":29.61,"crowd_value_zs":0.38,"crowd_value_yj":1.315,"area":"宣化区","sort":33}},{"type":"Feature","geometry":{"type":"Point","coordinates":[114.862892,40.861699]},"properties":{"region_id":"1262632046136655871","region_name":"安家沟生态区","intensity":0,"avg_speed":43.57,"crowd_value_zs":0.02,"crowd_value_yj":1.313,"area":"桥西区","sort":34}},{"type":"Feature","geometry":{"type":"Point","coordinates":[114.718507,41.144185]},"properties":{"region_id":"18008986919408500735","region_name":"万人商厦(永春南大街店)","intensity":0,"avg_speed":27.2,"crowd_value_zs":0.78,"crowd_value_yj":1.308,"area":"张北县","sort":35}},{"type":"Feature","geometry":{"type":"Point","coordinates":[115.28085,40.485524]},"properties":{"region_id":"17457563867326634556","region_name":"下花园站","intensity":0,"avg_speed":34.52,"crowd_value_zs":0.13,"crowd_value_yj":1.287,"area":"下花园区","sort":36}},{"type":"Feature","geometry":{"type":"Point","coordinates":[114.892175,40.845883]},"properties":{"region_id":"18008960346445840383","region_name":"大境门","intensity":0,"avg_speed":35.0,"crowd_value_zs":0.73,"crowd_value_yj":1.271,"area":"桥西区","sort":37}},{"type":"Feature","geometry":{"type":"Point","coordinates":[114.883714,40.755578]},"properties":{"region_id":"18008960879021785087","region_name":"张家口汽车客运南站","intensity":0,"avg_speed":30.35,"crowd_value_zs":0.31,"crowd_value_yj":1.259,"area":"桥东区","sort":38}},{"type":"Feature","geometry":{"type":"Point","coordinates":[114.894488,40.810471]},"properties":{"region_id":"17829745375703599560","region_name":"察哈尔世纪广场-东区","intensity":0,"avg_speed":28.45,"crowd_value_zs":0.8,"crowd_value_yj":1.256,"area":"桥东区","sort":39}},{"type":"Feature","geometry":{"type":"Point","coordinates":[114.902038,40.809439]},"properties":{"region_id":"18008960874726817791","region_name":"张家口市博物馆(陵园路)","intensity":0,"avg_speed":30.95,"crowd_value_zs":0.14,"crowd_value_yj":1.245,"area":"桥东区","sort":40}},{"type":"Feature","geometry":{"type":"Point","coordinates":[114.882608,40.751873]},"properties":{"region_id":"12458988912109453522","region_name":"张家口站","intensity":0,"avg_speed":31.68,"crowd_value_zs":3.79,"crowd_value_yj":1.242,"area":"桥东区","sort":41}},{"type":"Feature","geometry":{"type":"Point","coordinates":[114.830295,40.68114]},"properties":{"region_id":"3987129940005337662","region_name":"明湖公园","intensity":0,"avg_speed":57.49,"crowd_value_zs":0.09,"crowd_value_yj":1.237,"area":"桥西区","sort":42}},{"type":"Feature","geometry":{"type":"Point","coordinates":[114.886418,40.760032]},"properties":{"region_id":"4104550064582724869","region_name":"康丹商业广场","intensity":0,"avg_speed":30.11,"crowd_value_zs":0.5,"crowd_value_yj":1.229,"area":"桥东区","sort":43}},{"type":"Feature","geometry":{"type":"Point","coordinates":[115.032087,40.623274]},"properties":{"region_id":"16639666975101550405","region_name":"万柳公园","intensity":0,"avg_speed":58.12,"crowd_value_zs":0.86,"crowd_value_yj":1.22,"area":"宣化区","sort":44}},{"type":"Feature","geometry":{"type":"Point","coordinates":[114.886886,40.762898]},"properties":{"region_id":"6536663505971404014","region_name":"中国地质博物馆张家口馆","intensity":0,"avg_speed":29.75,"crowd_value_zs":0.18,"crowd_value_yj":1.219,"area":"桥东区","sort":45}},{"type":"Feature","geometry":{"type":"Point","coordinates":[115.517556,40.421836]},"properties":{"region_id":"18008923731849641983","region_name":"怀来沙城汽车站","intensity":0,"avg_speed":59.83,"crowd_value_zs":1.08,"crowd_value_yj":1.216,"area":"怀来县","sort":46}},{"type":"Feature","geometry":{"type":"Point","coordinates":[114.605809,41.852931]},"properties":{"region_id":"18008995917364985855","region_name":"康保汽车站","intensity":0,"avg_speed":33.77,"crowd_value_zs":0.02,"crowd_value_yj":1.205,"area":"康保县","sort":47}},{"type":"Feature","geometry":{"type":"Point","coordinates":[114.89656,40.771543]},"properties":{"region_id":"2544665355669271392","region_name":"时代金茂购物中心","intensity":0,"avg_speed":31.14,"crowd_value_zs":1.75,"crowd_value_yj":1.195,"area":"桥东区","sort":48}},{"type":"Feature","geometry":{"type":"Point","coordinates":[115.449248,40.91311]},"properties":{"region_id":"4916190013590310719","region_name":"太子城站","intensity":0,"avg_speed":51.45,"crowd_value_zs":0.1,"crowd_value_yj":1.19,"area":"崇礼区","sort":49}},{"type":"Feature","geometry":{"type":"Point","coordinates":[114.709893,41.13495]},"properties":{"region_id":"9421854161521011452","region_name":"张北汽车客运站","intensity":0,"avg_speed":43.29,"crowd_value_zs":1.2,"crowd_value_yj":1.174,"area":"张北县","sort":50}},{"type":"Feature","geometry":{"type":"Point","coordinates":[115.794559,40.343131]},"properties":{"region_id":"15134916385318705550","region_name":"东花园北站","intensity":0,"avg_speed":62.44,"crowd_value_zs":0.37,"crowd_value_yj":1.166,"area":"怀来县","sort":51}},{"type":"Feature","geometry":{"type":"Point","coordinates":[115.276434,40.969034]},"properties":{"region_id":"18008945722082197503","region_name":"崇礼汽车客运站","intensity":0,"avg_speed":42.48,"crowd_value_zs":0.19,"crowd_value_yj":1.165,"area":"崇礼区","sort":52}},{"type":"Feature","geometry":{"type":"Point","coordinates":[115.695078,40.292445]},"properties":{"region_id":"18008924174231273471","region_name":"张家口天漠旅游区","intensity":0,"avg_speed":57.35,"crowd_value_zs":0.01,"crowd_value_yj":1.118,"area":"怀来县","sort":53}},{"type":"Feature","geometry":{"type":"Point","coordinates":[115.315581,40.452483]},"properties":{"region_id":"18008923560050950143","region_name":"鸡鸣驿城","intensity":0,"avg_speed":76.11,"crowd_value_zs":0.66,"crowd_value_yj":1.114,"area":"怀来县","sort":54}},{"type":"Feature","geometry":{"type":"Point","coordinates":[115.415679,40.22108]},"properties":{"region_id":"18008942556691300351","region_name":"黄帝城文化旅游区","intensity":0,"avg_speed":59.25,"crowd_value_zs":0.82,"crowd_value_yj":1.086,"area":"涿鹿县","sort":55}},{"type":"Feature","geometry":{"type":"Point","coordinates":[115.305168,40.467518]},"properties":{"region_id":"18008963434527326207","region_name":"鸡鸣山","intensity":0,"avg_speed":87.77,"crowd_value_zs":0.23,"crowd_value_yj":1.009,"area":"怀来县","sort":56}},{"type":"Feature","geometry":{"type":"Point","coordinates":[114.436992,39.803615]},"properties":{"region_id":"7152872157746198384","region_name":"暖泉镇","intensity":0,"avg_speed":61.65,"crowd_value_zs":2.89,"crowd_value_yj":0.953,"area":"蔚县","sort":57}},{"type":"Feature","geometry":{"type":"Point","coordinates":[114.974557,39.891385]},"properties":{"region_id":"16006457603722534360","region_name":"金河口旅游景区","intensity":0,"avg_speed":85.91,"crowd_value_zs":0.24,"crowd_value_yj":0.931,"area":"蔚县","sort":58}},{"type":"Feature","geometry":{"type":"Point","coordinates":[114.716287,41.352687]},"properties":{"region_id":"18008986215033864191","region_name":"天鹅湖","intensity":0,"avg_speed":64.84,"crowd_value_zs":0.08,"crowd_value_yj":0.909,"area":"张北县","sort":59}}]}}