{"msg":"获取成功！","end_at":"2024-03-20 01:21:49","data":{"type":"FeatureCollection","features":[{"type":"Feature","geometry":{"type":"Point","coordinates":[113.545619,34.481107]},"properties":{"region_id":"3162211923120629391","region_name":"银基乐海水世界","intensity":3,"avg_speed":23.04,"crowd_value_zs":0.15,"crowd_value_yj":2.278,"area":"新密市","sort":1}},{"type":"Feature","geometry":{"type":"Point","coordinates":[113.554977,34.479616]},"properties":{"region_id":"12636872969980565416","region_name":"银基冰雪世界","intensity":2,"avg_speed":28.35,"crowd_value_zs":0.33,"crowd_value_yj":1.9,"area":"新密市","sort":2}},{"type":"Feature","geometry":{"type":"Point","coordinates":[113.683327,34.73891]},"properties":{"region_id":"9777786526737261554","region_name":"郑州陇海汽车站","intensity":2,"avg_speed":26.87,"crowd_value_zs":0.44,"crowd_value_yj":1.847,"area":"管城回族区","sort":3}},{"type":"Feature","geometry":{"type":"Point","coordinates":[113.55002,34.48378]},"properties":{"region_id":"6699904043986762174","region_name":"银基国际旅游度假区","intensity":2,"avg_speed":29.47,"crowd_value_zs":4.35,"crowd_value_yj":1.812,"area":"新密市","sort":4}},{"type":"Feature","geometry":{"type":"Point","coordinates":[113.729066,34.722978]},"properties":{"region_id":"3137481396293444145","region_name":"中原福塔","intensity":1,"avg_speed":32.45,"crowd_value_zs":1.73,"crowd_value_yj":1.79,"area":"管城回族区","sort":5}},{"type":"Feature","geometry":{"type":"Point","coordinates":[113.651337,34.908859]},"properties":{"region_id":"13508051781411579313","region_name":"郑州黄河国家湿地公园","intensity":1,"avg_speed":38.71,"crowd_value_zs":0.09,"crowd_value_yj":1.76,"area":"惠济区","sort":6}},{"type":"Feature","geometry":{"type":"Point","coordinates":[113.642664,34.717936]},"properties":{"region_id":"378938511210949846","region_name":"万达广场(郑州二七店)","intensity":1,"avg_speed":23.97,"crowd_value_zs":7.32,"crowd_value_yj":1.67,"area":"二七区","sort":7}},{"type":"Feature","geometry":{"type":"Point","coordinates":[113.688771,34.762]},"properties":{"region_id":"18007944530845761535","region_name":"郑州市紫荆山公园","intensity":1,"avg_speed":20.1,"crowd_value_zs":2.56,"crowd_value_yj":1.64,"area":"金水区","sort":8}},{"type":"Feature","geometry":{"type":"Point","coordinates":[113.718309,34.721599]},"properties":{"region_id":"14756427911880466784","region_name":"美景龙堂·万科广场","intensity":1,"avg_speed":37.06,"crowd_value_zs":1.05,"crowd_value_yj":1.591,"area":"管城回族区","sort":9}},{"type":"Feature","geometry":{"type":"Point","coordinates":[113.659696,34.74622]},"properties":{"region_id":"5148491963481546158","region_name":"郑州站","intensity":1,"avg_speed":29.39,"crowd_value_zs":26.35,"crowd_value_yj":1.59,"area":"二七区","sort":10}},{"type":"Feature","geometry":{"type":"Point","coordinates":[113.682701,34.753366]},"properties":{"region_id":"1242842917348136343","region_name":"新世界百货(郑州店)","intensity":1,"avg_speed":24.02,"crowd_value_zs":4.98,"crowd_value_yj":1.566,"area":"管城回族区","sort":11}},{"type":"Feature","geometry":{"type":"Point","coordinates":[113.731329,34.767322]},"properties":{"region_id":"3858985057332183624","region_name":"永威木色购物公园","intensity":1,"avg_speed":30.15,"crowd_value_zs":1.35,"crowd_value_yj":1.548,"area":"金水区","sort":12}},{"type":"Feature","geometry":{"type":"Point","coordinates":[113.663517,34.74714]},"properties":{"region_id":"9165937153077490039","region_name":"郑州长途汽车中心站","intensity":1,"avg_speed":30.48,"crowd_value_zs":1.58,"crowd_value_yj":1.537,"area":"二七区","sort":13}},{"type":"Feature","geometry":{"type":"Point","coordinates":[113.751488,34.765834]},"properties":{"region_id":"4273372537817727433","region_name":"河南省地质博物馆","intensity":1,"avg_speed":23.01,"crowd_value_zs":0.24,"crowd_value_yj":1.53,"area":"金水区","sort":14}},{"type":"Feature","geometry":{"type":"Point","coordinates":[113.630275,34.751525]},"properties":{"region_id":"10866603756692960660","region_name":"郑州市碧沙岗公园","intensity":1,"avg_speed":24.6,"crowd_value_zs":3.29,"crowd_value_yj":1.504,"area":"中原区","sort":15}},{"type":"Feature","geometry":{"type":"Point","coordinates":[113.675856,34.756309]},"properties":{"region_id":"1261923952058433535","region_name":"丹尼斯百货(人民路店)","intensity":1,"avg_speed":24.34,"crowd_value_zs":3.44,"crowd_value_yj":1.501,"area":"管城回族区","sort":16}},{"type":"Feature","geometry":{"type":"Point","coordinates":[113.663106,34.761686]},"properties":{"region_id":"18007944556615565311","region_name":"郑州市人民公园","intensity":0,"avg_speed":27.41,"crowd_value_zs":4.34,"crowd_value_yj":1.499,"area":"二七区","sort":17}},{"type":"Feature","geometry":{"type":"Point","coordinates":[113.588946,34.774801]},"properties":{"region_id":"18007949921029718015","region_name":"郑州市西流湖公园","intensity":0,"avg_speed":37.45,"crowd_value_zs":3.97,"crowd_value_yj":1.491,"area":"中原区","sort":18}},{"type":"Feature","geometry":{"type":"Point","coordinates":[113.661825,34.75489]},"properties":{"region_id":"17612462375975086063","region_name":"华润万象城","intensity":0,"avg_speed":29.09,"crowd_value_zs":5.26,"crowd_value_yj":1.461,"area":"二七区","sort":19}},{"type":"Feature","geometry":{"type":"Point","coordinates":[113.663061,34.757897]},"properties":{"region_id":"17612716815644782172","region_name":"西太康路360广场","intensity":0,"avg_speed":28.68,"crowd_value_zs":1.5,"crowd_value_yj":1.455,"area":"金水区","sort":20}},{"type":"Feature","geometry":{"type":"Point","coordinates":[113.668954,34.756288]},"properties":{"region_id":"7018104222228023403","region_name":"大上海城","intensity":0,"avg_speed":25.17,"crowd_value_zs":2.36,"crowd_value_yj":1.445,"area":"金水区","sort":21}},{"type":"Feature","geometry":{"type":"Point","coordinates":[113.666554,34.752394]},"properties":{"region_id":"9493454818665033220","region_name":"郑州二七纪念馆","intensity":0,"avg_speed":23.71,"crowd_value_zs":0.56,"crowd_value_yj":1.443,"area":"二七区","sort":22}},{"type":"Feature","geometry":{"type":"Point","coordinates":[113.601525,34.746476]},"properties":{"region_id":"1259659220098220031","region_name":"万达广场(中原店)","intensity":0,"avg_speed":33.64,"crowd_value_zs":4.31,"crowd_value_yj":1.399,"area":"中原区","sort":23}},{"type":"Feature","geometry":{"type":"Point","coordinates":[113.666421,34.809154]},"properties":{"region_id":"9214505198791903310","region_name":"瀚海北金商业中心","intensity":0,"avg_speed":34.12,"crowd_value_zs":7.52,"crowd_value_yj":1.397,"area":"金水区","sort":24}},{"type":"Feature","geometry":{"type":"Point","coordinates":[113.723495,34.767499]},"properties":{"region_id":"17833250030572646891","region_name":"丹尼斯1天地","intensity":0,"avg_speed":35.86,"crowd_value_zs":1.02,"crowd_value_yj":1.392,"area":"金水区","sort":25}},{"type":"Feature","geometry":{"type":"Point","coordinates":[113.033575,34.480079]},"properties":{"region_id":"17840313430456664063","region_name":"嵩阳书院","intensity":0,"avg_speed":30.83,"crowd_value_zs":0.06,"crowd_value_yj":1.333,"area":"登封市","sort":26}},{"type":"Feature","geometry":{"type":"Point","coordinates":[113.665313,34.796477]},"properties":{"region_id":"15403356239188363289","region_name":"硅谷广场","intensity":0,"avg_speed":35.39,"crowd_value_zs":5.2,"crowd_value_yj":1.324,"area":"金水区","sort":27}},{"type":"Feature","geometry":{"type":"Point","coordinates":[113.65797,34.820025]},"properties":{"region_id":"18007946622494834687","region_name":"郑州海洋馆","intensity":0,"avg_speed":32.41,"crowd_value_zs":0.51,"crowd_value_yj":1.321,"area":"金水区","sort":28}},{"type":"Feature","geometry":{"type":"Point","coordinates":[113.717512,34.784765]},"properties":{"region_id":"8872616254284450916","region_name":"郑州熙地港购物中心","intensity":0,"avg_speed":38.23,"crowd_value_zs":2.4,"crowd_value_yj":1.3,"area":"金水区","sort":29}},{"type":"Feature","geometry":{"type":"Point","coordinates":[112.996204,34.740099]},"properties":{"region_id":"18007832436494303231","region_name":"巩义汽车站","intensity":0,"avg_speed":31.92,"crowd_value_zs":1.0,"crowd_value_yj":1.294,"area":"巩义市","sort":30}},{"type":"Feature","geometry":{"type":"Point","coordinates":[113.783426,34.762352]},"properties":{"region_id":"2729936868789221628","region_name":"郑州高铁长途汽车枢纽站","intensity":0,"avg_speed":32.68,"crowd_value_zs":1.82,"crowd_value_yj":1.293,"area":"金水区","sort":31}},{"type":"Feature","geometry":{"type":"Point","coordinates":[113.074037,34.457835]},"properties":{"region_id":"17840313606550323199","region_name":"中岳庙","intensity":0,"avg_speed":42.49,"crowd_value_zs":0.43,"crowd_value_yj":1.291,"area":"登封市","sort":32}},{"type":"Feature","geometry":{"type":"Point","coordinates":[113.680482,34.843402]},"properties":{"region_id":"17661052945904435199","region_name":"郑州客运北站","intensity":0,"avg_speed":50.99,"crowd_value_zs":2.26,"crowd_value_yj":1.287,"area":"金水区","sort":33}},{"type":"Feature","geometry":{"type":"Point","coordinates":[113.772323,34.76058]},"properties":{"region_id":"14567364371879471045","region_name":"郑州正大乐城","intensity":0,"avg_speed":30.94,"crowd_value_zs":0.83,"crowd_value_yj":1.284,"area":"金水区","sort":34}},{"type":"Feature","geometry":{"type":"Point","coordinates":[113.923032,34.506552]},"properties":{"region_id":"18007837599044993023","region_name":"中牟三官庙客运站","intensity":0,"avg_speed":35.35,"crowd_value_zs":0.16,"crowd_value_yj":1.28,"area":"中牟县","sort":35}},{"type":"Feature","geometry":{"type":"Point","coordinates":[113.727831,34.604529]},"properties":{"region_id":"12418486780603740312","region_name":"华盛奥特莱斯","intensity":0,"avg_speed":29.95,"crowd_value_zs":10.42,"crowd_value_yj":1.276,"area":"新郑市","sort":36}},{"type":"Feature","geometry":{"type":"Point","coordinates":[113.801184,34.793339]},"properties":{"region_id":"7460905495584990242","region_name":"太格茂","intensity":0,"avg_speed":32.77,"crowd_value_zs":1.56,"crowd_value_yj":1.275,"area":"金水区","sort":37}},{"type":"Feature","geometry":{"type":"Point","coordinates":[113.658584,34.697944]},"properties":{"region_id":"8100113801733177994","region_name":"郑州客运南站","intensity":0,"avg_speed":44.21,"crowd_value_zs":1.81,"crowd_value_yj":1.27,"area":"二七区","sort":38}},{"type":"Feature","geometry":{"type":"Point","coordinates":[113.722905,34.778031]},"properties":{"region_id":"16476360418249573177","region_name":"丹尼斯7天地","intensity":0,"avg_speed":34.92,"crowd_value_zs":0.48,"crowd_value_yj":1.264,"area":"金水区","sort":39}},{"type":"Feature","geometry":{"type":"Point","coordinates":[113.680459,34.795816]},"properties":{"region_id":"9799453690842780709","region_name":"正弘城","intensity":0,"avg_speed":34.23,"crowd_value_zs":19.68,"crowd_value_yj":1.261,"area":"金水区","sort":40}},{"type":"Feature","geometry":{"type":"Point","coordinates":[113.778743,34.759236]},"properties":{"region_id":"10794459476763784270","region_name":"郑州东站","intensity":0,"avg_speed":32.29,"crowd_value_zs":53.18,"crowd_value_yj":1.261,"area":"金水区","sort":41}},{"type":"Feature","geometry":{"type":"Point","coordinates":[113.627428,34.745267]},"properties":{"region_id":"7787986131667687244","region_name":"郑州博物馆","intensity":0,"avg_speed":37.32,"crowd_value_zs":0.15,"crowd_value_yj":1.26,"area":"中原区","sort":42}},{"type":"Feature","geometry":{"type":"Point","coordinates":[113.860757,34.458778]},"properties":{"region_id":"18007791926362767359","region_name":"龙王乡客运站","intensity":0,"avg_speed":36.79,"crowd_value_zs":0.02,"crowd_value_yj":1.26,"area":"新郑市","sort":43}},{"type":"Feature","geometry":{"type":"Point","coordinates":[113.360567,34.528287]},"properties":{"region_id":"18007804656645832703","region_name":"新密西大街客运站","intensity":0,"avg_speed":27.69,"crowd_value_zs":0.11,"crowd_value_yj":1.258,"area":"新密市","sort":44}},{"type":"Feature","geometry":{"type":"Point","coordinates":[113.68001,34.784713]},"properties":{"region_id":"1261920812437340159","region_name":"新田360广场","intensity":0,"avg_speed":31.15,"crowd_value_zs":6.16,"crowd_value_yj":1.257,"area":"金水区","sort":45}},{"type":"Feature","geometry":{"type":"Point","coordinates":[113.871514,34.458723]},"properties":{"region_id":"7172886927642239836","region_name":"郑州园博园","intensity":0,"avg_speed":37.07,"crowd_value_zs":2.31,"crowd_value_yj":1.257,"area":"新郑市","sort":46}},{"type":"Feature","geometry":{"type":"Point","coordinates":[113.671952,34.788203]},"properties":{"region_id":"18007944380521906175","region_name":"河南博物院","intensity":0,"avg_speed":33.44,"crowd_value_zs":2.22,"crowd_value_yj":1.252,"area":"金水区","sort":47}},{"type":"Feature","geometry":{"type":"Point","coordinates":[113.684634,34.788907]},"properties":{"region_id":"1261568672363708415","region_name":"郑州市动物园","intensity":0,"avg_speed":32.82,"crowd_value_zs":1.96,"crowd_value_yj":1.249,"area":"金水区","sort":48}},{"type":"Feature","geometry":{"type":"Point","coordinates":[113.682437,34.787092]},"properties":{"region_id":"1104055741695101212","region_name":"丹尼斯百货(花园店)","intensity":0,"avg_speed":32.64,"crowd_value_zs":2.23,"crowd_value_yj":1.245,"area":"金水区","sort":49}},{"type":"Feature","geometry":{"type":"Point","coordinates":[113.399019,34.530614]},"properties":{"region_id":"18007804300163547135","region_name":"新密客运中心站","intensity":0,"avg_speed":31.96,"crowd_value_zs":0.15,"crowd_value_yj":1.235,"area":"新密市","sort":50}},{"type":"Feature","geometry":{"type":"Point","coordinates":[113.666299,34.822332]},"properties":{"region_id":"14968128133185986953","region_name":"郑州大观音寺","intensity":0,"avg_speed":29.55,"crowd_value_zs":0.37,"crowd_value_yj":1.232,"area":"金水区","sort":51}},{"type":"Feature","geometry":{"type":"Point","coordinates":[113.032146,34.484633]},"properties":{"region_id":"15911032755327368551","region_name":"嵩阳景区","intensity":0,"avg_speed":40.33,"crowd_value_zs":2.72,"crowd_value_yj":1.227,"area":"登封市","sort":52}},{"type":"Feature","geometry":{"type":"Point","coordinates":[113.290438,34.818181]},"properties":{"region_id":"13431512859361664555","region_name":"上街汽车站","intensity":0,"avg_speed":30.05,"crowd_value_zs":0.15,"crowd_value_yj":1.224,"area":"上街区","sort":53}},{"type":"Feature","geometry":{"type":"Point","coordinates":[113.376446,34.532287]},"properties":{"region_id":"18007804304458514431","region_name":"新密长途汽车站","intensity":0,"avg_speed":26.76,"crowd_value_zs":0.96,"crowd_value_yj":1.221,"area":"新密市","sort":54}},{"type":"Feature","geometry":{"type":"Point","coordinates":[113.425094,34.745167]},"properties":{"region_id":"14640510500096417091","region_name":"郑州西站","intensity":0,"avg_speed":34.18,"crowd_value_zs":1.75,"crowd_value_yj":1.22,"area":"荥阳市","sort":55}},{"type":"Feature","geometry":{"type":"Point","coordinates":[113.384386,34.783456]},"properties":{"region_id":"2887940917810044255","region_name":"荥阳汽车站","intensity":0,"avg_speed":29.35,"crowd_value_zs":0.31,"crowd_value_yj":1.213,"area":"荥阳市","sort":56}},{"type":"Feature","geometry":{"type":"Point","coordinates":[114.034848,34.722021]},"properties":{"region_id":"18007837160958328831","region_name":"中牟汽车站","intensity":0,"avg_speed":30.72,"crowd_value_zs":0.31,"crowd_value_yj":1.205,"area":"中牟县","sort":57}},{"type":"Feature","geometry":{"type":"Point","coordinates":[113.602109,34.756017]},"properties":{"region_id":"18007949903849848831","region_name":"郑州汽车西站","intensity":0,"avg_speed":29.0,"crowd_value_zs":0.26,"crowd_value_yj":1.204,"area":"中原区","sort":58}},{"type":"Feature","geometry":{"type":"Point","coordinates":[112.981433,34.760441]},"properties":{"region_id":"5750156483667160098","region_name":"巩义站","intensity":0,"avg_speed":44.72,"crowd_value_zs":0.78,"crowd_value_yj":1.203,"area":"巩义市","sort":59}},{"type":"Feature","geometry":{"type":"Point","coordinates":[112.916104,34.670887]},"properties":{"region_id":"17487255204031374623","region_name":"巩义南站","intensity":0,"avg_speed":41.96,"crowd_value_zs":1.38,"crowd_value_yj":1.199,"area":"巩义市","sort":60}}]}}