{"msg":"获取成功！","end_at":"2024-03-19 10:09:15","data":{"type":"FeatureCollection","features":[{"type":"Feature","geometry":{"type":"Point","coordinates":[114.383954,23.073892]},"properties":{"region_id":"12972555719203688884","region_name":"红花湖水上乐园","intensity":3,"avg_speed":13.15,"crowd_value_zs":0.21,"crowd_value_yj":2.83,"area":"惠城区","sort":1}},{"type":"Feature","geometry":{"type":"Point","coordinates":[114.401649,23.089316]},"properties":{"region_id":"1262844698557415423","region_name":"丽日购物广场","intensity":3,"avg_speed":14.76,"crowd_value_zs":1.6,"crowd_value_yj":2.344,"area":"惠城区","sort":2}},{"type":"Feature","geometry":{"type":"Point","coordinates":[114.393636,23.054699]},"properties":{"region_id":"14101936783643233057","region_name":"惠州市南线客运站","intensity":3,"avg_speed":21.42,"crowd_value_zs":0.56,"crowd_value_yj":2.326,"area":"惠城区","sort":3}},{"type":"Feature","geometry":{"type":"Point","coordinates":[114.395119,23.063683]},"properties":{"region_id":"10344144547734489939","region_name":"惠州市汽车客运站总站","intensity":3,"avg_speed":17.21,"crowd_value_zs":1.31,"crowd_value_yj":2.281,"area":"惠城区","sort":4}},{"type":"Feature","geometry":{"type":"Point","coordinates":[114.411575,23.1074]},"properties":{"region_id":"1260201863446265855","region_name":"丽日购物广场(江北店)","intensity":3,"avg_speed":19.04,"crowd_value_zs":1.27,"crowd_value_yj":2.169,"area":"惠城区","sort":5}},{"type":"Feature","geometry":{"type":"Point","coordinates":[114.355217,23.024707]},"properties":{"region_id":"15222085659969414835","region_name":"时尚公园","intensity":3,"avg_speed":23.88,"crowd_value_zs":2.17,"crowd_value_yj":2.152,"area":"惠城区","sort":6}},{"type":"Feature","geometry":{"type":"Point","coordinates":[114.326386,23.004553]},"properties":{"region_id":"15091555372137356982","region_name":"天益城","intensity":3,"avg_speed":20.03,"crowd_value_zs":4.24,"crowd_value_yj":2.118,"area":"惠城区","sort":7}},{"type":"Feature","geometry":{"type":"Point","coordinates":[114.409329,23.081888]},"properties":{"region_id":"18011598160740220927","region_name":"惠州美博城","intensity":3,"avg_speed":15.84,"crowd_value_zs":0.59,"crowd_value_yj":2.051,"area":"惠城区","sort":8}},{"type":"Feature","geometry":{"type":"Point","coordinates":[114.397442,23.08959]},"properties":{"region_id":"11130027249022841173","region_name":"惠州西湖国家风景名胜区","intensity":2,"avg_speed":19.32,"crowd_value_zs":10.57,"crowd_value_yj":1.931,"area":"惠城区","sort":9}},{"type":"Feature","geometry":{"type":"Point","coordinates":[114.327081,23.006057]},"properties":{"region_id":"12927952017103607959","region_name":"仲恺站","intensity":2,"avg_speed":21.86,"crowd_value_zs":1.27,"crowd_value_yj":1.89,"area":"惠城区","sort":10}},{"type":"Feature","geometry":{"type":"Point","coordinates":[114.455613,22.803935]},"properties":{"region_id":"17958056022896454402","region_name":"惠阳区排坊汽车站","intensity":2,"avg_speed":29.78,"crowd_value_zs":0.15,"crowd_value_yj":1.827,"area":"惠阳区","sort":11}},{"type":"Feature","geometry":{"type":"Point","coordinates":[114.915642,22.796721]},"properties":{"region_id":"17630348911900098559","region_name":"吉隆车站","intensity":1,"avg_speed":26.61,"crowd_value_zs":0.09,"crowd_value_yj":1.795,"area":"惠东县","sort":12}},{"type":"Feature","geometry":{"type":"Point","coordinates":[114.42977,23.066091]},"properties":{"region_id":"3697490160192195527","region_name":"方直广场","intensity":1,"avg_speed":26.87,"crowd_value_zs":1.61,"crowd_value_yj":1.708,"area":"惠城区","sort":13}},{"type":"Feature","geometry":{"type":"Point","coordinates":[114.436002,23.066239]},"properties":{"region_id":"11686899788280018359","region_name":"金山湖公园","intensity":1,"avg_speed":28.6,"crowd_value_zs":4.19,"crowd_value_yj":1.67,"area":"惠城区","sort":14}},{"type":"Feature","geometry":{"type":"Point","coordinates":[113.897345,23.151377]},"properties":{"region_id":"14737311499637861048","region_name":"博罗县石湾汽车客运站","intensity":1,"avg_speed":34.32,"crowd_value_zs":0.12,"crowd_value_yj":1.663,"area":"博罗县","sort":15}},{"type":"Feature","geometry":{"type":"Point","coordinates":[114.538135,22.719161]},"properties":{"region_id":"18011533104870588415","region_name":"大亚湾汽车站","intensity":1,"avg_speed":27.8,"crowd_value_zs":0.06,"crowd_value_yj":1.652,"area":"惠阳区","sort":16}},{"type":"Feature","geometry":{"type":"Point","coordinates":[114.901486,22.556567]},"properties":{"region_id":"17661650637848313855","region_name":"惠东港口海龟自然保护区","intensity":1,"avg_speed":26.86,"crowd_value_zs":1.06,"crowd_value_yj":1.636,"area":"惠东县","sort":17}},{"type":"Feature","geometry":{"type":"Point","coordinates":[114.416506,23.068203]},"properties":{"region_id":"17672445703139360767","region_name":"港惠新天地","intensity":1,"avg_speed":21.95,"crowd_value_zs":7.06,"crowd_value_yj":1.617,"area":"惠城区","sort":18}},{"type":"Feature","geometry":{"type":"Point","coordinates":[114.451037,22.787015]},"properties":{"region_id":"1261865987179806719","region_name":"天虹商场(惠阳店)","intensity":1,"avg_speed":32.28,"crowd_value_zs":1.42,"crowd_value_yj":1.61,"area":"惠阳区","sort":19}},{"type":"Feature","geometry":{"type":"Point","coordinates":[113.973935,23.123752]},"properties":{"region_id":"18011572034454159359","region_name":"博罗园洲汽车客运站","intensity":1,"avg_speed":27.42,"crowd_value_zs":0.15,"crowd_value_yj":1.565,"area":"博罗县","sort":20}},{"type":"Feature","geometry":{"type":"Point","coordinates":[114.459163,23.100534]},"properties":{"region_id":"13411569374286699900","region_name":"大新城","intensity":1,"avg_speed":25.58,"crowd_value_zs":1.4,"crowd_value_yj":1.536,"area":"惠城区","sort":21}},{"type":"Feature","geometry":{"type":"Point","coordinates":[113.975737,23.126051]},"properties":{"region_id":"17825617349449875455","region_name":"三新购物广场","intensity":1,"avg_speed":28.19,"crowd_value_zs":1.18,"crowd_value_yj":1.532,"area":"博罗县","sort":22}},{"type":"Feature","geometry":{"type":"Point","coordinates":[114.25732,23.167343]},"properties":{"region_id":"1533817802634346891","region_name":"博罗县城中心客运站","intensity":1,"avg_speed":30.66,"crowd_value_zs":0.15,"crowd_value_yj":1.527,"area":"博罗县","sort":23}},{"type":"Feature","geometry":{"type":"Point","coordinates":[114.321791,22.989016]},"properties":{"region_id":"18011598551582244863","region_name":"仲恺汽车客运站","intensity":1,"avg_speed":31.23,"crowd_value_zs":0.33,"crowd_value_yj":1.524,"area":"惠城区","sort":24}},{"type":"Feature","geometry":{"type":"Point","coordinates":[113.975466,23.568842]},"properties":{"region_id":"18011518952953348095","region_name":"永汉车站","intensity":1,"avg_speed":36.61,"crowd_value_zs":0.01,"crowd_value_yj":1.502,"area":"龙门县","sort":25}},{"type":"Feature","geometry":{"type":"Point","coordinates":[114.422843,23.083174]},"properties":{"region_id":"6426069191157244687","region_name":"隆生广场(东湖店)","intensity":0,"avg_speed":26.03,"crowd_value_zs":2.22,"crowd_value_yj":1.486,"area":"惠城区","sort":26}},{"type":"Feature","geometry":{"type":"Point","coordinates":[114.46081,22.814064]},"properties":{"region_id":"3616111946053704097","region_name":"惠阳汽车客运总站","intensity":0,"avg_speed":37.06,"crowd_value_zs":0.27,"crowd_value_yj":1.478,"area":"惠阳区","sort":27}},{"type":"Feature","geometry":{"type":"Point","coordinates":[114.537057,22.736397]},"properties":{"region_id":"5576133392610313878","region_name":"红树林公园","intensity":0,"avg_speed":37.19,"crowd_value_zs":1.63,"crowd_value_yj":1.476,"area":"惠阳区","sort":28}},{"type":"Feature","geometry":{"type":"Point","coordinates":[114.321308,23.00348]},"properties":{"region_id":"18011592379714240511","region_name":"天地和购物广场","intensity":0,"avg_speed":24.85,"crowd_value_zs":0.57,"crowd_value_yj":1.474,"area":"惠城区","sort":29}},{"type":"Feature","geometry":{"type":"Point","coordinates":[114.484154,22.772708]},"properties":{"region_id":"5473128271800199474","region_name":"星河COCO Garden","intensity":0,"avg_speed":24.45,"crowd_value_zs":0.92,"crowd_value_yj":1.473,"area":"惠阳区","sort":30}},{"type":"Feature","geometry":{"type":"Point","coordinates":[114.367838,23.070428]},"properties":{"region_id":"12809395747320601747","region_name":"红花湖景区","intensity":0,"avg_speed":38.71,"crowd_value_zs":5.15,"crowd_value_yj":1.472,"area":"惠城区","sort":31}},{"type":"Feature","geometry":{"type":"Point","coordinates":[114.28397,23.16518]},"properties":{"region_id":"12325826637419404835","region_name":"万信佳购物广场(商业街)","intensity":0,"avg_speed":25.78,"crowd_value_zs":1.14,"crowd_value_yj":1.47,"area":"博罗县","sort":32}},{"type":"Feature","geometry":{"type":"Point","coordinates":[114.229711,22.979008]},"properties":{"region_id":"12489259185079836746","region_name":"沥林北站","intensity":0,"avg_speed":30.69,"crowd_value_zs":0.15,"crowd_value_yj":1.447,"area":"惠城区","sort":33}},{"type":"Feature","geometry":{"type":"Point","coordinates":[114.463193,22.78429]},"properties":{"region_id":"6196220085209431375","region_name":"万联广场(人民五路店)","intensity":0,"avg_speed":26.11,"crowd_value_zs":1.04,"crowd_value_yj":1.446,"area":"惠阳区","sort":34}},{"type":"Feature","geometry":{"type":"Point","coordinates":[114.492589,22.785222]},"properties":{"region_id":"17964729357644464257","region_name":"惠州南站","intensity":0,"avg_speed":26.65,"crowd_value_zs":3.43,"crowd_value_yj":1.427,"area":"惠阳区","sort":35}},{"type":"Feature","geometry":{"type":"Point","coordinates":[114.948831,22.765725]},"properties":{"region_id":"17867140833158811792","region_name":"黄埠客运站","intensity":0,"avg_speed":28.41,"crowd_value_zs":0.13,"crowd_value_yj":1.425,"area":"惠东县","sort":36}},{"type":"Feature","geometry":{"type":"Point","coordinates":[114.475505,22.769766]},"properties":{"region_id":"11845845805123179331","region_name":"天虹商场(开城大道店)","intensity":0,"avg_speed":25.09,"crowd_value_zs":2.15,"crowd_value_yj":1.42,"area":"惠阳区","sort":37}},{"type":"Feature","geometry":{"type":"Point","coordinates":[114.708203,22.964628]},"properties":{"region_id":"5463687231529805527","region_name":"城南客运站","intensity":0,"avg_speed":29.83,"crowd_value_zs":0.3,"crowd_value_yj":1.403,"area":"惠东县","sort":38}},{"type":"Feature","geometry":{"type":"Point","coordinates":[114.22783,22.973578]},"properties":{"region_id":"9013866291090109132","region_name":"惠州市沥林汽车客运站","intensity":0,"avg_speed":39.71,"crowd_value_zs":0.22,"crowd_value_yj":1.399,"area":"惠城区","sort":39}},{"type":"Feature","geometry":{"type":"Point","coordinates":[114.675073,22.775149]},"properties":{"region_id":"2637950545828476934","region_name":"黄金海岸","intensity":0,"avg_speed":40.67,"crowd_value_zs":0.65,"crowd_value_yj":1.383,"area":"惠阳区","sort":40}},{"type":"Feature","geometry":{"type":"Point","coordinates":[114.470535,22.79306]},"properties":{"region_id":"13595995257330727224","region_name":"好宜多商贸广场","intensity":0,"avg_speed":27.13,"crowd_value_zs":1.45,"crowd_value_yj":1.36,"area":"惠阳区","sort":41}},{"type":"Feature","geometry":{"type":"Point","coordinates":[114.326688,22.972055]},"properties":{"region_id":"2293542808825041463","region_name":"镇隆汽车客运站","intensity":0,"avg_speed":57.55,"crowd_value_zs":0.31,"crowd_value_yj":1.351,"area":"惠阳区","sort":42}},{"type":"Feature","geometry":{"type":"Point","coordinates":[114.33333,22.859839]},"properties":{"region_id":"17825629886459412479","region_name":"惠州新圩汽车站","intensity":0,"avg_speed":60.33,"crowd_value_zs":0.29,"crowd_value_yj":1.341,"area":"惠阳区","sort":43}},{"type":"Feature","geometry":{"type":"Point","coordinates":[114.535707,22.707998]},"properties":{"region_id":"2548766266444435243","region_name":"滨海公园","intensity":0,"avg_speed":50.59,"crowd_value_zs":0.34,"crowd_value_yj":1.34,"area":"惠阳区","sort":44}},{"type":"Feature","geometry":{"type":"Point","coordinates":[114.392633,22.76296]},"properties":{"region_id":"16827739378454676282","region_name":"八家荣购物广场","intensity":0,"avg_speed":28.17,"crowd_value_zs":0.37,"crowd_value_yj":1.334,"area":"惠阳区","sort":45}},{"type":"Feature","geometry":{"type":"Point","coordinates":[114.482145,23.01368]},"properties":{"region_id":"14852146733758614941","region_name":"紫溪半岛花海世界","intensity":0,"avg_speed":66.26,"crowd_value_zs":0.06,"crowd_value_yj":1.314,"area":"惠城区","sort":46}},{"type":"Feature","geometry":{"type":"Point","coordinates":[114.902607,22.565404]},"properties":{"region_id":"9303257186597294481","region_name":"双月湾","intensity":0,"avg_speed":44.36,"crowd_value_zs":28.19,"crowd_value_yj":1.313,"area":"惠东县","sort":47}},{"type":"Feature","geometry":{"type":"Point","coordinates":[114.379734,23.09589]},"properties":{"region_id":"13230863381324204533","region_name":"惠州市植物园","intensity":0,"avg_speed":31.19,"crowd_value_zs":0.31,"crowd_value_yj":1.3,"area":"惠城区","sort":48}},{"type":"Feature","geometry":{"type":"Point","coordinates":[114.365855,23.030307]},"properties":{"region_id":"619228454858201858","region_name":"惠环站","intensity":0,"avg_speed":46.1,"crowd_value_zs":1.38,"crowd_value_yj":1.285,"area":"惠城区","sort":49}},{"type":"Feature","geometry":{"type":"Point","coordinates":[114.409193,23.188385]},"properties":{"region_id":"18011594510018019327","region_name":"天天润购物广场","intensity":0,"avg_speed":51.25,"crowd_value_zs":0.57,"crowd_value_yj":1.256,"area":"惠城区","sort":50}},{"type":"Feature","geometry":{"type":"Point","coordinates":[114.871329,22.611742]},"properties":{"region_id":"14188864123893475555","region_name":"平海古城","intensity":0,"avg_speed":43.12,"crowd_value_zs":3.49,"crowd_value_yj":1.239,"area":"惠东县","sort":51}},{"type":"Feature","geometry":{"type":"Point","coordinates":[114.756239,22.685174]},"properties":{"region_id":"14039816109477207962","region_name":"金海湾国际滨海旅游区","intensity":0,"avg_speed":47.59,"crowd_value_zs":9.82,"crowd_value_yj":1.23,"area":"惠东县","sort":52}},{"type":"Feature","geometry":{"type":"Point","coordinates":[114.410122,22.719759]},"properties":{"region_id":"16323935563264217337","region_name":"龙光商业广场","intensity":0,"avg_speed":25.75,"crowd_value_zs":1.55,"crowd_value_yj":1.229,"area":"惠阳区","sort":53}},{"type":"Feature","geometry":{"type":"Point","coordinates":[114.805192,22.65543]},"properties":{"region_id":"15508800348691925889","region_name":"惠州海滨温泉旅游度假区","intensity":0,"avg_speed":55.59,"crowd_value_zs":0.31,"crowd_value_yj":1.21,"area":"惠东县","sort":54}},{"type":"Feature","geometry":{"type":"Point","coordinates":[114.421251,22.855329]},"properties":{"region_id":"18011531597337067519","region_name":"叶挺将军纪念园","intensity":0,"avg_speed":45.97,"crowd_value_zs":0.11,"crowd_value_yj":1.154,"area":"惠阳区","sort":55}},{"type":"Feature","geometry":{"type":"Point","coordinates":[114.036321,23.26468]},"properties":{"region_id":"4019756621632067902","region_name":"罗浮山风景名胜区","intensity":0,"avg_speed":54.09,"crowd_value_zs":1.8,"crowd_value_yj":1.11,"area":"博罗县","sort":56}},{"type":"Feature","geometry":{"type":"Point","coordinates":[114.03213,23.613788]},"properties":{"region_id":"2899756675878226515","region_name":"南昆山大观园生态度假区","intensity":0,"avg_speed":92.07,"crowd_value_zs":0.6,"crowd_value_yj":1.055,"area":"龙门县","sort":57}},{"type":"Feature","geometry":{"type":"Point","coordinates":[113.885184,23.640703]},"properties":{"region_id":"7885996337877959046","region_name":"南昆山国家森林公园","intensity":0,"avg_speed":73.65,"crowd_value_zs":2.84,"crowd_value_yj":0.927,"area":"龙门县","sort":58}}]}}