{"msg":"获取成功！","end_at":"2024-03-19 10:08:28","data":{"type":"FeatureCollection","features":[{"type":"Feature","geometry":{"type":"Point","coordinates":[115.542463,38.853878]},"properties":{"region_id":"17162466256698309051","region_name":"保定客运中心站","intensity":3,"avg_speed":17.46,"crowd_value_zs":2.1,"crowd_value_yj":2.624,"area":"莲池区","sort":1}},{"type":"Feature","geometry":{"type":"Point","coordinates":[115.984111,39.481221]},"properties":{"region_id":"18169554286659005903","region_name":"涿州站","intensity":3,"avg_speed":18.65,"crowd_value_zs":2.18,"crowd_value_yj":2.277,"area":"涿州市","sort":2}},{"type":"Feature","geometry":{"type":"Point","coordinates":[115.468255,38.87197]},"properties":{"region_id":"1262710566728761343","region_name":"时代商厦","intensity":3,"avg_speed":17.5,"crowd_value_zs":2.7,"crowd_value_yj":2.154,"area":"竞秀区","sort":3}},{"type":"Feature","geometry":{"type":"Point","coordinates":[115.469832,38.872847]},"properties":{"region_id":"527401812123854557","region_name":"茂业百货(中心店)","intensity":3,"avg_speed":17.25,"crowd_value_zs":6.85,"crowd_value_yj":2.137,"area":"竞秀区","sort":4}},{"type":"Feature","geometry":{"type":"Point","coordinates":[115.469857,38.876355]},"properties":{"region_id":"11152981717436116112","region_name":"万博广场","intensity":3,"avg_speed":17.78,"crowd_value_zs":8.56,"crowd_value_yj":2.038,"area":"竞秀区","sort":5}},{"type":"Feature","geometry":{"type":"Point","coordinates":[114.701758,38.63344]},"properties":{"region_id":"18009722634421403647","region_name":"曲阳汽车站","intensity":2,"avg_speed":25.43,"crowd_value_zs":0.12,"crowd_value_yj":1.94,"area":"曲阳县","sort":6}},{"type":"Feature","geometry":{"type":"Point","coordinates":[115.465912,38.879525]},"properties":{"region_id":"1259700640762822655","region_name":"竞秀公园","intensity":2,"avg_speed":18.33,"crowd_value_zs":1.53,"crowd_value_yj":1.908,"area":"竞秀区","sort":7}},{"type":"Feature","geometry":{"type":"Point","coordinates":[115.641308,39.026152]},"properties":{"region_id":"3796396673431556940","region_name":"双隆商厦","intensity":2,"avg_speed":22.58,"crowd_value_zs":2.94,"crowd_value_yj":1.815,"area":"徐水区","sort":8}},{"type":"Feature","geometry":{"type":"Point","coordinates":[115.88992,39.312793]},"properties":{"region_id":"11369797729858330545","region_name":"悦百汇购物中心(大黄蜂旗舰店)","intensity":2,"avg_speed":26.21,"crowd_value_zs":2.05,"crowd_value_yj":1.811,"area":"高碑店市","sort":9}},{"type":"Feature","geometry":{"type":"Point","coordinates":[115.469948,38.889573]},"properties":{"region_id":"1259523928628396031","region_name":"北国先天下","intensity":1,"avg_speed":19.47,"crowd_value_zs":3.31,"crowd_value_yj":1.786,"area":"竞秀区","sort":10}},{"type":"Feature","geometry":{"type":"Point","coordinates":[115.644876,39.033276]},"properties":{"region_id":"10459236019684120381","region_name":"徐水站","intensity":1,"avg_speed":24.66,"crowd_value_zs":1.72,"crowd_value_yj":1.77,"area":"徐水区","sort":11}},{"type":"Feature","geometry":{"type":"Point","coordinates":[115.863964,39.043198]},"properties":{"region_id":"9812021622562559639","region_name":"惠友购物广场(容城店)","intensity":1,"avg_speed":34.81,"crowd_value_zs":3.55,"crowd_value_yj":1.768,"area":"容城县","sort":12}},{"type":"Feature","geometry":{"type":"Point","coordinates":[116.010001,39.487986]},"properties":{"region_id":"18009689271115448319","region_name":"宜佳旺购物广场","intensity":1,"avg_speed":23.17,"crowd_value_zs":2.06,"crowd_value_yj":1.697,"area":"涿州市","sort":13}},{"type":"Feature","geometry":{"type":"Point","coordinates":[115.467484,38.893955]},"properties":{"region_id":"1262701839355215871","region_name":"保百购物广场","intensity":1,"avg_speed":20.57,"crowd_value_zs":4.21,"crowd_value_yj":1.664,"area":"竞秀区","sort":14}},{"type":"Feature","geometry":{"type":"Point","coordinates":[115.651245,39.014495]},"properties":{"region_id":"5222218108615552593","region_name":"惠友购物广场","intensity":1,"avg_speed":25.41,"crowd_value_zs":1.77,"crowd_value_yj":1.623,"area":"徐水区","sort":15}},{"type":"Feature","geometry":{"type":"Point","coordinates":[115.169654,38.703423]},"properties":{"region_id":"18009668122696482815","region_name":"望都汽车站","intensity":1,"avg_speed":29.52,"crowd_value_zs":0.15,"crowd_value_yj":1.618,"area":"望都县","sort":16}},{"type":"Feature","geometry":{"type":"Point","coordinates":[115.640469,39.021531]},"properties":{"region_id":"6443152143914187280","region_name":"徐水汽车南站","intensity":1,"avg_speed":25.58,"crowd_value_zs":0.3,"crowd_value_yj":1.599,"area":"徐水区","sort":17}},{"type":"Feature","geometry":{"type":"Point","coordinates":[115.860956,39.325468]},"properties":{"region_id":"8987118723650629505","region_name":"高碑店汽车站","intensity":1,"avg_speed":25.4,"crowd_value_zs":0.07,"crowd_value_yj":1.597,"area":"高碑店市","sort":18}},{"type":"Feature","geometry":{"type":"Point","coordinates":[115.870472,39.053655]},"properties":{"region_id":"16715602640210315473","region_name":"双隆商厦(古城路店)","intensity":1,"avg_speed":23.73,"crowd_value_zs":2.07,"crowd_value_yj":1.574,"area":"容城县","sort":19}},{"type":"Feature","geometry":{"type":"Point","coordinates":[115.49827,38.868796]},"properties":{"region_id":"18009703075140337663","region_name":"四通时尚购物广场(永华北大街)","intensity":1,"avg_speed":22.03,"crowd_value_zs":1.07,"crowd_value_yj":1.564,"area":"莲池区","sort":20}},{"type":"Feature","geometry":{"type":"Point","coordinates":[115.858783,39.329001]},"properties":{"region_id":"14916272719114873974","region_name":"高碑店站","intensity":1,"avg_speed":27.56,"crowd_value_zs":1.12,"crowd_value_yj":1.562,"area":"高碑店市","sort":21}},{"type":"Feature","geometry":{"type":"Point","coordinates":[115.479897,38.863354]},"properties":{"region_id":"18287237122232770844","region_name":"保定站","intensity":1,"avg_speed":22.48,"crowd_value_zs":8.44,"crowd_value_yj":1.561,"area":"竞秀区","sort":22}},{"type":"Feature","geometry":{"type":"Point","coordinates":[115.864953,39.061782]},"properties":{"region_id":"18009719426080833535","region_name":"容城汽车站","intensity":1,"avg_speed":23.71,"crowd_value_zs":0.11,"crowd_value_yj":1.531,"area":"容城县","sort":23}},{"type":"Feature","geometry":{"type":"Point","coordinates":[114.97392,38.529207]},"properties":{"region_id":"2088208025718443040","region_name":"定州汽车站","intensity":0,"avg_speed":24.99,"crowd_value_zs":1.14,"crowd_value_yj":1.423,"area":"定州市","sort":24}},{"type":"Feature","geometry":{"type":"Point","coordinates":[115.510823,38.846859]},"properties":{"region_id":"15081141709704073797","region_name":"嘉德国际","intensity":0,"avg_speed":29.23,"crowd_value_zs":1.59,"crowd_value_yj":1.421,"area":"莲池区","sort":25}},{"type":"Feature","geometry":{"type":"Point","coordinates":[115.4881,38.860415]},"properties":{"region_id":"16018212252664759940","region_name":"银座商城(保定店)","intensity":0,"avg_speed":23.1,"crowd_value_zs":3.25,"crowd_value_yj":1.42,"area":"莲池区","sort":26}},{"type":"Feature","geometry":{"type":"Point","coordinates":[114.973932,38.530894]},"properties":{"region_id":"5341211869042895654","region_name":"定州站","intensity":0,"avg_speed":26.03,"crowd_value_zs":3.19,"crowd_value_yj":1.392,"area":"定州市","sort":27}},{"type":"Feature","geometry":{"type":"Point","coordinates":[115.488007,38.853832]},"properties":{"region_id":"18009702641348640767","region_name":"保定市动物园","intensity":0,"avg_speed":25.18,"crowd_value_zs":0.88,"crowd_value_yj":1.392,"area":"莲池区","sort":28}},{"type":"Feature","geometry":{"type":"Point","coordinates":[115.497352,38.859884]},"properties":{"region_id":"10467773792258589118","region_name":"保定直隶总督署博物馆","intensity":0,"avg_speed":24.41,"crowd_value_zs":0.63,"crowd_value_yj":1.39,"area":"莲池区","sort":29}},{"type":"Feature","geometry":{"type":"Point","coordinates":[115.500799,38.8589]},"properties":{"region_id":"18009701249779236863","region_name":"钟楼商厦","intensity":0,"avg_speed":24.71,"crowd_value_zs":3.08,"crowd_value_yj":1.384,"area":"莲池区","sort":30}},{"type":"Feature","geometry":{"type":"Point","coordinates":[115.583683,38.509577]},"properties":{"region_id":"8037905495008804534","region_name":"蠡县信誉楼商厦","intensity":0,"avg_speed":33.3,"crowd_value_zs":2.24,"crowd_value_yj":1.368,"area":"蠡县","sort":31}},{"type":"Feature","geometry":{"type":"Point","coordinates":[115.498194,38.857541]},"properties":{"region_id":"3509568457182913743","region_name":"古莲花池","intensity":0,"avg_speed":25.19,"crowd_value_zs":0.24,"crowd_value_yj":1.362,"area":"莲池区","sort":32}},{"type":"Feature","geometry":{"type":"Point","coordinates":[115.966432,39.494578]},"properties":{"region_id":"18009689550288322559","region_name":"涿州汽车站","intensity":0,"avg_speed":33.12,"crowd_value_zs":0.03,"crowd_value_yj":1.354,"area":"涿州市","sort":33}},{"type":"Feature","geometry":{"type":"Point","coordinates":[115.401421,38.827064]},"properties":{"region_id":"6992721860537526459","region_name":"保定市农业生态园","intensity":0,"avg_speed":39.0,"crowd_value_zs":1.99,"crowd_value_yj":1.351,"area":"竞秀区","sort":34}},{"type":"Feature","geometry":{"type":"Point","coordinates":[115.502926,38.858601]},"properties":{"region_id":"12309439762235171800","region_name":"北国商城","intensity":0,"avg_speed":25.51,"crowd_value_zs":2.5,"crowd_value_yj":1.343,"area":"莲池区","sort":35}},{"type":"Feature","geometry":{"type":"Point","coordinates":[114.713216,39.366132]},"properties":{"region_id":"17040807234022354288","region_name":"涞源汽车站","intensity":0,"avg_speed":32.0,"crowd_value_zs":0.69,"crowd_value_yj":1.34,"area":"涞源县","sort":36}},{"type":"Feature","geometry":{"type":"Point","coordinates":[116.033626,39.103035]},"properties":{"region_id":"17628708255867863039","region_name":"白沟汽车站","intensity":0,"avg_speed":32.34,"crowd_value_zs":0.4,"crowd_value_yj":1.328,"area":"高碑店市","sort":37}},{"type":"Feature","geometry":{"type":"Point","coordinates":[115.780579,38.692075]},"properties":{"region_id":"13824993497965646219","region_name":"大世界购物中心","intensity":0,"avg_speed":31.79,"crowd_value_zs":2.01,"crowd_value_yj":1.31,"area":"高阳县","sort":38}},{"type":"Feature","geometry":{"type":"Point","coordinates":[115.711304,39.385232]},"properties":{"region_id":"18009674646751805439","region_name":"涞水汽车站","intensity":0,"avg_speed":33.86,"crowd_value_zs":0.47,"crowd_value_yj":1.309,"area":"涞水县","sort":39}},{"type":"Feature","geometry":{"type":"Point","coordinates":[115.874845,39.069077]},"properties":{"region_id":"1182923107021795583","region_name":"白洋淀站","intensity":0,"avg_speed":29.43,"crowd_value_zs":3.18,"crowd_value_yj":1.306,"area":"容城县","sort":40}},{"type":"Feature","geometry":{"type":"Point","coordinates":[115.507741,39.357511]},"properties":{"region_id":"18009716565632614399","region_name":"易县汽车站","intensity":0,"avg_speed":32.54,"crowd_value_zs":0.2,"crowd_value_yj":1.275,"area":"易县","sort":41}},{"type":"Feature","geometry":{"type":"Point","coordinates":[116.092661,39.087577]},"properties":{"region_id":"5291141639565000845","region_name":"白沟站","intensity":0,"avg_speed":38.24,"crowd_value_zs":3.44,"crowd_value_yj":1.267,"area":"雄县","sort":42}},{"type":"Feature","geometry":{"type":"Point","coordinates":[116.104357,39.009831]},"properties":{"region_id":"11735391174877115717","region_name":"雄县汽车站","intensity":0,"avg_speed":33.99,"crowd_value_zs":0.29,"crowd_value_yj":1.265,"area":"雄县","sort":43}},{"type":"Feature","geometry":{"type":"Point","coordinates":[114.986401,38.517316]},"properties":{"region_id":"1260253424528654335","region_name":"大世界","intensity":0,"avg_speed":27.46,"crowd_value_zs":1.77,"crowd_value_yj":1.245,"area":"定州市","sort":44}},{"type":"Feature","geometry":{"type":"Point","coordinates":[115.48517,38.920128]},"properties":{"region_id":"18009761155983081471","region_name":"保定植物园","intensity":0,"avg_speed":33.59,"crowd_value_zs":1.34,"crowd_value_yj":1.241,"area":"竞秀区","sort":45}},{"type":"Feature","geometry":{"type":"Point","coordinates":[115.369417,38.669809]},"properties":{"region_id":"18009727762612355071","region_name":"冉庄地道战纪念馆","intensity":0,"avg_speed":41.73,"crowd_value_zs":0.14,"crowd_value_yj":1.235,"area":"清苑区","sort":46}},{"type":"Feature","geometry":{"type":"Point","coordinates":[115.482608,38.92458]},"properties":{"region_id":"2517847188608023757","region_name":"绿溪谷乐园","intensity":0,"avg_speed":37.24,"crowd_value_zs":0.63,"crowd_value_yj":1.218,"area":"竞秀区","sort":47}},{"type":"Feature","geometry":{"type":"Point","coordinates":[115.009935,38.527963]},"properties":{"region_id":"6923986485659722397","region_name":"定州万达广场","intensity":0,"avg_speed":36.88,"crowd_value_zs":3.65,"crowd_value_yj":1.208,"area":"定州市","sort":48}},{"type":"Feature","geometry":{"type":"Point","coordinates":[115.482342,38.778165]},"properties":{"region_id":"3997396703462308615","region_name":"清苑公园","intensity":0,"avg_speed":58.62,"crowd_value_zs":1.87,"crowd_value_yj":1.163,"area":"清苑区","sort":49}},{"type":"Feature","geometry":{"type":"Point","coordinates":[115.411946,39.762034]},"properties":{"region_id":"11707786872391290488","region_name":"鱼谷洞景区","intensity":0,"avg_speed":79.52,"crowd_value_zs":0.15,"crowd_value_yj":1.125,"area":"涞水县","sort":50}},{"type":"Feature","geometry":{"type":"Point","coordinates":[115.222493,39.30632]},"properties":{"region_id":"6738741236631362221","region_name":"易水湖景区","intensity":0,"avg_speed":54.9,"crowd_value_zs":0.54,"crowd_value_yj":1.073,"area":"易县","sort":51}},{"type":"Feature","geometry":{"type":"Point","coordinates":[115.390032,39.65977]},"properties":{"region_id":"12385359941089248117","region_name":"野三坡百里峡景区","intensity":0,"avg_speed":46.26,"crowd_value_zs":0.08,"crowd_value_yj":1.064,"area":"涞水县","sort":52}},{"type":"Feature","geometry":{"type":"Point","coordinates":[115.245761,39.289472]},"properties":{"region_id":"9576945700658483279","region_name":"恋乡太行水镇","intensity":0,"avg_speed":46.6,"crowd_value_zs":0.56,"crowd_value_yj":1.054,"area":"易县","sort":53}},{"type":"Feature","geometry":{"type":"Point","coordinates":[115.486196,39.803452]},"properties":{"region_id":"11666957287892312890","region_name":"野三坡白草畔森林公园","intensity":0,"avg_speed":77.09,"crowd_value_zs":3.34,"crowd_value_yj":1.046,"area":"涞水县","sort":54}},{"type":"Feature","geometry":{"type":"Point","coordinates":[115.040357,39.061149]},"properties":{"region_id":"7522577708226692079","region_name":"大平台龙居瀑布旅游区","intensity":0,"avg_speed":39.67,"crowd_value_zs":0.0,"crowd_value_yj":1.041,"area":"满城区","sort":55}},{"type":"Feature","geometry":{"type":"Point","coordinates":[115.385732,39.668438]},"properties":{"region_id":"16654848284705760391","region_name":"野三坡景区","intensity":0,"avg_speed":79.18,"crowd_value_zs":19.04,"crowd_value_yj":1.036,"area":"涞水县","sort":56}},{"type":"Feature","geometry":{"type":"Point","coordinates":[113.887711,38.862317]},"properties":{"region_id":"4530858562086542527","region_name":"天生桥瀑布群自然风景区","intensity":0,"avg_speed":48.79,"crowd_value_zs":0.26,"crowd_value_yj":1.0,"area":"阜平县","sort":57}},{"type":"Feature","geometry":{"type":"Point","coordinates":[114.702785,39.216725]},"properties":{"region_id":"16351601565148060214","region_name":"白石山景区风景区","intensity":0,"avg_speed":58.18,"crowd_value_zs":0.36,"crowd_value_yj":0.938,"area":"涞源县","sort":58}},{"type":"Feature","geometry":{"type":"Point","coordinates":[114.563908,38.931158]},"properties":{"region_id":"18009712025852182527","region_name":"虎山风景区","intensity":0,"avg_speed":36.25,"crowd_value_zs":0.51,"crowd_value_yj":0.854,"area":"曲阳县","sort":59}},{"type":"Feature","geometry":{"type":"Point","coordinates":[115.177279,39.132871]},"properties":{"region_id":"4047763719959869165","region_name":"狼牙山景区","intensity":0,"avg_speed":69.2,"crowd_value_zs":0.22,"crowd_value_yj":0.848,"area":"易县","sort":60}}]}}