{"msg":"获取成功！","end_at":"2024-03-19 10:10:09","data":{"type":"FeatureCollection","features":[{"type":"Feature","geometry":{"type":"Point","coordinates":[118.825173,32.040682]},"properties":{"region_id":"18003706815463817215","region_name":"南京博物院","intensity":3,"avg_speed":11.69,"crowd_value_zs":3.03,"crowd_value_yj":2.882,"area":"玄武区","sort":1}},{"type":"Feature","geometry":{"type":"Point","coordinates":[118.844979,32.053635]},"properties":{"region_id":"17671488569677447167","region_name":"南京海底世界","intensity":3,"avg_speed":16.8,"crowd_value_zs":0.14,"crowd_value_yj":2.787,"area":"玄武区","sort":2}},{"type":"Feature","geometry":{"type":"Point","coordinates":[118.817926,32.041439]},"properties":{"region_id":"4253855521105998989","region_name":"明故宫","intensity":3,"avg_speed":14.76,"crowd_value_zs":2.3,"crowd_value_yj":2.544,"area":"玄武区","sort":3}},{"type":"Feature","geometry":{"type":"Point","coordinates":[118.765688,32.009309]},"properties":{"region_id":"4347371784709995811","region_name":"虹悦城","intensity":3,"avg_speed":20.66,"crowd_value_zs":4.4,"crowd_value_yj":2.473,"area":"雨花台区","sort":4}},{"type":"Feature","geometry":{"type":"Point","coordinates":[118.800544,32.087829]},"properties":{"region_id":"17066219685844118876","region_name":"南京汽车客运站","intensity":3,"avg_speed":21.31,"crowd_value_zs":1.02,"crowd_value_yj":2.428,"area":"玄武区","sort":5}},{"type":"Feature","geometry":{"type":"Point","coordinates":[118.840811,32.051001]},"properties":{"region_id":"4453983195283739866","region_name":"明孝陵景区","intensity":3,"avg_speed":16.88,"crowd_value_zs":8.71,"crowd_value_yj":2.414,"area":"玄武区","sort":6}},{"type":"Feature","geometry":{"type":"Point","coordinates":[118.783021,32.009221]},"properties":{"region_id":"6839194141200103730","region_name":"大报恩寺遗址景区","intensity":3,"avg_speed":23.12,"crowd_value_zs":0.92,"crowd_value_yj":2.269,"area":"秦淮区","sort":7}},{"type":"Feature","geometry":{"type":"Point","coordinates":[118.797297,32.087146]},"properties":{"region_id":"4910702705349720683","region_name":"南京站","intensity":3,"avg_speed":21.15,"crowd_value_zs":35.61,"crowd_value_yj":2.22,"area":"玄武区","sort":8}},{"type":"Feature","geometry":{"type":"Point","coordinates":[118.781793,32.012765]},"properties":{"region_id":"18003632628493713407","region_name":"中华门瓮城","intensity":3,"avg_speed":21.49,"crowd_value_zs":1.58,"crowd_value_yj":2.212,"area":"秦淮区","sort":9}},{"type":"Feature","geometry":{"type":"Point","coordinates":[118.789554,32.019897]},"properties":{"region_id":"15192665297957034486","region_name":"南京夫子庙-秦淮风光带","intensity":3,"avg_speed":20.98,"crowd_value_zs":193.29,"crowd_value_yj":2.189,"area":"秦淮区","sort":10}},{"type":"Feature","geometry":{"type":"Point","coordinates":[118.787728,32.011736]},"properties":{"region_id":"2424380540718502295","region_name":"老门东","intensity":3,"avg_speed":23.37,"crowd_value_zs":6.72,"crowd_value_yj":2.188,"area":"秦淮区","sort":11}},{"type":"Feature","geometry":{"type":"Point","coordinates":[118.781624,31.997806]},"properties":{"region_id":"1251976454691274111","region_name":"雨花台风景名胜区","intensity":3,"avg_speed":24.67,"crowd_value_zs":2.34,"crowd_value_yj":2.186,"area":"雨花台区","sort":12}},{"type":"Feature","geometry":{"type":"Point","coordinates":[118.797719,31.977595]},"properties":{"region_id":"8369442823570555209","region_name":"南京明发商业广场","intensity":3,"avg_speed":27.97,"crowd_value_zs":10.07,"crowd_value_yj":2.145,"area":"雨花台区","sort":13}},{"type":"Feature","geometry":{"type":"Point","coordinates":[118.797926,31.968667]},"properties":{"region_id":"4487557956767292615","region_name":"南京南站","intensity":3,"avg_speed":28.69,"crowd_value_zs":76.52,"crowd_value_yj":2.132,"area":"雨花台区","sort":14}},{"type":"Feature","geometry":{"type":"Point","coordinates":[118.802984,32.091898]},"properties":{"region_id":"8886694709518387649","region_name":"红山森林动物园","intensity":3,"avg_speed":22.39,"crowd_value_zs":3.74,"crowd_value_yj":2.129,"area":"玄武区","sort":15}},{"type":"Feature","geometry":{"type":"Point","coordinates":[118.795135,32.017931]},"properties":{"region_id":"1261497710914043903","region_name":"白鹭洲公园","intensity":3,"avg_speed":22.62,"crowd_value_zs":2.1,"crowd_value_yj":2.121,"area":"秦淮区","sort":16}},{"type":"Feature","geometry":{"type":"Point","coordinates":[118.8219,32.08441]},"properties":{"region_id":"2659338436323544460","region_name":"南京长途汽车东站","intensity":3,"avg_speed":24.32,"crowd_value_zs":0.5,"crowd_value_yj":2.118,"area":"玄武区","sort":17}},{"type":"Feature","geometry":{"type":"Point","coordinates":[118.776963,32.066917]},"properties":{"region_id":"12204388925744804452","region_name":"吾悦广场","intensity":3,"avg_speed":17.03,"crowd_value_zs":3.71,"crowd_value_yj":2.107,"area":"鼓楼区","sort":18}},{"type":"Feature","geometry":{"type":"Point","coordinates":[118.783189,32.072484]},"properties":{"region_id":"3318597852075918645","region_name":"金茂汇","intensity":3,"avg_speed":17.86,"crowd_value_zs":7.21,"crowd_value_yj":2.103,"area":"鼓楼区","sort":19}},{"type":"Feature","geometry":{"type":"Point","coordinates":[118.852798,32.063618]},"properties":{"region_id":"17669391066563870719","region_name":"钟山风景名胜区","intensity":2,"avg_speed":26.67,"crowd_value_zs":36.29,"crowd_value_yj":1.982,"area":"玄武区","sort":20}},{"type":"Feature","geometry":{"type":"Point","coordinates":[118.698912,32.112536]},"properties":{"region_id":"5204378679876874190","region_name":"澳林广场","intensity":2,"avg_speed":29.82,"crowd_value_zs":3.3,"crowd_value_yj":1.97,"area":"浦口区","sort":21}},{"type":"Feature","geometry":{"type":"Point","coordinates":[118.797569,32.070016]},"properties":{"region_id":"3904745708166226628","region_name":"玄武湖公园","intensity":2,"avg_speed":21.25,"crowd_value_zs":46.17,"crowd_value_yj":1.967,"area":"玄武区","sort":22}},{"type":"Feature","geometry":{"type":"Point","coordinates":[118.799225,32.022275]},"properties":{"region_id":"9206737335329215531","region_name":"东水关遗址公园","intensity":2,"avg_speed":21.17,"crowd_value_zs":0.59,"crowd_value_yj":1.93,"area":"秦淮区","sort":23}},{"type":"Feature","geometry":{"type":"Point","coordinates":[118.754431,32.028754]},"properties":{"region_id":"8815968292676628301","region_name":"南湖公交场站","intensity":2,"avg_speed":21.5,"crowd_value_zs":0.27,"crowd_value_yj":1.918,"area":"建邺区","sort":24}},{"type":"Feature","geometry":{"type":"Point","coordinates":[118.746523,32.094097]},"properties":{"region_id":"18003660666040221695","region_name":"南京阅江楼风景区","intensity":2,"avg_speed":18.98,"crowd_value_zs":2.16,"crowd_value_yj":1.903,"area":"鼓楼区","sort":25}},{"type":"Feature","geometry":{"type":"Point","coordinates":[118.795437,32.060774]},"properties":{"region_id":"18003707193420939263","region_name":"古鸡鸣寺","intensity":2,"avg_speed":20.14,"crowd_value_zs":2.56,"crowd_value_yj":1.839,"area":"玄武区","sort":26}},{"type":"Feature","geometry":{"type":"Point","coordinates":[118.797425,32.04421]},"properties":{"region_id":"484022590005699937","region_name":"总统府(暂停营业)","intensity":2,"avg_speed":18.72,"crowd_value_zs":2.77,"crowd_value_yj":1.833,"area":"玄武区","sort":27}},{"type":"Feature","geometry":{"type":"Point","coordinates":[118.797395,32.044217]},"properties":{"region_id":"18003706781104078847","region_name":"南京总统府景区","intensity":2,"avg_speed":18.76,"crowd_value_zs":2.95,"crowd_value_yj":1.825,"area":"玄武区","sort":28}},{"type":"Feature","geometry":{"type":"Point","coordinates":[118.790791,32.021095]},"properties":{"region_id":"1827558495338826379","region_name":"江南贡院","intensity":2,"avg_speed":21.61,"crowd_value_zs":3.41,"crowd_value_yj":1.819,"area":"秦淮区","sort":29}},{"type":"Feature","geometry":{"type":"Point","coordinates":[118.775319,32.034354]},"properties":{"region_id":"18003593720384978943","region_name":"朝天宫景区","intensity":1,"avg_speed":18.9,"crowd_value_zs":2.24,"crowd_value_yj":1.791,"area":"秦淮区","sort":30}},{"type":"Feature","geometry":{"type":"Point","coordinates":[118.740439,32.022317]},"properties":{"region_id":"4834227655577964329","region_name":"金鹰世界","intensity":1,"avg_speed":24.66,"crowd_value_zs":8.36,"crowd_value_yj":1.776,"area":"建邺区","sort":31}},{"type":"Feature","geometry":{"type":"Point","coordinates":[118.786947,32.019136]},"properties":{"region_id":"1258869397087322111","region_name":"瞻园奥特莱斯","intensity":1,"avg_speed":22.8,"crowd_value_zs":2.04,"crowd_value_yj":1.745,"area":"秦淮区","sort":32}},{"type":"Feature","geometry":{"type":"Point","coordinates":[118.733529,32.087662]},"properties":{"region_id":"18003660678925123583","region_name":"中山码头","intensity":1,"avg_speed":18.41,"crowd_value_zs":0.22,"crowd_value_yj":1.721,"area":"鼓楼区","sort":33}},{"type":"Feature","geometry":{"type":"Point","coordinates":[118.785369,32.022487]},"properties":{"region_id":"10785931562630641824","region_name":"南京茂业天地","intensity":1,"avg_speed":21.19,"crowd_value_zs":2.9,"crowd_value_yj":1.626,"area":"秦淮区","sort":34}},{"type":"Feature","geometry":{"type":"Point","coordinates":[118.780009,32.04148]},"properties":{"region_id":"8602231781398999752","region_name":"金鹰中心","intensity":1,"avg_speed":19.21,"crowd_value_zs":6.49,"crowd_value_yj":1.624,"area":"秦淮区","sort":35}},{"type":"Feature","geometry":{"type":"Point","coordinates":[118.783394,32.038785]},"properties":{"region_id":"3038535622144390635","region_name":"大洋百货(新街口店)","intensity":1,"avg_speed":18.11,"crowd_value_zs":5.22,"crowd_value_yj":1.615,"area":"秦淮区","sort":36}},{"type":"Feature","geometry":{"type":"Point","coordinates":[118.786092,32.023816]},"properties":{"region_id":"17835495125690613759","region_name":"鹏欣水游城","intensity":1,"avg_speed":20.51,"crowd_value_zs":4.73,"crowd_value_yj":1.606,"area":"秦淮区","sort":37}},{"type":"Feature","geometry":{"type":"Point","coordinates":[118.834008,32.123566]},"properties":{"region_id":"16962985455840634387","region_name":"招商花园城(燕子矶店)","intensity":1,"avg_speed":31.5,"crowd_value_zs":3.32,"crowd_value_yj":1.561,"area":"栖霞区","sort":38}},{"type":"Feature","geometry":{"type":"Point","coordinates":[118.823153,31.927199]},"properties":{"region_id":"16414883083334413639","region_name":"21世纪太阳城购物中心","intensity":1,"avg_speed":24.56,"crowd_value_zs":4.81,"crowd_value_yj":1.506,"area":"江宁区","sort":39}},{"type":"Feature","geometry":{"type":"Point","coordinates":[118.785406,32.038736]},"properties":{"region_id":"2184636153153485310","region_name":"中央商场(新街口店)","intensity":0,"avg_speed":17.96,"crowd_value_zs":5.69,"crowd_value_yj":1.498,"area":"秦淮区","sort":40}},{"type":"Feature","geometry":{"type":"Point","coordinates":[118.784897,32.043963]},"properties":{"region_id":"1258399854082654207","region_name":"德基广场","intensity":0,"avg_speed":18.1,"crowd_value_zs":11.53,"crowd_value_yj":1.491,"area":"玄武区","sort":41}},{"type":"Feature","geometry":{"type":"Point","coordinates":[118.78475,32.04706]},"properties":{"region_id":"14474180824249690370","region_name":"艾尚天地","intensity":0,"avg_speed":18.49,"crowd_value_zs":2.6,"crowd_value_yj":1.464,"area":"玄武区","sort":42}},{"type":"Feature","geometry":{"type":"Point","coordinates":[118.820126,31.929657]},"properties":{"region_id":"11173666083400128624","region_name":"景枫KINGMO","intensity":0,"avg_speed":25.07,"crowd_value_zs":9.52,"crowd_value_yj":1.456,"area":"江宁区","sort":43}},{"type":"Feature","geometry":{"type":"Point","coordinates":[118.78885,32.059389]},"properties":{"region_id":"5897047578897163079","region_name":"环亚凯瑟琳广场","intensity":0,"avg_speed":21.29,"crowd_value_zs":3.2,"crowd_value_yj":1.452,"area":"玄武区","sort":44}},{"type":"Feature","geometry":{"type":"Point","coordinates":[118.822888,31.895725]},"properties":{"region_id":"8134924790078237684","region_name":"南京同仁客运站","intensity":0,"avg_speed":26.05,"crowd_value_zs":0.1,"crowd_value_yj":1.445,"area":"江宁区","sort":45}},{"type":"Feature","geometry":{"type":"Point","coordinates":[118.752787,32.044677]},"properties":{"region_id":"4710961771547664325","region_name":"南京中海环宇城","intensity":0,"avg_speed":29.65,"crowd_value_zs":4.75,"crowd_value_yj":1.444,"area":"鼓楼区","sort":46}},{"type":"Feature","geometry":{"type":"Point","coordinates":[118.722039,31.997491]},"properties":{"region_id":"497558624215206759","region_name":"华采天地","intensity":0,"avg_speed":28.21,"crowd_value_zs":6.2,"crowd_value_yj":1.442,"area":"建邺区","sort":47}},{"type":"Feature","geometry":{"type":"Point","coordinates":[118.895609,32.257704]},"properties":{"region_id":"16179288893413141918","region_name":"瓜埠客运站","intensity":0,"avg_speed":36.54,"crowd_value_zs":0.18,"crowd_value_yj":1.427,"area":"六合区","sort":48}},{"type":"Feature","geometry":{"type":"Point","coordinates":[118.633924,32.065142]},"properties":{"region_id":"10887473854036832161","region_name":"江浦客运站","intensity":0,"avg_speed":34.55,"crowd_value_zs":0.35,"crowd_value_yj":1.404,"area":"浦口区","sort":49}},{"type":"Feature","geometry":{"type":"Point","coordinates":[118.897784,31.333027]},"properties":{"region_id":"18003734702686470143","region_name":"高淳汽车客运站","intensity":0,"avg_speed":31.39,"crowd_value_zs":0.34,"crowd_value_yj":1.296,"area":"高淳区","sort":50}},{"type":"Feature","geometry":{"type":"Point","coordinates":[118.754192,32.243969]},"properties":{"region_id":"4309232681851382934","region_name":"南京葛塘汽车客运站","intensity":0,"avg_speed":52.74,"crowd_value_zs":0.95,"crowd_value_yj":1.251,"area":"六合区","sort":51}},{"type":"Feature","geometry":{"type":"Point","coordinates":[118.85947,31.770051]},"properties":{"region_id":"17671490742930898943","region_name":"禄口客运站","intensity":0,"avg_speed":40.46,"crowd_value_zs":0.03,"crowd_value_yj":1.245,"area":"江宁区","sort":52}},{"type":"Feature","geometry":{"type":"Point","coordinates":[118.846052,32.365435]},"properties":{"region_id":"6635096078256128414","region_name":"六合站","intensity":0,"avg_speed":32.79,"crowd_value_zs":0.01,"crowd_value_yj":1.234,"area":"六合区","sort":53}},{"type":"Feature","geometry":{"type":"Point","coordinates":[118.640404,31.789454]},"properties":{"region_id":"17626480709734498303","region_name":"南京陆郎客运站","intensity":0,"avg_speed":41.01,"crowd_value_zs":0.41,"crowd_value_yj":1.228,"area":"江宁区","sort":54}},{"type":"Feature","geometry":{"type":"Point","coordinates":[118.88134,31.939769]},"properties":{"region_id":"17651551890634626239","region_name":"江宁客运东站","intensity":0,"avg_speed":43.25,"crowd_value_zs":1.56,"crowd_value_yj":1.214,"area":"江宁区","sort":55}},{"type":"Feature","geometry":{"type":"Point","coordinates":[118.416781,31.935999]},"properties":{"region_id":"11627004147861853945","region_name":"石桥客运站","intensity":0,"avg_speed":40.11,"crowd_value_zs":0.0,"crowd_value_yj":1.208,"area":"浦口区","sort":56}},{"type":"Feature","geometry":{"type":"Point","coordinates":[119.096476,31.678866]},"properties":{"region_id":"7108902820375244604","region_name":"溧水站","intensity":0,"avg_speed":45.06,"crowd_value_zs":2.63,"crowd_value_yj":1.203,"area":"溧水区","sort":57}},{"type":"Feature","geometry":{"type":"Point","coordinates":[118.912999,32.122778]},"properties":{"region_id":"4241382881384704594","region_name":"仙林站","intensity":0,"avg_speed":52.21,"crowd_value_zs":0.74,"crowd_value_yj":1.194,"area":"栖霞区","sort":58}},{"type":"Feature","geometry":{"type":"Point","coordinates":[119.046303,31.66368]},"properties":{"region_id":"2936879248835142738","region_name":"溧水汽车客运站","intensity":0,"avg_speed":30.16,"crowd_value_zs":0.99,"crowd_value_yj":1.191,"area":"溧水区","sort":59}},{"type":"Feature","geometry":{"type":"Point","coordinates":[118.690514,32.514382]},"properties":{"region_id":"17660823083549720575","region_name":"竹镇客运站","intensity":0,"avg_speed":41.55,"crowd_value_zs":0.06,"crowd_value_yj":1.186,"area":"六合区","sort":60}}]}}