{"msg":"获取成功！","end_at":"2024-03-20 01:21:02","data":{"type":"FeatureCollection","features":[{"type":"Feature","geometry":{"type":"Point","coordinates":[120.335211,31.59202]},"properties":{"region_id":"11128874513179326042","region_name":"广益哥伦布","intensity":3,"avg_speed":20.06,"crowd_value_zs":3.04,"crowd_value_yj":2.405,"area":"梁溪区","sort":1}},{"type":"Feature","geometry":{"type":"Point","coordinates":[120.258286,31.517973]},"properties":{"region_id":"15009896705278988188","region_name":"蠡园","intensity":3,"avg_speed":26.5,"crowd_value_zs":1.67,"crowd_value_yj":2.042,"area":"滨湖区","sort":2}},{"type":"Feature","geometry":{"type":"Point","coordinates":[120.282686,31.513638]},"properties":{"region_id":"11813198195646893873","region_name":"万象城(金石路)","intensity":2,"avg_speed":27.72,"crowd_value_zs":2.46,"crowd_value_yj":1.852,"area":"滨湖区","sort":3}},{"type":"Feature","geometry":{"type":"Point","coordinates":[120.26683,31.562044]},"properties":{"region_id":"1263864104750153727","region_name":"万达广场(梁溪路店)","intensity":2,"avg_speed":25.81,"crowd_value_zs":3.23,"crowd_value_yj":1.826,"area":"滨湖区","sort":4}},{"type":"Feature","geometry":{"type":"Point","coordinates":[120.445919,31.520855]},"properties":{"region_id":"6358525167772860239","region_name":"百联奥特莱斯广场","intensity":1,"avg_speed":37.69,"crowd_value_zs":0.8,"crowd_value_yj":1.699,"area":"新吴区","sort":5}},{"type":"Feature","geometry":{"type":"Point","coordinates":[120.308284,31.592574]},"properties":{"region_id":"11833587315666166423","region_name":"无锡汽车客运站","intensity":1,"avg_speed":26.87,"crowd_value_zs":2.89,"crowd_value_yj":1.668,"area":"梁溪区","sort":6}},{"type":"Feature","geometry":{"type":"Point","coordinates":[120.305529,31.587151]},"properties":{"region_id":"1317339284250084639","region_name":"无锡站","intensity":1,"avg_speed":23.54,"crowd_value_zs":28.0,"crowd_value_yj":1.571,"area":"梁溪区","sort":7}},{"type":"Feature","geometry":{"type":"Point","coordinates":[120.298834,31.57705]},"properties":{"region_id":"3064262602537847169","region_name":"大东方百货","intensity":1,"avg_speed":21.0,"crowd_value_zs":4.24,"crowd_value_yj":1.556,"area":"梁溪区","sort":8}},{"type":"Feature","geometry":{"type":"Point","coordinates":[120.299951,31.57937]},"properties":{"region_id":"12032209284662073094","region_name":"T12时尚购物中心","intensity":1,"avg_speed":21.43,"crowd_value_zs":1.15,"crowd_value_yj":1.531,"area":"梁溪区","sort":9}},{"type":"Feature","geometry":{"type":"Point","coordinates":[120.301072,31.576932]},"properties":{"region_id":"5838504053187492151","region_name":"崇安寺旅游景区","intensity":1,"avg_speed":21.75,"crowd_value_zs":6.02,"crowd_value_yj":1.522,"area":"梁溪区","sort":10}},{"type":"Feature","geometry":{"type":"Point","coordinates":[120.395136,31.582439]},"properties":{"region_id":"6023006984746683753","region_name":"无锡荟聚中心","intensity":0,"avg_speed":41.16,"crowd_value_zs":5.36,"crowd_value_yj":1.455,"area":"锡山区","sort":11}},{"type":"Feature","geometry":{"type":"Point","coordinates":[120.227005,31.5235]},"properties":{"region_id":"18002787623742996479","region_name":"太湖鼋头渚风景区","intensity":0,"avg_speed":34.82,"crowd_value_zs":12.16,"crowd_value_yj":1.42,"area":"滨湖区","sort":12}},{"type":"Feature","geometry":{"type":"Point","coordinates":[120.433588,31.50313]},"properties":{"region_id":"1263704284722102271","region_name":"苏南硕放国际机场","intensity":0,"avg_speed":43.75,"crowd_value_zs":8.55,"crowd_value_yj":1.417,"area":"新吴区","sort":13}},{"type":"Feature","geometry":{"type":"Point","coordinates":[120.297328,31.574327]},"properties":{"region_id":"682454051958157130","region_name":"恒隆广场","intensity":0,"avg_speed":23.24,"crowd_value_zs":5.56,"crowd_value_yj":1.395,"area":"梁溪区","sort":14}},{"type":"Feature","geometry":{"type":"Point","coordinates":[120.270922,31.577575]},"properties":{"region_id":"2266427651946310040","region_name":"无锡锡惠公园","intensity":0,"avg_speed":34.13,"crowd_value_zs":5.69,"crowd_value_yj":1.357,"area":"梁溪区","sort":15}},{"type":"Feature","geometry":{"type":"Point","coordinates":[120.299548,31.675142]},"properties":{"region_id":"18339060091574579763","region_name":"万达广场(无锡惠山店)","intensity":0,"avg_speed":41.01,"crowd_value_zs":2.89,"crowd_value_yj":1.343,"area":"惠山区","sort":16}},{"type":"Feature","geometry":{"type":"Point","coordinates":[120.409441,31.718076]},"properties":{"region_id":"16405552729665593939","region_name":"文林汽车站","intensity":0,"avg_speed":35.54,"crowd_value_zs":0.1,"crowd_value_yj":1.335,"area":"江阴市","sort":17}},{"type":"Feature","geometry":{"type":"Point","coordinates":[120.340612,31.865435]},"properties":{"region_id":"17671361206717251583","region_name":"江阴云亭站","intensity":0,"avg_speed":35.06,"crowd_value_zs":0.1,"crowd_value_yj":1.297,"area":"江阴市","sort":18}},{"type":"Feature","geometry":{"type":"Point","coordinates":[119.783867,31.251111]},"properties":{"region_id":"1259745729329496063","region_name":"张公洞风景区","intensity":0,"avg_speed":49.13,"crowd_value_zs":0.28,"crowd_value_yj":1.295,"area":"宜兴市","sort":19}},{"type":"Feature","geometry":{"type":"Point","coordinates":[120.247351,31.579527]},"properties":{"region_id":"1620654481493238906","region_name":"惠山国家森林公园","intensity":0,"avg_speed":39.96,"crowd_value_zs":5.34,"crowd_value_yj":1.292,"area":"滨湖区","sort":20}},{"type":"Feature","geometry":{"type":"Point","coordinates":[120.302523,31.572152]},"properties":{"region_id":"9185025969454607852","region_name":"无锡八佰伴(中山路店)","intensity":0,"avg_speed":25.1,"crowd_value_zs":1.54,"crowd_value_yj":1.264,"area":"梁溪区","sort":21}},{"type":"Feature","geometry":{"type":"Point","coordinates":[120.459132,31.598895]},"properties":{"region_id":"2544975620451371120","region_name":"无锡汽车东站","intensity":0,"avg_speed":32.47,"crowd_value_zs":0.68,"crowd_value_yj":1.227,"area":"锡山区","sort":22}},{"type":"Feature","geometry":{"type":"Point","coordinates":[120.486615,31.743223]},"properties":{"region_id":"1468213752977864758","region_name":"长泾客运站","intensity":0,"avg_speed":37.96,"crowd_value_zs":0.06,"crowd_value_yj":1.226,"area":"江阴市","sort":23}},{"type":"Feature","geometry":{"type":"Point","coordinates":[120.234317,31.481556]},"properties":{"region_id":"14181824536248731167","region_name":"三国水浒城景区","intensity":0,"avg_speed":42.3,"crowd_value_zs":3.03,"crowd_value_yj":1.225,"area":"滨湖区","sort":24}},{"type":"Feature","geometry":{"type":"Point","coordinates":[119.711548,31.494375]},"properties":{"region_id":"18002875498773872639","region_name":"官林汽车站","intensity":0,"avg_speed":37.42,"crowd_value_zs":0.08,"crowd_value_yj":1.222,"area":"宜兴市","sort":25}},{"type":"Feature","geometry":{"type":"Point","coordinates":[119.831887,31.247438]},"properties":{"region_id":"120662727545157373","region_name":"宜兴丁蜀汽车客运站","intensity":0,"avg_speed":38.31,"crowd_value_zs":0.29,"crowd_value_yj":1.218,"area":"宜兴市","sort":26}},{"type":"Feature","geometry":{"type":"Point","coordinates":[120.274227,31.581655]},"properties":{"region_id":"1261115149587054591","region_name":"惠山古镇","intensity":0,"avg_speed":41.09,"crowd_value_zs":4.94,"crowd_value_yj":1.205,"area":"梁溪区","sort":27}},{"type":"Feature","geometry":{"type":"Point","coordinates":[119.843532,31.358103]},"properties":{"region_id":"3137543005892428619","region_name":"宜兴八佰伴购物中心","intensity":0,"avg_speed":31.52,"crowd_value_zs":1.66,"crowd_value_yj":1.204,"area":"宜兴市","sort":28}},{"type":"Feature","geometry":{"type":"Point","coordinates":[119.851829,31.363945]},"properties":{"region_id":"12663214308145309620","region_name":"万达广场(宜兴店)","intensity":0,"avg_speed":30.62,"crowd_value_zs":1.74,"crowd_value_yj":1.203,"area":"宜兴市","sort":29}},{"type":"Feature","geometry":{"type":"Point","coordinates":[120.460116,31.59692]},"properties":{"region_id":"5564472394821064659","region_name":"无锡东站","intensity":0,"avg_speed":35.04,"crowd_value_zs":8.81,"crowd_value_yj":1.203,"area":"锡山区","sort":30}},{"type":"Feature","geometry":{"type":"Point","coordinates":[120.30923,31.550054]},"properties":{"region_id":"1263787761706467327","region_name":"茂业天地(清扬店)","intensity":0,"avg_speed":33.47,"crowd_value_zs":6.89,"crowd_value_yj":1.202,"area":"梁溪区","sort":31}},{"type":"Feature","geometry":{"type":"Point","coordinates":[119.669796,31.299181]},"properties":{"region_id":"18002878174538498047","region_name":"善卷洞风景区","intensity":0,"avg_speed":46.07,"crowd_value_zs":0.54,"crowd_value_yj":1.2,"area":"宜兴市","sort":32}},{"type":"Feature","geometry":{"type":"Point","coordinates":[119.810099,31.382522]},"properties":{"region_id":"18002876383537135615","region_name":"宜兴汽车客运站","intensity":0,"avg_speed":30.67,"crowd_value_zs":1.54,"crowd_value_yj":1.193,"area":"宜兴市","sort":33}},{"type":"Feature","geometry":{"type":"Point","coordinates":[120.308721,31.566753]},"properties":{"region_id":"1259279441910038527","region_name":"南禅寺","intensity":0,"avg_speed":29.22,"crowd_value_zs":7.26,"crowd_value_yj":1.192,"area":"梁溪区","sort":34}},{"type":"Feature","geometry":{"type":"Point","coordinates":[120.270243,31.878298]},"properties":{"region_id":"6764294801618844216","region_name":"世新客运站","intensity":0,"avg_speed":40.85,"crowd_value_zs":0.97,"crowd_value_yj":1.184,"area":"江阴市","sort":35}},{"type":"Feature","geometry":{"type":"Point","coordinates":[120.305987,31.54976]},"properties":{"region_id":"7090943425465052695","region_name":"无锡博物院","intensity":0,"avg_speed":33.61,"crowd_value_zs":1.01,"crowd_value_yj":1.184,"area":"梁溪区","sort":36}},{"type":"Feature","geometry":{"type":"Point","coordinates":[120.44597,31.818268]},"properties":{"region_id":"6374503266995015995","region_name":"华西汽车客运站","intensity":0,"avg_speed":74.91,"crowd_value_zs":0.1,"crowd_value_yj":1.168,"area":"江阴市","sort":37}},{"type":"Feature","geometry":{"type":"Point","coordinates":[119.815154,31.327074]},"properties":{"region_id":"18002876374947201023","region_name":"龙背山森林公园","intensity":0,"avg_speed":63.58,"crowd_value_zs":1.04,"crowd_value_yj":1.164,"area":"宜兴市","sort":38}},{"type":"Feature","geometry":{"type":"Point","coordinates":[120.325821,31.558948]},"properties":{"region_id":"11544823263554490531","region_name":"无锡国际招商城","intensity":0,"avg_speed":38.98,"crowd_value_zs":16.12,"crowd_value_yj":1.164,"area":"新吴区","sort":39}},{"type":"Feature","geometry":{"type":"Point","coordinates":[120.351621,31.540541]},"properties":{"region_id":"1261653790025580543","region_name":"宝龙城市广场","intensity":0,"avg_speed":39.09,"crowd_value_zs":3.16,"crowd_value_yj":1.145,"area":"新吴区","sort":40}},{"type":"Feature","geometry":{"type":"Point","coordinates":[120.392031,31.498424]},"properties":{"region_id":"7903887972038690544","region_name":"无锡新区站","intensity":0,"avg_speed":43.02,"crowd_value_zs":4.77,"crowd_value_yj":1.145,"area":"新吴区","sort":41}},{"type":"Feature","geometry":{"type":"Point","coordinates":[120.303177,31.488314]},"properties":{"region_id":"12248421648617207137","region_name":"海岸城","intensity":0,"avg_speed":38.86,"crowd_value_zs":3.85,"crowd_value_yj":1.127,"area":"滨湖区","sort":42}},{"type":"Feature","geometry":{"type":"Point","coordinates":[120.55315,31.525376]},"properties":{"region_id":"17453705699538359497","region_name":"荡口古镇景区","intensity":0,"avg_speed":37.2,"crowd_value_zs":1.48,"crowd_value_yj":1.124,"area":"锡山区","sort":43}},{"type":"Feature","geometry":{"type":"Point","coordinates":[120.397754,31.854558]},"properties":{"region_id":"17671361060688363519","region_name":"江阴周庄客运站","intensity":0,"avg_speed":39.27,"crowd_value_zs":0.38,"crowd_value_yj":1.116,"area":"江阴市","sort":44}},{"type":"Feature","geometry":{"type":"Point","coordinates":[119.627903,31.264187]},"properties":{"region_id":"18002878161653596159","region_name":"张渚客运站","intensity":0,"avg_speed":41.8,"crowd_value_zs":0.19,"crowd_value_yj":1.115,"area":"宜兴市","sort":45}},{"type":"Feature","geometry":{"type":"Point","coordinates":[120.36454,31.484664]},"properties":{"region_id":"14875039021849395131","region_name":"万达广场(新吴店)","intensity":0,"avg_speed":35.96,"crowd_value_zs":2.35,"crowd_value_yj":1.11,"area":"新吴区","sort":46}},{"type":"Feature","geometry":{"type":"Point","coordinates":[120.553012,31.773036]},"properties":{"region_id":"18002725973782429695","region_name":"江阴北国汽车站","intensity":0,"avg_speed":43.27,"crowd_value_zs":0.06,"crowd_value_yj":1.109,"area":"江阴市","sort":47}},{"type":"Feature","geometry":{"type":"Point","coordinates":[119.695897,31.165636]},"properties":{"region_id":"18002878591150325759","region_name":"竹海风景区","intensity":0,"avg_speed":75.88,"crowd_value_zs":1.01,"crowd_value_yj":1.105,"area":"宜兴市","sort":48}},{"type":"Feature","geometry":{"type":"Point","coordinates":[120.519724,31.795609]},"properties":{"region_id":"17671361631919013887","region_name":"江阴新桥客运站","intensity":0,"avg_speed":40.8,"crowd_value_zs":0.08,"crowd_value_yj":1.103,"area":"江阴市","sort":49}},{"type":"Feature","geometry":{"type":"Point","coordinates":[119.813911,31.311643]},"properties":{"region_id":"17341888839510756359","region_name":"宜兴站","intensity":0,"avg_speed":75.46,"crowd_value_zs":5.59,"crowd_value_yj":1.096,"area":"宜兴市","sort":50}},{"type":"Feature","geometry":{"type":"Point","coordinates":[120.243609,31.898439]},"properties":{"region_id":"1260203723167105023","region_name":"万达广场(江阴店)","intensity":0,"avg_speed":39.19,"crowd_value_zs":3.32,"crowd_value_yj":1.092,"area":"江阴市","sort":51}},{"type":"Feature","geometry":{"type":"Point","coordinates":[120.272015,31.448852]},"properties":{"region_id":"2503082094757376436","region_name":"融创茂","intensity":0,"avg_speed":56.05,"crowd_value_zs":1.44,"crowd_value_yj":1.069,"area":"滨湖区","sort":52}},{"type":"Feature","geometry":{"type":"Point","coordinates":[120.3238,31.452199]},"properties":{"region_id":"15218913709657464831","region_name":"贡湖湾湿地公园","intensity":0,"avg_speed":72.44,"crowd_value_zs":4.87,"crowd_value_yj":1.052,"area":"滨湖区","sort":53}},{"type":"Feature","geometry":{"type":"Point","coordinates":[120.562941,31.748047]},"properties":{"region_id":"8956791154537880021","region_name":"顾山客运站","intensity":0,"avg_speed":62.77,"crowd_value_zs":0.1,"crowd_value_yj":1.048,"area":"江阴市","sort":54}},{"type":"Feature","geometry":{"type":"Point","coordinates":[120.242547,31.606709]},"properties":{"region_id":"3814112397871867364","region_name":"百乐广场","intensity":0,"avg_speed":60.88,"crowd_value_zs":1.9,"crowd_value_yj":1.044,"area":"惠山区","sort":55}},{"type":"Feature","geometry":{"type":"Point","coordinates":[120.096434,31.430284]},"properties":{"region_id":"5459760536453764034","region_name":"灵山胜境-灵山大佛","intensity":0,"avg_speed":51.8,"crowd_value_zs":0.35,"crowd_value_yj":1.0,"area":"滨湖区","sort":56}},{"type":"Feature","geometry":{"type":"Point","coordinates":[120.100855,31.425951]},"properties":{"region_id":"15148193511782822157","region_name":"灵山胜境","intensity":0,"avg_speed":52.01,"crowd_value_zs":3.19,"crowd_value_yj":0.997,"area":"滨湖区","sort":57}},{"type":"Feature","geometry":{"type":"Point","coordinates":[120.237205,31.583545]},"properties":{"region_id":"6152946985360625966","region_name":"无锡动物园（太湖欢乐园）","intensity":0,"avg_speed":53.32,"crowd_value_zs":3.16,"crowd_value_yj":0.994,"area":"滨湖区","sort":58}},{"type":"Feature","geometry":{"type":"Point","coordinates":[120.076651,31.419894]},"properties":{"region_id":"10769031920613086517","region_name":"灵山小镇拈花湾","intensity":0,"avg_speed":55.4,"crowd_value_zs":3.69,"crowd_value_yj":0.979,"area":"滨湖区","sort":59}},{"type":"Feature","geometry":{"type":"Point","coordinates":[120.10622,31.59424]},"properties":{"region_id":"14580741892223850146","region_name":"无锡阳山桃花源景区","intensity":0,"avg_speed":83.51,"crowd_value_zs":6.32,"crowd_value_yj":0.967,"area":"惠山区","sort":60}}]}}