{"msg":"获取成功！","end_at":"2024-03-19 10:09:21","data":{"type":"FeatureCollection","features":[{"type":"Feature","geometry":{"type":"Point","coordinates":[111.690393,40.823099]},"properties":{"region_id":"2680147133472277048","region_name":"劝业场","intensity":3,"avg_speed":12.13,"crowd_value_zs":0.4,"crowd_value_yj":3.763,"area":"新城区","sort":1}},{"type":"Feature","geometry":{"type":"Point","coordinates":[111.687065,40.826591]},"properties":{"region_id":"17999600341397536767","region_name":"清·将军衙署旧址","intensity":3,"avg_speed":13.81,"crowd_value_zs":2.04,"crowd_value_yj":3.416,"area":"新城区","sort":2}},{"type":"Feature","geometry":{"type":"Point","coordinates":[111.665574,40.831334]},"properties":{"region_id":"6895311165309527429","region_name":"呼和浩特站","intensity":3,"avg_speed":14.42,"crowd_value_zs":6.2,"crowd_value_yj":3.102,"area":"新城区","sort":3}},{"type":"Feature","geometry":{"type":"Point","coordinates":[111.708584,40.829646]},"properties":{"region_id":"17999602974212489215","region_name":"长乐宫购物中心","intensity":3,"avg_speed":14.08,"crowd_value_zs":3.32,"crowd_value_yj":3.065,"area":"赛罕区","sort":4}},{"type":"Feature","geometry":{"type":"Point","coordinates":[111.71028,40.83034]},"properties":{"region_id":"5924530077879723864","region_name":"维多利·摩尔城","intensity":3,"avg_speed":16.22,"crowd_value_zs":11.1,"crowd_value_yj":2.721,"area":"赛罕区","sort":5}},{"type":"Feature","geometry":{"type":"Point","coordinates":[111.67144,40.816375]},"properties":{"region_id":"15459609657890487334","region_name":"丰泰金翡丽广场","intensity":3,"avg_speed":13.41,"crowd_value_zs":1.14,"crowd_value_yj":2.66,"area":"新城区","sort":6}},{"type":"Feature","geometry":{"type":"Point","coordinates":[111.669127,40.816937]},"properties":{"region_id":"1260025426189746175","region_name":"维多利购物中心","intensity":3,"avg_speed":13.66,"crowd_value_zs":4.94,"crowd_value_yj":2.623,"area":"回民区","sort":7}},{"type":"Feature","geometry":{"type":"Point","coordinates":[111.667985,40.815802]},"properties":{"region_id":"13427452865548776802","region_name":"维多利商厦","intensity":3,"avg_speed":14.03,"crowd_value_zs":9.85,"crowd_value_yj":2.543,"area":"回民区","sort":8}},{"type":"Feature","geometry":{"type":"Point","coordinates":[111.715575,40.798486]},"properties":{"region_id":"5933999191329693650","region_name":"内蒙古自然历史博物馆","intensity":3,"avg_speed":24.16,"crowd_value_zs":0.67,"crowd_value_yj":2.369,"area":"赛罕区","sort":9}},{"type":"Feature","geometry":{"type":"Point","coordinates":[111.736015,40.834406]},"properties":{"region_id":"10436072692267739100","region_name":"万达广场-B区","intensity":3,"avg_speed":17.48,"crowd_value_zs":4.17,"crowd_value_yj":2.339,"area":"赛罕区","sort":10}},{"type":"Feature","geometry":{"type":"Point","coordinates":[111.734832,40.835791]},"properties":{"region_id":"5439995879124217254","region_name":"万达广场(呼和浩特店)","intensity":3,"avg_speed":19.64,"crowd_value_zs":12.74,"crowd_value_yj":2.327,"area":"赛罕区","sort":11}},{"type":"Feature","geometry":{"type":"Point","coordinates":[111.664276,40.830003]},"properties":{"region_id":"4417968326683648619","region_name":"呼和浩特长途汽车站","intensity":3,"avg_speed":18.55,"crowd_value_zs":0.49,"crowd_value_yj":2.312,"area":"新城区","sort":12}},{"type":"Feature","geometry":{"type":"Point","coordinates":[111.66524,40.815314]},"properties":{"region_id":"17999602982802423807","region_name":"宝马商城","intensity":3,"avg_speed":16.0,"crowd_value_zs":1.65,"crowd_value_yj":2.179,"area":"回民区","sort":13}},{"type":"Feature","geometry":{"type":"Point","coordinates":[111.6666,40.807589]},"properties":{"region_id":"14164977327514245380","region_name":"青城公园","intensity":3,"avg_speed":16.11,"crowd_value_zs":3.17,"crowd_value_yj":2.164,"area":"回民区","sort":14}},{"type":"Feature","geometry":{"type":"Point","coordinates":[111.666216,40.814226]},"properties":{"region_id":"1258198845318234111","region_name":"内蒙古民族商场","intensity":3,"avg_speed":16.23,"crowd_value_zs":2.74,"crowd_value_yj":2.148,"area":"回民区","sort":15}},{"type":"Feature","geometry":{"type":"Point","coordinates":[111.665619,40.81319]},"properties":{"region_id":"9891179298076910884","region_name":"星悦荟商厦","intensity":3,"avg_speed":16.78,"crowd_value_zs":0.61,"crowd_value_yj":2.053,"area":"回民区","sort":16}},{"type":"Feature","geometry":{"type":"Point","coordinates":[111.654838,40.831274]},"properties":{"region_id":"11224079207825776209","region_name":"呼和浩特汽车客运西站","intensity":3,"avg_speed":22.25,"crowd_value_zs":0.47,"crowd_value_yj":2.025,"area":"新城区","sort":17}},{"type":"Feature","geometry":{"type":"Point","coordinates":[111.738708,40.839651]},"properties":{"region_id":"17999600298447863807","region_name":"内蒙古博物院","intensity":3,"avg_speed":22.73,"crowd_value_zs":1.53,"crowd_value_yj":2.023,"area":"新城区","sort":18}},{"type":"Feature","geometry":{"type":"Point","coordinates":[111.733756,40.820858]},"properties":{"region_id":"8860132712810863864","region_name":"维多利万悦城","intensity":3,"avg_speed":18.14,"crowd_value_zs":1.78,"crowd_value_yj":2.022,"area":"赛罕区","sort":19}},{"type":"Feature","geometry":{"type":"Point","coordinates":[111.706996,40.78224]},"properties":{"region_id":"14991073552754827926","region_name":"凯元广场","intensity":2,"avg_speed":27.54,"crowd_value_zs":2.44,"crowd_value_yj":1.898,"area":"赛罕区","sort":20}},{"type":"Feature","geometry":{"type":"Point","coordinates":[111.698596,40.854084]},"properties":{"region_id":"17999597828841668607","region_name":"阿尔泰游乐园","intensity":2,"avg_speed":29.4,"crowd_value_zs":1.48,"crowd_value_yj":1.876,"area":"新城区","sort":21}},{"type":"Feature","geometry":{"type":"Point","coordinates":[111.738828,40.808024]},"properties":{"region_id":"16875407759243812628","region_name":"邻里荟购物中心","intensity":2,"avg_speed":25.43,"crowd_value_zs":0.95,"crowd_value_yj":1.875,"area":"赛罕区","sort":22}},{"type":"Feature","geometry":{"type":"Point","coordinates":[111.654239,40.799817]},"properties":{"region_id":"17999584664766906367","region_name":"大召无量寺","intensity":2,"avg_speed":20.7,"crowd_value_zs":1.53,"crowd_value_yj":1.816,"area":"玉泉区","sort":23}},{"type":"Feature","geometry":{"type":"Point","coordinates":[111.766971,40.814949]},"properties":{"region_id":"14850119690969980360","region_name":"敕勒川公园","intensity":2,"avg_speed":31.13,"crowd_value_zs":0.9,"crowd_value_yj":1.816,"area":"赛罕区","sort":24}},{"type":"Feature","geometry":{"type":"Point","coordinates":[111.663266,40.80341]},"properties":{"region_id":"1811046037014563192","region_name":"七彩城购物中心","intensity":2,"avg_speed":19.1,"crowd_value_zs":3.47,"crowd_value_yj":1.805,"area":"回民区","sort":25}},{"type":"Feature","geometry":{"type":"Point","coordinates":[111.683445,40.709659]},"properties":{"region_id":"1262679045963775999","region_name":"昭君墓","intensity":1,"avg_speed":35.57,"crowd_value_zs":0.29,"crowd_value_yj":1.754,"area":"玉泉区","sort":26}},{"type":"Feature","geometry":{"type":"Point","coordinates":[111.765948,40.849313]},"properties":{"region_id":"15407423556821920709","region_name":"呼和浩特东站","intensity":1,"avg_speed":33.26,"crowd_value_zs":11.03,"crowd_value_yj":1.676,"area":"新城区","sort":27}},{"type":"Feature","geometry":{"type":"Point","coordinates":[111.711395,40.862169]},"properties":{"region_id":"4449631842612099348","region_name":"成吉思汗公园","intensity":1,"avg_speed":33.87,"crowd_value_zs":1.64,"crowd_value_yj":1.672,"area":"新城区","sort":28}},{"type":"Feature","geometry":{"type":"Point","coordinates":[111.661977,40.793792]},"properties":{"region_id":"17999578651812691967","region_name":"通达长途汽车南站","intensity":1,"avg_speed":20.59,"crowd_value_zs":1.0,"crowd_value_yj":1.667,"area":"玉泉区","sort":29}},{"type":"Feature","geometry":{"type":"Point","coordinates":[111.73337,40.786846]},"properties":{"region_id":"9411428668465737724","region_name":"中海环宇天地","intensity":1,"avg_speed":28.34,"crowd_value_zs":2.18,"crowd_value_yj":1.535,"area":"赛罕区","sort":30}},{"type":"Feature","geometry":{"type":"Point","coordinates":[111.759432,40.852142]},"properties":{"region_id":"304827626216160874","region_name":"呼和浩特汽车客运中心东站","intensity":1,"avg_speed":34.88,"crowd_value_zs":0.04,"crowd_value_yj":1.528,"area":"新城区","sort":31}},{"type":"Feature","geometry":{"type":"Point","coordinates":[111.678355,40.857074]},"properties":{"region_id":"17444940950359188928","region_name":"滨海商业广场","intensity":1,"avg_speed":38.22,"crowd_value_zs":5.05,"crowd_value_yj":1.504,"area":"新城区","sort":32}},{"type":"Feature","geometry":{"type":"Point","coordinates":[111.691817,40.86487]},"properties":{"region_id":"1495955348237217658","region_name":"维多利喜悦汇","intensity":0,"avg_speed":39.54,"crowd_value_zs":3.8,"crowd_value_yj":1.449,"area":"新城区","sort":33}},{"type":"Feature","geometry":{"type":"Point","coordinates":[111.647046,40.744453]},"properties":{"region_id":"17999600448771719167","region_name":"南湖湿地公园","intensity":0,"avg_speed":40.08,"crowd_value_zs":1.73,"crowd_value_yj":1.403,"area":"玉泉区","sort":34}},{"type":"Feature","geometry":{"type":"Point","coordinates":[111.806871,40.378065]},"properties":{"region_id":"17999565947299430399","region_name":"呼运集团和林汽车站","intensity":0,"avg_speed":34.29,"crowd_value_zs":0.14,"crowd_value_yj":1.389,"area":"和林格尔县","sort":35}},{"type":"Feature","geometry":{"type":"Point","coordinates":[111.135268,40.711018]},"properties":{"region_id":"8721231747813357118","region_name":"察素齐汽车南站","intensity":0,"avg_speed":32.5,"crowd_value_zs":0.01,"crowd_value_yj":1.364,"area":"土默特左旗","sort":36}},{"type":"Feature","geometry":{"type":"Point","coordinates":[111.354691,40.523781]},"properties":{"region_id":"17627491852410159103","region_name":"古城镇汽车站","intensity":0,"avg_speed":59.3,"crowd_value_zs":0.0,"crowd_value_yj":1.346,"area":"托克托县","sort":37}},{"type":"Feature","geometry":{"type":"Point","coordinates":[111.462376,41.083713]},"properties":{"region_id":"18338126792791783506","region_name":"武川县汽车客运站","intensity":0,"avg_speed":34.4,"crowd_value_zs":0.05,"crowd_value_yj":1.293,"area":"武川县","sort":38}},{"type":"Feature","geometry":{"type":"Point","coordinates":[111.608525,40.831699]},"properties":{"region_id":"11749949705000150936","region_name":"万达广场","intensity":0,"avg_speed":45.7,"crowd_value_zs":3.47,"crowd_value_yj":1.288,"area":"回民区","sort":39}},{"type":"Feature","geometry":{"type":"Point","coordinates":[111.668426,39.915775]},"properties":{"region_id":"17999570006043525119","region_name":"呼运集团清水河汽车站","intensity":0,"avg_speed":36.62,"crowd_value_zs":0.27,"crowd_value_yj":1.279,"area":"清水河县","sort":40}},{"type":"Feature","geometry":{"type":"Point","coordinates":[111.657346,40.711329]},"properties":{"region_id":"11278161234440362221","region_name":"蒙古风情园","intensity":0,"avg_speed":52.74,"crowd_value_zs":0.18,"crowd_value_yj":1.26,"area":"玉泉区","sort":41}},{"type":"Feature","geometry":{"type":"Point","coordinates":[111.82714,40.853056]},"properties":{"region_id":"17244348960918050895","region_name":"呼和浩特白塔国际机场","intensity":0,"avg_speed":54.92,"crowd_value_zs":12.7,"crowd_value_yj":1.237,"area":"赛罕区","sort":42}},{"type":"Feature","geometry":{"type":"Point","coordinates":[111.20205,40.282125]},"properties":{"region_id":"17999605667156983807","region_name":"托克托汽车站","intensity":0,"avg_speed":39.47,"crowd_value_zs":0.19,"crowd_value_yj":1.229,"area":"托克托县","sort":43}},{"type":"Feature","geometry":{"type":"Point","coordinates":[111.620164,40.879778]},"properties":{"region_id":"17999598296993103871","region_name":"大青山野生动物园","intensity":0,"avg_speed":51.64,"crowd_value_zs":0.43,"crowd_value_yj":1.183,"area":"回民区","sort":44}},{"type":"Feature","geometry":{"type":"Point","coordinates":[111.128187,40.723234]},"properties":{"region_id":"17999614424595300351","region_name":"土默特左旗长途汽车站","intensity":0,"avg_speed":53.02,"crowd_value_zs":0.15,"crowd_value_yj":1.17,"area":"土默特左旗","sort":45}},{"type":"Feature","geometry":{"type":"Point","coordinates":[111.584888,40.848474]},"properties":{"region_id":"17999598292698136575","region_name":"乌素图国家森林公园","intensity":0,"avg_speed":63.81,"crowd_value_zs":0.13,"crowd_value_yj":1.153,"area":"回民区","sort":46}},{"type":"Feature","geometry":{"type":"Point","coordinates":[111.897815,40.621179]},"properties":{"region_id":"13102260974805016931","region_name":"和林格尔汽车站","intensity":0,"avg_speed":59.96,"crowd_value_zs":0.03,"crowd_value_yj":1.02,"area":"和林格尔县","sort":47}},{"type":"Feature","geometry":{"type":"Point","coordinates":[111.3209,40.35578]},"properties":{"region_id":"17671098981783961599","region_name":"伍什家汽车站","intensity":0,"avg_speed":107.14,"crowd_value_zs":0.0,"crowd_value_yj":0.972,"area":"托克托县","sort":48}},{"type":"Feature","geometry":{"type":"Point","coordinates":[111.221822,40.18252]},"properties":{"region_id":"17671099170762522623","region_name":"神泉生态旅游景区","intensity":0,"avg_speed":81.5,"crowd_value_zs":0.15,"crowd_value_yj":0.69,"area":"托克托县","sort":49}}]}}