{"msg":"获取成功！","end_at":"2024-03-19 10:08:49","data":{"type":"FeatureCollection","features":[{"type":"Feature","geometry":{"type":"Point","coordinates":[113.301757,40.088827]},"properties":{"region_id":"9533716062181913731","region_name":"华林商厦","intensity":2,"avg_speed":22.38,"crowd_value_zs":0.19,"crowd_value_yj":1.831,"area":"平城区","sort":1}},{"type":"Feature","geometry":{"type":"Point","coordinates":[113.301682,40.074314]},"properties":{"region_id":"9486658331065894599","region_name":"尚都","intensity":1,"avg_speed":21.62,"crowd_value_zs":0.47,"crowd_value_yj":1.726,"area":"平城区","sort":2}},{"type":"Feature","geometry":{"type":"Point","coordinates":[113.300214,40.087091]},"properties":{"region_id":"10651653308403290891","region_name":"善化寺","intensity":1,"avg_speed":23.32,"crowd_value_zs":0.36,"crowd_value_yj":1.718,"area":"平城区","sort":3}},{"type":"Feature","geometry":{"type":"Point","coordinates":[113.316283,40.086451]},"properties":{"region_id":"5363696611489359256","region_name":"国贸广场","intensity":1,"avg_speed":24.76,"crowd_value_zs":0.24,"crowd_value_yj":1.709,"area":"平城区","sort":4}},{"type":"Feature","geometry":{"type":"Point","coordinates":[113.301435,40.072634]},"properties":{"region_id":"14030298146629690260","region_name":"百盛购物中心(大同店)","intensity":1,"avg_speed":22.05,"crowd_value_zs":2.98,"crowd_value_yj":1.66,"area":"平城区","sort":5}},{"type":"Feature","geometry":{"type":"Point","coordinates":[113.301882,40.071471]},"properties":{"region_id":"13228329367944467576","region_name":"星茂汇","intensity":1,"avg_speed":21.61,"crowd_value_zs":2.15,"crowd_value_yj":1.647,"area":"平城区","sort":6}},{"type":"Feature","geometry":{"type":"Point","coordinates":[114.237902,39.438211]},"properties":{"region_id":"9633982797447617627","region_name":"灵丘华林商厦","intensity":1,"avg_speed":27.16,"crowd_value_zs":0.03,"crowd_value_yj":1.517,"area":"灵丘县","sort":7}},{"type":"Feature","geometry":{"type":"Point","coordinates":[113.172143,40.032108]},"properties":{"region_id":"16006091442187710126","region_name":"新平旺汽车站","intensity":0,"avg_speed":26.19,"crowd_value_zs":0.38,"crowd_value_yj":1.48,"area":"云冈区","sort":8}},{"type":"Feature","geometry":{"type":"Point","coordinates":[113.31055,40.065288]},"properties":{"region_id":"13358072906052145210","region_name":"明堂公园","intensity":0,"avg_speed":24.63,"crowd_value_zs":2.31,"crowd_value_yj":1.45,"area":"平城区","sort":9}},{"type":"Feature","geometry":{"type":"Point","coordinates":[114.227386,39.457577]},"properties":{"region_id":"17996293753450528767","region_name":"灵丘汽车客运站","intensity":0,"avg_speed":31.65,"crowd_value_zs":0.51,"crowd_value_yj":1.448,"area":"灵丘县","sort":10}},{"type":"Feature","geometry":{"type":"Point","coordinates":[113.342369,40.064972]},"properties":{"region_id":"11683921108101994512","region_name":"大同万达广场","intensity":0,"avg_speed":32.6,"crowd_value_zs":6.77,"crowd_value_yj":1.431,"area":"平城区","sort":11}},{"type":"Feature","geometry":{"type":"Point","coordinates":[113.296598,40.092058]},"properties":{"region_id":"17996306870280650751","region_name":"鼓楼","intensity":0,"avg_speed":29.07,"crowd_value_zs":0.24,"crowd_value_yj":1.42,"area":"平城区","sort":12}},{"type":"Feature","geometry":{"type":"Point","coordinates":[113.18198,40.040073]},"properties":{"region_id":"17996309743613771775","region_name":"府西(文化街)","intensity":0,"avg_speed":29.73,"crowd_value_zs":0.22,"crowd_value_yj":1.416,"area":"云冈区","sort":13}},{"type":"Feature","geometry":{"type":"Point","coordinates":[113.303871,40.0932]},"properties":{"region_id":"17730467696241278975","region_name":"九龙壁","intensity":0,"avg_speed":30.08,"crowd_value_zs":0.02,"crowd_value_yj":1.399,"area":"平城区","sort":14}},{"type":"Feature","geometry":{"type":"Point","coordinates":[113.319431,40.0935]},"properties":{"region_id":"7634155112788818726","region_name":"东小城","intensity":0,"avg_speed":34.47,"crowd_value_zs":0.73,"crowd_value_yj":1.398,"area":"平城区","sort":15}},{"type":"Feature","geometry":{"type":"Point","coordinates":[113.365169,40.046265]},"properties":{"region_id":"9690757689962132988","region_name":"大同南站","intensity":0,"avg_speed":39.82,"crowd_value_zs":4.02,"crowd_value_yj":1.388,"area":"平城区","sort":16}},{"type":"Feature","geometry":{"type":"Point","coordinates":[113.608342,40.043277]},"properties":{"region_id":"10125591016276955861","region_name":"大同县汽车客运站","intensity":0,"avg_speed":30.12,"crowd_value_zs":0.1,"crowd_value_yj":1.379,"area":"云州区","sort":17}},{"type":"Feature","geometry":{"type":"Point","coordinates":[113.185046,40.041943]},"properties":{"region_id":"2565627867377319505","region_name":"华亿摩尔城","intensity":0,"avg_speed":33.03,"crowd_value_zs":1.36,"crowd_value_yj":1.378,"area":"云冈区","sort":18}},{"type":"Feature","geometry":{"type":"Point","coordinates":[113.697865,39.69925]},"properties":{"region_id":"9624624433544765261","region_name":"锦联汇购物中心","intensity":0,"avg_speed":30.07,"crowd_value_zs":3.0,"crowd_value_yj":1.373,"area":"浑源县","sort":19}},{"type":"Feature","geometry":{"type":"Point","coordinates":[113.368322,40.059824]},"properties":{"region_id":"8220065389078977160","region_name":"大同方特欢乐世界","intensity":0,"avg_speed":35.96,"crowd_value_zs":1.74,"crowd_value_yj":1.372,"area":"平城区","sort":20}},{"type":"Feature","geometry":{"type":"Point","coordinates":[113.291201,40.046286]},"properties":{"region_id":"17996308223195348991","region_name":"新南公路客运站","intensity":0,"avg_speed":33.19,"crowd_value_zs":0.12,"crowd_value_yj":1.35,"area":"平城区","sort":21}},{"type":"Feature","geometry":{"type":"Point","coordinates":[113.295716,40.052841]},"properties":{"region_id":"984467407580978696","region_name":"希久摩尔城","intensity":0,"avg_speed":31.45,"crowd_value_zs":0.64,"crowd_value_yj":1.335,"area":"平城区","sort":22}},{"type":"Feature","geometry":{"type":"Point","coordinates":[113.292436,40.052884]},"properties":{"region_id":"14408016670819123974","region_name":"东信广场","intensity":0,"avg_speed":30.76,"crowd_value_zs":10.44,"crowd_value_yj":1.326,"area":"平城区","sort":23}},{"type":"Feature","geometry":{"type":"Point","coordinates":[112.708354,40.006011]},"properties":{"region_id":"17846037367731781631","region_name":"龙盛商厦","intensity":0,"avg_speed":36.36,"crowd_value_zs":0.01,"crowd_value_yj":1.324,"area":"左云县","sort":24}},{"type":"Feature","geometry":{"type":"Point","coordinates":[113.687739,39.684167]},"properties":{"region_id":"17996289093411012607","region_name":"浑源汽车站","intensity":0,"avg_speed":43.99,"crowd_value_zs":0.23,"crowd_value_yj":1.31,"area":"浑源县","sort":25}},{"type":"Feature","geometry":{"type":"Point","coordinates":[113.137826,40.102669]},"properties":{"region_id":"605185349865465060","region_name":"晋华宫国家矿山公园","intensity":0,"avg_speed":43.47,"crowd_value_zs":0.11,"crowd_value_yj":1.309,"area":"云冈区","sort":26}},{"type":"Feature","geometry":{"type":"Point","coordinates":[113.731857,40.354143]},"properties":{"region_id":"17996290755563356159","region_name":"阳高汽车客运站","intensity":0,"avg_speed":40.84,"crowd_value_zs":0.23,"crowd_value_yj":1.301,"area":"阳高县","sort":27}},{"type":"Feature","geometry":{"type":"Point","coordinates":[113.304092,40.120716]},"properties":{"region_id":"17996297391287828479","region_name":"大同站","intensity":0,"avg_speed":29.07,"crowd_value_zs":0.84,"crowd_value_yj":1.298,"area":"平城区","sort":28}},{"type":"Feature","geometry":{"type":"Point","coordinates":[113.301948,40.117408]},"properties":{"region_id":"17777350633392590810","region_name":"玄辰广场","intensity":0,"avg_speed":28.78,"crowd_value_zs":3.69,"crowd_value_yj":1.297,"area":"平城区","sort":29}},{"type":"Feature","geometry":{"type":"Point","coordinates":[113.304342,40.094561]},"properties":{"region_id":"2347530747482507939","region_name":"明代代王府","intensity":0,"avg_speed":31.96,"crowd_value_zs":0.02,"crowd_value_yj":1.296,"area":"平城区","sort":30}},{"type":"Feature","geometry":{"type":"Point","coordinates":[114.075045,40.419121]},"properties":{"region_id":"17996294724113137663","region_name":"天镇天运汽车站","intensity":0,"avg_speed":33.89,"crowd_value_zs":0.07,"crowd_value_yj":1.288,"area":"天镇县","sort":31}},{"type":"Feature","geometry":{"type":"Point","coordinates":[113.377554,40.088029]},"properties":{"region_id":"15057789228628713200","region_name":"文瀛湖森林公园","intensity":0,"avg_speed":35.34,"crowd_value_zs":1.64,"crowd_value_yj":1.278,"area":"平城区","sort":32}},{"type":"Feature","geometry":{"type":"Point","coordinates":[113.221501,40.001825]},"properties":{"region_id":"17660272717850476543","region_name":"矿区新平旺汽车站","intensity":0,"avg_speed":34.66,"crowd_value_zs":0.34,"crowd_value_yj":1.273,"area":"云冈区","sort":33}},{"type":"Feature","geometry":{"type":"Point","coordinates":[113.214097,40.00767]},"properties":{"region_id":"3852943707632483503","region_name":"嘉和众美商城","intensity":0,"avg_speed":33.1,"crowd_value_zs":2.58,"crowd_value_yj":1.263,"area":"云冈区","sort":34}},{"type":"Feature","geometry":{"type":"Point","coordinates":[113.295032,40.092502]},"properties":{"region_id":"7696639514947947510","region_name":"华严寺","intensity":0,"avg_speed":29.89,"crowd_value_zs":0.36,"crowd_value_yj":1.258,"area":"平城区","sort":35}},{"type":"Feature","geometry":{"type":"Point","coordinates":[113.286161,40.097284]},"properties":{"region_id":"6577990725920277652","region_name":"大同公园","intensity":0,"avg_speed":29.81,"crowd_value_zs":1.79,"crowd_value_yj":1.253,"area":"平城区","sort":36}},{"type":"Feature","geometry":{"type":"Point","coordinates":[113.287647,40.094275]},"properties":{"region_id":"12939851514763632900","region_name":"华林新天地","intensity":0,"avg_speed":29.38,"crowd_value_zs":5.07,"crowd_value_yj":1.249,"area":"平城区","sort":37}},{"type":"Feature","geometry":{"type":"Point","coordinates":[112.713411,40.02278]},"properties":{"region_id":"17996311208197619711","region_name":"左云汽车站","intensity":0,"avg_speed":39.12,"crowd_value_zs":0.29,"crowd_value_yj":1.231,"area":"左云县","sort":38}},{"type":"Feature","geometry":{"type":"Point","coordinates":[114.06234,40.437032]},"properties":{"region_id":"156884012909801180","region_name":"天镇汽车客运站","intensity":0,"avg_speed":47.11,"crowd_value_zs":0.06,"crowd_value_yj":1.198,"area":"天镇县","sort":39}},{"type":"Feature","geometry":{"type":"Point","coordinates":[113.367493,40.111505]},"properties":{"region_id":"683874557511904342","region_name":"大同汽车客运东站","intensity":0,"avg_speed":45.2,"crowd_value_zs":0.56,"crowd_value_yj":1.179,"area":"平城区","sort":40}},{"type":"Feature","geometry":{"type":"Point","coordinates":[113.486656,40.062729]},"properties":{"region_id":"6330660303081853775","region_name":"大同云冈机场","intensity":0,"avg_speed":51.76,"crowd_value_zs":1.23,"crowd_value_yj":1.168,"area":"云州区","sort":41}},{"type":"Feature","geometry":{"type":"Point","coordinates":[113.13782,40.113132]},"properties":{"region_id":"648618829726282946","region_name":"云冈石窟","intensity":0,"avg_speed":53.0,"crowd_value_zs":1.98,"crowd_value_yj":1.154,"area":"云冈区","sort":42}},{"type":"Feature","geometry":{"type":"Point","coordinates":[114.262075,39.759528]},"properties":{"region_id":"17167018862888849827","region_name":"广灵汽车站","intensity":0,"avg_speed":44.12,"crowd_value_zs":0.02,"crowd_value_yj":1.137,"area":"广灵县","sort":43}},{"type":"Feature","geometry":{"type":"Point","coordinates":[114.290708,39.326206]},"properties":{"region_id":"8269247376309236631","region_name":"桃花山风景区","intensity":0,"avg_speed":39.06,"crowd_value_zs":0.02,"crowd_value_yj":1.123,"area":"灵丘县","sort":44}},{"type":"Feature","geometry":{"type":"Point","coordinates":[113.143837,40.255207]},"properties":{"region_id":"17996306118661373951","region_name":"大同新荣汽车站","intensity":0,"avg_speed":37.99,"crowd_value_zs":0.22,"crowd_value_yj":1.072,"area":"新荣区","sort":45}},{"type":"Feature","geometry":{"type":"Point","coordinates":[113.72452,39.661715]},"properties":{"region_id":"6202629941895158524","region_name":"北岳恒山","intensity":0,"avg_speed":63.1,"crowd_value_zs":0.71,"crowd_value_yj":0.98,"area":"浑源县","sort":46}},{"type":"Feature","geometry":{"type":"Point","coordinates":[113.715398,39.660851]},"properties":{"region_id":"17730469495832575999","region_name":"悬空寺","intensity":0,"avg_speed":48.18,"crowd_value_zs":0.2,"crowd_value_yj":0.973,"area":"浑源县","sort":47}},{"type":"Feature","geometry":{"type":"Point","coordinates":[113.834875,39.978423]},"properties":{"region_id":"10553898552062582688","region_name":"乌龙峡","intensity":0,"avg_speed":49.2,"crowd_value_zs":0.04,"crowd_value_yj":0.945,"area":"云州区","sort":48}},{"type":"Feature","geometry":{"type":"Point","coordinates":[113.623727,40.112948]},"properties":{"region_id":"17846031943188086783","region_name":"大同火山群","intensity":0,"avg_speed":82.24,"crowd_value_zs":0.01,"crowd_value_yj":0.906,"area":"云州区","sort":49}}]}}