{"msg":"获取成功！","end_at":"2024-03-20 01:21:26","data":{"type":"FeatureCollection","features":[{"type":"Feature","geometry":{"type":"Point","coordinates":[113.571879,37.844465]},"properties":{"region_id":"8847190775553377114","region_name":"五龙宫","intensity":1,"avg_speed":27.78,"crowd_value_zs":0.02,"crowd_value_yj":1.663,"area":"城区","sort":1}},{"type":"Feature","geometry":{"type":"Point","coordinates":[113.581569,37.849145]},"properties":{"region_id":"17670602642478333951","region_name":"牡丹园","intensity":1,"avg_speed":24.91,"crowd_value_zs":0.15,"crowd_value_yj":1.582,"area":"城区","sort":2}},{"type":"Feature","geometry":{"type":"Point","coordinates":[113.635235,37.795571]},"properties":{"region_id":"17995918115610820607","region_name":"平定汽车站","intensity":1,"avg_speed":31.06,"crowd_value_zs":0.02,"crowd_value_yj":1.532,"area":"平定县","sort":3}},{"type":"Feature","geometry":{"type":"Point","coordinates":[113.582231,37.854527]},"properties":{"region_id":"17995930047029968895","region_name":"南山公园","intensity":0,"avg_speed":26.23,"crowd_value_zs":0.71,"crowd_value_yj":1.497,"area":"城区","sort":4}},{"type":"Feature","geometry":{"type":"Point","coordinates":[113.631985,37.80236]},"properties":{"region_id":"17995918360423956479","region_name":"金地商厦","intensity":0,"avg_speed":33.37,"crowd_value_zs":0.39,"crowd_value_yj":1.462,"area":"平定县","sort":5}},{"type":"Feature","geometry":{"type":"Point","coordinates":[113.62285,37.857151]},"properties":{"region_id":"10126962349148522546","region_name":"阳泉龙柱公园","intensity":0,"avg_speed":34.3,"crowd_value_zs":0.02,"crowd_value_yj":1.458,"area":"郊区","sort":6}},{"type":"Feature","geometry":{"type":"Point","coordinates":[113.544016,37.874022]},"properties":{"region_id":"17995927710567759871","region_name":"桥头商场","intensity":0,"avg_speed":30.93,"crowd_value_zs":0.21,"crowd_value_yj":1.45,"area":"矿区","sort":7}},{"type":"Feature","geometry":{"type":"Point","coordinates":[113.404106,38.086869]},"properties":{"region_id":"4831366170373055179","region_name":"凯通购物广场","intensity":0,"avg_speed":31.07,"crowd_value_zs":1.06,"crowd_value_yj":1.418,"area":"盂县","sort":8}},{"type":"Feature","geometry":{"type":"Point","coordinates":[113.415197,38.08545]},"properties":{"region_id":"8859674618053000301","region_name":"集贸购物中心","intensity":0,"avg_speed":29.81,"crowd_value_zs":0.09,"crowd_value_yj":1.412,"area":"盂县","sort":9}},{"type":"Feature","geometry":{"type":"Point","coordinates":[113.517169,37.884033]},"properties":{"region_id":"23341670361268689","region_name":"煤山公园","intensity":0,"avg_speed":38.93,"crowd_value_zs":0.02,"crowd_value_yj":1.411,"area":"矿区","sort":10}},{"type":"Feature","geometry":{"type":"Point","coordinates":[113.42212,38.077726]},"properties":{"region_id":"13538584927450846214","region_name":"盂县汽车客运站","intensity":0,"avg_speed":31.19,"crowd_value_zs":0.38,"crowd_value_yj":1.408,"area":"盂县","sort":11}},{"type":"Feature","geometry":{"type":"Point","coordinates":[113.414718,38.086925]},"properties":{"region_id":"17995922913089290239","region_name":"金振购物中心","intensity":0,"avg_speed":30.31,"crowd_value_zs":0.87,"crowd_value_yj":1.406,"area":"盂县","sort":12}},{"type":"Feature","geometry":{"type":"Point","coordinates":[113.587202,37.862804]},"properties":{"region_id":"17995928316158148607","region_name":"华联商厦","intensity":0,"avg_speed":26.47,"crowd_value_zs":0.3,"crowd_value_yj":1.393,"area":"城区","sort":13}},{"type":"Feature","geometry":{"type":"Point","coordinates":[113.58208,37.860868]},"properties":{"region_id":"14288995010973029417","region_name":"富百家时尚购物广场","intensity":0,"avg_speed":26.34,"crowd_value_zs":1.07,"crowd_value_yj":1.386,"area":"城区","sort":14}},{"type":"Feature","geometry":{"type":"Point","coordinates":[113.563278,37.859006]},"properties":{"region_id":"17670602633888399359","region_name":"彩石园","intensity":0,"avg_speed":33.7,"crowd_value_zs":0.07,"crowd_value_yj":1.383,"area":"矿区","sort":15}},{"type":"Feature","geometry":{"type":"Point","coordinates":[113.58839,37.862532]},"properties":{"region_id":"17670603093449900031","region_name":"百纺购物中心","intensity":0,"avg_speed":26.38,"crowd_value_zs":0.54,"crowd_value_yj":1.383,"area":"城区","sort":16}},{"type":"Feature","geometry":{"type":"Point","coordinates":[113.592316,37.857306]},"properties":{"region_id":"355137606304266389","region_name":"阳泉站","intensity":0,"avg_speed":27.44,"crowd_value_zs":0.99,"crowd_value_yj":1.377,"area":"城区","sort":17}},{"type":"Feature","geometry":{"type":"Point","coordinates":[113.5741,37.862542]},"properties":{"region_id":"17995930038440034303","region_name":"桃河公园","intensity":0,"avg_speed":31.14,"crowd_value_zs":12.75,"crowd_value_yj":1.375,"area":"城区","sort":18}},{"type":"Feature","geometry":{"type":"Point","coordinates":[113.58937,37.866368]},"properties":{"region_id":"17995930029850099711","region_name":"保晋文化园","intensity":0,"avg_speed":27.52,"crowd_value_zs":0.6,"crowd_value_yj":1.374,"area":"城区","sort":19}},{"type":"Feature","geometry":{"type":"Point","coordinates":[113.564809,37.868332]},"properties":{"region_id":"17995931245325844479","region_name":"天利购物广场","intensity":0,"avg_speed":31.7,"crowd_value_zs":0.34,"crowd_value_yj":1.369,"area":"矿区","sort":20}},{"type":"Feature","geometry":{"type":"Point","coordinates":[113.575305,37.865512]},"properties":{"region_id":"7545810185972898789","region_name":"城市广场","intensity":0,"avg_speed":28.87,"crowd_value_zs":3.35,"crowd_value_yj":1.358,"area":"城区","sort":21}},{"type":"Feature","geometry":{"type":"Point","coordinates":[113.580459,37.8663]},"properties":{"region_id":"17670602625298464767","region_name":"凯旋世纪广场","intensity":0,"avg_speed":27.61,"crowd_value_zs":0.52,"crowd_value_yj":1.351,"area":"城区","sort":22}},{"type":"Feature","geometry":{"type":"Point","coordinates":[113.60044,37.884604]},"properties":{"region_id":"13234332742916624214","region_name":"阳泉东站","intensity":0,"avg_speed":39.2,"crowd_value_zs":0.7,"crowd_value_yj":1.276,"area":"郊区","sort":23}},{"type":"Feature","geometry":{"type":"Point","coordinates":[113.440391,38.121575]},"properties":{"region_id":"5648920379549553614","region_name":"报国寺","intensity":0,"avg_speed":34.31,"crowd_value_zs":0.11,"crowd_value_yj":1.271,"area":"盂县","sort":24}},{"type":"Feature","geometry":{"type":"Point","coordinates":[113.505277,37.874843]},"properties":{"region_id":"13243207209363441109","region_name":"赛鱼公园","intensity":0,"avg_speed":41.67,"crowd_value_zs":0.23,"crowd_value_yj":1.266,"area":"矿区","sort":25}},{"type":"Feature","geometry":{"type":"Point","coordinates":[113.442975,38.114665]},"properties":{"region_id":"11631716085892385070","region_name":"生态植物园","intensity":0,"avg_speed":35.16,"crowd_value_zs":0.0,"crowd_value_yj":1.26,"area":"盂县","sort":26}},{"type":"Feature","geometry":{"type":"Point","coordinates":[113.661905,37.786365]},"properties":{"region_id":"14497441497866527223","region_name":"东升购物中心","intensity":0,"avg_speed":46.8,"crowd_value_zs":3.02,"crowd_value_yj":1.244,"area":"平定县","sort":27}},{"type":"Feature","geometry":{"type":"Point","coordinates":[113.438438,38.114194]},"properties":{"region_id":"17821139099636132838","region_name":"阳泉北站","intensity":0,"avg_speed":36.93,"crowd_value_zs":3.92,"crowd_value_yj":1.228,"area":"盂县","sort":28}},{"type":"Feature","geometry":{"type":"Point","coordinates":[113.475005,37.872283]},"properties":{"region_id":"8043246294235505443","region_name":"圣泉寺","intensity":0,"avg_speed":41.12,"crowd_value_zs":0.02,"crowd_value_yj":1.224,"area":"郊区","sort":29}},{"type":"Feature","geometry":{"type":"Point","coordinates":[113.609138,37.904627]},"properties":{"region_id":"13959056867550219774","region_name":"新城森林公园","intensity":0,"avg_speed":48.59,"crowd_value_zs":0.59,"crowd_value_yj":1.212,"area":"郊区","sort":30}},{"type":"Feature","geometry":{"type":"Point","coordinates":[113.635698,37.91629]},"properties":{"region_id":"17670602423435001855","region_name":"白泉客运站","intensity":0,"avg_speed":59.25,"crowd_value_zs":0.02,"crowd_value_yj":1.157,"area":"郊区","sort":31}},{"type":"Feature","geometry":{"type":"Point","coordinates":[113.601924,37.946766]},"properties":{"region_id":"9747202179448612915","region_name":"千亩坪公园","intensity":0,"avg_speed":56.72,"crowd_value_zs":0.07,"crowd_value_yj":1.099,"area":"郊区","sort":32}},{"type":"Feature","geometry":{"type":"Point","coordinates":[113.560919,37.896074]},"properties":{"region_id":"397890141859041891","region_name":"桃花源里公园","intensity":0,"avg_speed":52.51,"crowd_value_zs":0.15,"crowd_value_yj":1.081,"area":"郊区","sort":33}},{"type":"Feature","geometry":{"type":"Point","coordinates":[113.475225,38.054869]},"properties":{"region_id":"15894521997951501780","region_name":"永清寺","intensity":0,"avg_speed":85.24,"crowd_value_zs":0.02,"crowd_value_yj":1.075,"area":"盂县","sort":34}},{"type":"Feature","geometry":{"type":"Point","coordinates":[113.581687,37.782073]},"properties":{"region_id":"17995918390488727551","region_name":"冠山森林公园","intensity":0,"avg_speed":74.75,"crowd_value_zs":0.03,"crowd_value_yj":1.029,"area":"平定县","sort":35}},{"type":"Feature","geometry":{"type":"Point","coordinates":[113.52495,38.515955]},"properties":{"region_id":"3995070570946416786","region_name":"黑山大峡谷","intensity":0,"avg_speed":77.98,"crowd_value_zs":0.27,"crowd_value_yj":0.946,"area":"盂县","sort":36}}]}}