{"msg":"获取成功！","end_at":"2024-03-19 10:09:04","data":{"type":"FeatureCollection","features":[{"type":"Feature","geometry":{"type":"Point","coordinates":[114.974316,25.832224]},"properties":{"region_id":"1262872809118367743","region_name":"五龙客家风情园","intensity":3,"avg_speed":18.27,"crowd_value_zs":1.25,"crowd_value_yj":2.516,"area":"章贡区","sort":1}},{"type":"Feature","geometry":{"type":"Point","coordinates":[114.972479,25.838034]},"properties":{"region_id":"18002103220704378879","region_name":"赣州森林动物园","intensity":3,"avg_speed":19.95,"crowd_value_zs":0.13,"crowd_value_yj":2.36,"area":"章贡区","sort":2}},{"type":"Feature","geometry":{"type":"Point","coordinates":[114.96452,25.819141]},"properties":{"region_id":"13611229758520354203","region_name":"赣州站","intensity":3,"avg_speed":20.42,"crowd_value_zs":5.65,"crowd_value_yj":2.139,"area":"章贡区","sort":3}},{"type":"Feature","geometry":{"type":"Point","coordinates":[114.956243,25.831961]},"properties":{"region_id":"4085789781882704225","region_name":"九方·巨亿广场","intensity":3,"avg_speed":21.76,"crowd_value_zs":2.6,"crowd_value_yj":2.052,"area":"章贡区","sort":4}},{"type":"Feature","geometry":{"type":"Point","coordinates":[114.957325,25.841747]},"properties":{"region_id":"18002102585049219071","region_name":"赣州汽车站","intensity":3,"avg_speed":22.24,"crowd_value_zs":0.77,"crowd_value_yj":2.019,"area":"章贡区","sort":5}},{"type":"Feature","geometry":{"type":"Point","coordinates":[114.96218,25.817171]},"properties":{"region_id":"17500547953392099441","region_name":"赣州汽车客运站","intensity":2,"avg_speed":20.69,"crowd_value_zs":0.09,"crowd_value_yj":1.941,"area":"章贡区","sort":6}},{"type":"Feature","geometry":{"type":"Point","coordinates":[114.948689,25.863332]},"properties":{"region_id":"7233908748530441370","region_name":"赣州浮桥","intensity":2,"avg_speed":20.64,"crowd_value_zs":0.66,"crowd_value_yj":1.831,"area":"章贡区","sort":7}},{"type":"Feature","geometry":{"type":"Point","coordinates":[114.93852,25.865007]},"properties":{"region_id":"1259667376241115135","region_name":"郁孤台公园","intensity":2,"avg_speed":18.78,"crowd_value_zs":0.54,"crowd_value_yj":1.817,"area":"章贡区","sort":8}},{"type":"Feature","geometry":{"type":"Point","coordinates":[114.94611,25.820794]},"properties":{"region_id":"12175480613785098711","region_name":"宝能环球汇","intensity":1,"avg_speed":23.45,"crowd_value_zs":2.36,"crowd_value_yj":1.79,"area":"章贡区","sort":9}},{"type":"Feature","geometry":{"type":"Point","coordinates":[114.93981,25.828518]},"properties":{"region_id":"10734756944274951726","region_name":"万盛购物中心","intensity":1,"avg_speed":22.15,"crowd_value_zs":0.09,"crowd_value_yj":1.781,"area":"章贡区","sort":10}},{"type":"Feature","geometry":{"type":"Point","coordinates":[114.940093,25.850858]},"properties":{"region_id":"7901922414807486911","region_name":"天誉百货","intensity":1,"avg_speed":22.42,"crowd_value_zs":0.12,"crowd_value_yj":1.771,"area":"章贡区","sort":11}},{"type":"Feature","geometry":{"type":"Point","coordinates":[114.940343,25.84877]},"properties":{"region_id":"5093457277514423896","region_name":"步步高新天地","intensity":1,"avg_speed":22.68,"crowd_value_zs":2.85,"crowd_value_yj":1.732,"area":"章贡区","sort":12}},{"type":"Feature","geometry":{"type":"Point","coordinates":[114.936256,25.835625]},"properties":{"region_id":"1259667758493204479","region_name":"九方购物中心","intensity":1,"avg_speed":24.45,"crowd_value_zs":3.59,"crowd_value_yj":1.66,"area":"章贡区","sort":13}},{"type":"Feature","geometry":{"type":"Point","coordinates":[114.90306,25.834276]},"properties":{"region_id":"17833679711734071295","region_name":"赣州汽车南站","intensity":1,"avg_speed":32.01,"crowd_value_zs":0.23,"crowd_value_yj":1.585,"area":"章贡区","sort":14}},{"type":"Feature","geometry":{"type":"Point","coordinates":[114.777447,25.680908]},"properties":{"region_id":"17833682868535033855","region_name":"南康区汽车东站","intensity":1,"avg_speed":26.87,"crowd_value_zs":0.09,"crowd_value_yj":1.574,"area":"南康区","sort":15}},{"type":"Feature","geometry":{"type":"Point","coordinates":[114.756156,25.658714]},"properties":{"region_id":"13183137135953564525","region_name":"国光购物商城","intensity":1,"avg_speed":23.52,"crowd_value_zs":1.05,"crowd_value_yj":1.566,"area":"南康区","sort":16}},{"type":"Feature","geometry":{"type":"Point","coordinates":[114.914569,25.843049]},"properties":{"region_id":"17833679746093809663","region_name":"杨梅渡公园","intensity":1,"avg_speed":30.7,"crowd_value_zs":0.58,"crowd_value_yj":1.565,"area":"章贡区","sort":17}},{"type":"Feature","geometry":{"type":"Point","coordinates":[114.936596,25.380729]},"properties":{"region_id":"7219752229303173443","region_name":"桃江新天地购物中心","intensity":1,"avg_speed":26.85,"crowd_value_zs":0.87,"crowd_value_yj":1.558,"area":"信丰县","sort":18}},{"type":"Feature","geometry":{"type":"Point","coordinates":[116.015307,26.460389]},"properties":{"region_id":"1827990330489603737","region_name":"大润发惠民广场","intensity":1,"avg_speed":29.07,"crowd_value_zs":0.12,"crowd_value_yj":1.525,"area":"宁都县","sort":19}},{"type":"Feature","geometry":{"type":"Point","coordinates":[115.036949,24.764419]},"properties":{"region_id":"16582768661388810960","region_name":"定南汽车站","intensity":1,"avg_speed":29.17,"crowd_value_zs":0.15,"crowd_value_yj":1.523,"area":"定南县","sort":20}},{"type":"Feature","geometry":{"type":"Point","coordinates":[115.354879,26.336657]},"properties":{"region_id":"1457184897744994752","region_name":"太平洋购物广场","intensity":1,"avg_speed":29.55,"crowd_value_zs":0.99,"crowd_value_yj":1.503,"area":"兴国县","sort":21}},{"type":"Feature","geometry":{"type":"Point","coordinates":[114.942107,25.869824]},"properties":{"region_id":"1459060889230109939","region_name":"八境台","intensity":0,"avg_speed":25.57,"crowd_value_zs":0.56,"crowd_value_yj":1.498,"area":"章贡区","sort":22}},{"type":"Feature","geometry":{"type":"Point","coordinates":[114.764508,25.65339]},"properties":{"region_id":"14960775606960978546","region_name":"亚琦·城市商业中心","intensity":0,"avg_speed":25.13,"crowd_value_zs":1.83,"crowd_value_yj":1.493,"area":"南康区","sort":23}},{"type":"Feature","geometry":{"type":"Point","coordinates":[116.025022,26.459822]},"properties":{"region_id":"18002071339162140671","region_name":"宁都县汽车站","intensity":0,"avg_speed":28.63,"crowd_value_zs":0.08,"crowd_value_yj":1.49,"area":"宁都县","sort":24}},{"type":"Feature","geometry":{"type":"Point","coordinates":[116.350775,26.320951]},"properties":{"region_id":"18001962856878178303","region_name":"石城客运站","intensity":0,"avg_speed":30.72,"crowd_value_zs":0.13,"crowd_value_yj":1.482,"area":"石城县","sort":25}},{"type":"Feature","geometry":{"type":"Point","coordinates":[115.006628,25.863478]},"properties":{"region_id":"12133014303625952260","region_name":"赣县汽车站","intensity":0,"avg_speed":27.09,"crowd_value_zs":0.47,"crowd_value_yj":1.476,"area":"赣县区","sort":26}},{"type":"Feature","geometry":{"type":"Point","coordinates":[115.343515,26.333072]},"properties":{"region_id":"17833675820493701119","region_name":"兴国汽车总站","intensity":0,"avg_speed":30.59,"crowd_value_zs":0.21,"crowd_value_yj":1.475,"area":"兴国县","sort":27}},{"type":"Feature","geometry":{"type":"Point","coordinates":[116.044069,25.877828]},"properties":{"region_id":"14363100413786283988","region_name":"瑞金汽车站","intensity":0,"avg_speed":27.33,"crowd_value_zs":0.17,"crowd_value_yj":1.459,"area":"瑞金市","sort":28}},{"type":"Feature","geometry":{"type":"Point","coordinates":[115.406246,25.952932]},"properties":{"region_id":"17833676950070099967","region_name":"于都客运总站","intensity":0,"avg_speed":26.12,"crowd_value_zs":0.31,"crowd_value_yj":1.452,"area":"于都县","sort":29}},{"type":"Feature","geometry":{"type":"Point","coordinates":[114.55392,25.79118]},"properties":{"region_id":"16942087863063306447","region_name":"上犹汽车东站","intensity":0,"avg_speed":30.58,"crowd_value_zs":0.16,"crowd_value_yj":1.442,"area":"上犹县","sort":30}},{"type":"Feature","geometry":{"type":"Point","coordinates":[114.918855,25.810844]},"properties":{"region_id":"13428110517444109408","region_name":"赣州市博物馆新馆","intensity":0,"avg_speed":31.68,"crowd_value_zs":0.45,"crowd_value_yj":1.438,"area":"章贡区","sort":31}},{"type":"Feature","geometry":{"type":"Point","coordinates":[116.055734,25.862946]},"properties":{"region_id":"8885088809457562939","region_name":"瑞金站","intensity":0,"avg_speed":29.98,"crowd_value_zs":1.24,"crowd_value_yj":1.421,"area":"瑞金市","sort":32}},{"type":"Feature","geometry":{"type":"Point","coordinates":[115.02897,25.861325]},"properties":{"region_id":"17963928026664140799","region_name":"客家文化城","intensity":0,"avg_speed":31.44,"crowd_value_zs":1.55,"crowd_value_yj":1.406,"area":"赣县区","sort":33}},{"type":"Feature","geometry":{"type":"Point","coordinates":[115.413253,25.966419]},"properties":{"region_id":"369261155485047484","region_name":"喜晨大润发购物广场","intensity":0,"avg_speed":24.94,"crowd_value_zs":0.91,"crowd_value_yj":1.404,"area":"于都县","sort":34}},{"type":"Feature","geometry":{"type":"Point","coordinates":[114.545697,24.744357]},"properties":{"region_id":"18001938779291516927","region_name":"全南汽车站","intensity":0,"avg_speed":32.68,"crowd_value_zs":0.13,"crowd_value_yj":1.388,"area":"全南县","sort":35}},{"type":"Feature","geometry":{"type":"Point","coordinates":[114.920331,25.814099]},"properties":{"region_id":"17627435274805968895","region_name":"赣州城市中央公园","intensity":0,"avg_speed":31.32,"crowd_value_zs":2.9,"crowd_value_yj":1.387,"area":"章贡区","sort":36}},{"type":"Feature","geometry":{"type":"Point","coordinates":[115.022591,25.865413]},"properties":{"region_id":"18243384250438088409","region_name":"万邦购物中心","intensity":0,"avg_speed":29.88,"crowd_value_zs":0.29,"crowd_value_yj":1.372,"area":"赣县区","sort":37}},{"type":"Feature","geometry":{"type":"Point","coordinates":[114.926345,25.815513]},"properties":{"region_id":"17686904382106715485","region_name":"赣州华润万象城","intensity":0,"avg_speed":30.86,"crowd_value_zs":9.75,"crowd_value_yj":1.368,"area":"章贡区","sort":38}},{"type":"Feature","geometry":{"type":"Point","coordinates":[114.918845,25.352084]},"properties":{"region_id":"10839989450776473723","region_name":"信丰汽车总站","intensity":0,"avg_speed":34.77,"crowd_value_zs":0.46,"crowd_value_yj":1.363,"area":"信丰县","sort":39}},{"type":"Feature","geometry":{"type":"Point","coordinates":[115.4165,25.975093]},"properties":{"region_id":"14790496522491609598","region_name":"于都站","intensity":0,"avg_speed":26.97,"crowd_value_zs":1.35,"crowd_value_yj":1.348,"area":"于都县","sort":40}},{"type":"Feature","geometry":{"type":"Point","coordinates":[114.308461,25.668179]},"properties":{"region_id":"18001937099959304191","region_name":"崇义汽车站","intensity":0,"avg_speed":35.83,"crowd_value_zs":0.23,"crowd_value_yj":1.346,"area":"崇义县","sort":41}},{"type":"Feature","geometry":{"type":"Point","coordinates":[114.906864,25.3976]},"properties":{"region_id":"9050707699923924675","region_name":"信丰站","intensity":0,"avg_speed":32.25,"crowd_value_zs":0.09,"crowd_value_yj":1.343,"area":"信丰县","sort":42}},{"type":"Feature","geometry":{"type":"Point","coordinates":[115.665379,24.96926]},"properties":{"region_id":"14907278290796183393","region_name":"寻乌客运站","intensity":0,"avg_speed":37.39,"crowd_value_zs":0.49,"crowd_value_yj":1.336,"area":"寻乌县","sort":43}},{"type":"Feature","geometry":{"type":"Point","coordinates":[114.946219,25.802285]},"properties":{"region_id":"10536208462892127714","region_name":"杉杉奥特莱斯广场","intensity":0,"avg_speed":32.53,"crowd_value_zs":1.06,"crowd_value_yj":1.329,"area":"章贡区","sort":44}},{"type":"Feature","geometry":{"type":"Point","coordinates":[114.753242,25.633516]},"properties":{"region_id":"13430536834367546924","region_name":"中国南康百家姓和谐城","intensity":0,"avg_speed":37.06,"crowd_value_zs":0.21,"crowd_value_yj":1.326,"area":"南康区","sort":45}},{"type":"Feature","geometry":{"type":"Point","coordinates":[114.861388,25.844218]},"properties":{"region_id":"6906825046239023116","region_name":"西城广场","intensity":0,"avg_speed":51.8,"crowd_value_zs":0.85,"crowd_value_yj":1.178,"area":"章贡区","sort":46}},{"type":"Feature","geometry":{"type":"Point","coordinates":[115.985104,26.507312]},"properties":{"region_id":"17833675197723443199","region_name":"翠微峰景区","intensity":0,"avg_speed":49.08,"crowd_value_zs":0.04,"crowd_value_yj":1.149,"area":"宁都县","sort":47}},{"type":"Feature","geometry":{"type":"Point","coordinates":[114.722265,24.608598]},"properties":{"region_id":"598068064073021169","region_name":"南武当旅游景区","intensity":0,"avg_speed":65.91,"crowd_value_zs":0.34,"crowd_value_yj":1.131,"area":"龙南市","sort":48}},{"type":"Feature","geometry":{"type":"Point","coordinates":[114.406982,25.463581]},"properties":{"region_id":"6413657085643715650","region_name":"丫山景区","intensity":0,"avg_speed":52.2,"crowd_value_zs":0.42,"crowd_value_yj":1.127,"area":"大余县","sort":49}},{"type":"Feature","geometry":{"type":"Point","coordinates":[114.338518,25.565712]},"properties":{"region_id":"18001937387722113023","region_name":"阳岭国家森林公园","intensity":0,"avg_speed":49.91,"crowd_value_zs":2.88,"crowd_value_yj":1.096,"area":"崇义县","sort":50}},{"type":"Feature","geometry":{"type":"Point","coordinates":[114.929231,25.911594]},"properties":{"region_id":"7011519414282244175","region_name":"赣州极地海洋世界","intensity":0,"avg_speed":60.64,"crowd_value_zs":0.07,"crowd_value_yj":1.071,"area":"章贡区","sort":51}},{"type":"Feature","geometry":{"type":"Point","coordinates":[114.907683,25.915792]},"properties":{"region_id":"17833706727078363135","region_name":"通天岩","intensity":0,"avg_speed":72.29,"crowd_value_zs":0.22,"crowd_value_yj":1.042,"area":"章贡区","sort":52}},{"type":"Feature","geometry":{"type":"Point","coordinates":[115.425379,24.998252]},"properties":{"region_id":"18002092788228816895","region_name":"三百山国家级风景名胜区","intensity":0,"avg_speed":76.47,"crowd_value_zs":0.5,"crowd_value_yj":1.037,"area":"安远县","sort":53}},{"type":"Feature","geometry":{"type":"Point","coordinates":[115.777059,25.169971]},"properties":{"region_id":"1849981603581417470","region_name":"汉仙岩风景区","intensity":0,"avg_speed":36.71,"crowd_value_zs":1.64,"crowd_value_yj":0.999,"area":"会昌县","sort":54}},{"type":"Feature","geometry":{"type":"Point","coordinates":[116.366652,26.269303]},"properties":{"region_id":"14334406610857233180","region_name":"通天寨风景区","intensity":0,"avg_speed":66.72,"crowd_value_zs":0.04,"crowd_value_yj":0.974,"area":"石城县","sort":55}},{"type":"Feature","geometry":{"type":"Point","coordinates":[114.944516,24.844812]},"properties":{"region_id":"5001869222985807937","region_name":"关西新围","intensity":0,"avg_speed":85.61,"crowd_value_zs":0.04,"crowd_value_yj":0.938,"area":"龙南市","sort":56}}]}}