{"msg":"获取成功！","end_at":"2024-03-19 10:09:08","data":{"type":"FeatureCollection","features":[{"type":"Feature","geometry":{"type":"Point","coordinates":[126.64934,45.719466]},"properties":{"region_id":"1263782783839371263","region_name":"乐松购物广场","intensity":3,"avg_speed":22.93,"crowd_value_zs":5.56,"crowd_value_yj":2.303,"area":"香坊区","sort":1}},{"type":"Feature","geometry":{"type":"Point","coordinates":[126.680378,45.748157]},"properties":{"region_id":"17661279277796032511","region_name":"龙塔","intensity":1,"avg_speed":22.15,"crowd_value_zs":2.02,"crowd_value_yj":1.719,"area":"南岗区","sort":2}},{"type":"Feature","geometry":{"type":"Point","coordinates":[126.605686,45.757429]},"properties":{"region_id":"18386846552132103301","region_name":"卓展购物中心(哈尔滨店)","intensity":1,"avg_speed":23.03,"crowd_value_zs":1.65,"crowd_value_yj":1.678,"area":"道里区","sort":3}},{"type":"Feature","geometry":{"type":"Point","coordinates":[126.578165,45.702315]},"properties":{"region_id":"16301672663296265594","region_name":"哈西公路客运站","intensity":1,"avg_speed":19.97,"crowd_value_zs":1.4,"crowd_value_yj":1.677,"area":"南岗区","sort":4}},{"type":"Feature","geometry":{"type":"Point","coordinates":[126.592824,45.703864]},"properties":{"region_id":"6603079442240813137","region_name":"西城红场","intensity":1,"avg_speed":21.17,"crowd_value_zs":15.5,"crowd_value_yj":1.63,"area":"南岗区","sort":5}},{"type":"Feature","geometry":{"type":"Point","coordinates":[126.678267,45.740496]},"properties":{"region_id":"1263864130519957503","region_name":"万达广场(香坊店)","intensity":1,"avg_speed":21.5,"crowd_value_zs":5.34,"crowd_value_yj":1.63,"area":"香坊区","sort":6}},{"type":"Feature","geometry":{"type":"Point","coordinates":[126.540724,45.736784]},"properties":{"region_id":"6476677191626757632","region_name":"银泰城购物中心","intensity":1,"avg_speed":26.47,"crowd_value_zs":12.53,"crowd_value_yj":1.616,"area":"道里区","sort":7}},{"type":"Feature","geometry":{"type":"Point","coordinates":[126.577916,45.706854]},"properties":{"region_id":"2320003394417085821","region_name":"哈尔滨西站","intensity":1,"avg_speed":23.63,"crowd_value_zs":14.78,"crowd_value_yj":1.595,"area":"南岗区","sort":8}},{"type":"Feature","geometry":{"type":"Point","coordinates":[126.609064,45.721142]},"properties":{"region_id":"1268874053711090688","region_name":"凯德广场学府路店","intensity":1,"avg_speed":24.57,"crowd_value_zs":11.63,"crowd_value_yj":1.585,"area":"南岗区","sort":9}},{"type":"Feature","geometry":{"type":"Point","coordinates":[126.566766,45.743263]},"properties":{"region_id":"11951935399333752942","region_name":"群力丁香公园","intensity":1,"avg_speed":24.39,"crowd_value_zs":1.29,"crowd_value_yj":1.573,"area":"道里区","sort":10}},{"type":"Feature","geometry":{"type":"Point","coordinates":[126.556817,45.738057]},"properties":{"region_id":"15792435211293903475","region_name":"远大购物中心(群力店)","intensity":1,"avg_speed":22.69,"crowd_value_zs":7.65,"crowd_value_yj":1.564,"area":"道里区","sort":11}},{"type":"Feature","geometry":{"type":"Point","coordinates":[126.58711,45.700453]},"properties":{"region_id":"10997349249246222395","region_name":"万达广场(哈尔滨哈西店)","intensity":1,"avg_speed":22.1,"crowd_value_zs":23.56,"crowd_value_yj":1.547,"area":"南岗区","sort":12}},{"type":"Feature","geometry":{"type":"Point","coordinates":[126.607791,45.986213]},"properties":{"region_id":"1974412560393049951","region_name":"哈尔滨呼兰公路客运站","intensity":1,"avg_speed":22.55,"crowd_value_zs":0.1,"crowd_value_yj":1.535,"area":"呼兰区","sort":13}},{"type":"Feature","geometry":{"type":"Point","coordinates":[126.711712,45.788138]},"properties":{"region_id":"4926614168258660910","region_name":"哈尔滨东站","intensity":0,"avg_speed":32.42,"crowd_value_zs":4.69,"crowd_value_yj":1.482,"area":"道外区","sort":14}},{"type":"Feature","geometry":{"type":"Point","coordinates":[126.607296,45.975637]},"properties":{"region_id":"10001200389727810025","region_name":"萧红故居","intensity":0,"avg_speed":24.85,"crowd_value_zs":0.65,"crowd_value_yj":1.46,"area":"呼兰区","sort":15}},{"type":"Feature","geometry":{"type":"Point","coordinates":[126.656169,45.760906]},"properties":{"region_id":"6442285854678883017","region_name":"儿童公园","intensity":0,"avg_speed":25.57,"crowd_value_zs":2.61,"crowd_value_yj":1.452,"area":"南岗区","sort":16}},{"type":"Feature","geometry":{"type":"Point","coordinates":[126.566134,45.732793]},"properties":{"region_id":"15149471316729835844","region_name":"王府井购物中心","intensity":0,"avg_speed":27.0,"crowd_value_zs":5.62,"crowd_value_yj":1.448,"area":"道里区","sort":17}},{"type":"Feature","geometry":{"type":"Point","coordinates":[126.698505,45.757555]},"properties":{"region_id":"9769689187492902062","region_name":"红博中央公园","intensity":0,"avg_speed":28.05,"crowd_value_zs":10.83,"crowd_value_yj":1.448,"area":"南岗区","sort":18}},{"type":"Feature","geometry":{"type":"Point","coordinates":[126.696534,45.774267]},"properties":{"region_id":"18010098779067252735","region_name":"古梨园","intensity":0,"avg_speed":29.4,"crowd_value_zs":1.13,"crowd_value_yj":1.406,"area":"道外区","sort":19}},{"type":"Feature","geometry":{"type":"Point","coordinates":[126.559051,45.876543]},"properties":{"region_id":"5459084150747275293","region_name":"哈尔滨杉杉奥特莱斯广场","intensity":0,"avg_speed":24.19,"crowd_value_zs":6.96,"crowd_value_yj":1.396,"area":"呼兰区","sort":20}},{"type":"Feature","geometry":{"type":"Point","coordinates":[126.676662,45.784192]},"properties":{"region_id":"14717725304751586505","region_name":"百盛购物中心(太平桥店)","intensity":0,"avg_speed":28.23,"crowd_value_zs":8.53,"crowd_value_yj":1.383,"area":"道外区","sort":21}},{"type":"Feature","geometry":{"type":"Point","coordinates":[126.630997,45.760497]},"properties":{"region_id":"13756477031251031258","region_name":"哈尔滨站","intensity":0,"avg_speed":24.28,"crowd_value_zs":21.67,"crowd_value_yj":1.373,"area":"南岗区","sort":22}},{"type":"Feature","geometry":{"type":"Point","coordinates":[127.991436,45.20929]},"properties":{"region_id":"18010006437270388735","region_name":"尚志公路客运站","intensity":0,"avg_speed":33.76,"crowd_value_zs":0.15,"crowd_value_yj":1.366,"area":"尚志市","sort":23}},{"type":"Feature","geometry":{"type":"Point","coordinates":[126.971444,45.539983]},"properties":{"region_id":"18010111569479860223","region_name":"阿城客运站","intensity":0,"avg_speed":26.63,"crowd_value_zs":0.41,"crowd_value_yj":1.359,"area":"阿城区","sort":24}},{"type":"Feature","geometry":{"type":"Point","coordinates":[126.309653,45.381476]},"properties":{"region_id":"5714431420034438950","region_name":"双城客运总站","intensity":0,"avg_speed":27.13,"crowd_value_zs":0.83,"crowd_value_yj":1.35,"area":"双城区","sort":25}},{"type":"Feature","geometry":{"type":"Point","coordinates":[127.396545,46.081862]},"properties":{"region_id":"11530587888002475952","region_name":"巴彦县公路客运站","intensity":0,"avg_speed":30.27,"crowd_value_zs":0.15,"crowd_value_yj":1.339,"area":"巴彦县","sort":26}},{"type":"Feature","geometry":{"type":"Point","coordinates":[128.8389,45.851498]},"properties":{"region_id":"17672033162940645375","region_name":"方正客运站","intensity":0,"avg_speed":29.28,"crowd_value_zs":0.07,"crowd_value_yj":1.337,"area":"方正县","sort":27}},{"type":"Feature","geometry":{"type":"Point","coordinates":[126.965589,45.544618]},"properties":{"region_id":"7823406978793799084","region_name":"北新路客运站","intensity":0,"avg_speed":27.24,"crowd_value_zs":1.25,"crowd_value_yj":1.335,"area":"阿城区","sort":28}},{"type":"Feature","geometry":{"type":"Point","coordinates":[126.668902,45.780298]},"properties":{"region_id":"13115872598131398631","region_name":"哈尔滨文化公园","intensity":0,"avg_speed":28.53,"crowd_value_zs":0.77,"crowd_value_yj":1.332,"area":"南岗区","sort":29}},{"type":"Feature","geometry":{"type":"Point","coordinates":[126.709246,45.790336]},"properties":{"region_id":"18022484752584751921","region_name":"三棵树公路客运站","intensity":0,"avg_speed":34.01,"crowd_value_zs":0.17,"crowd_value_yj":1.331,"area":"道外区","sort":30}},{"type":"Feature","geometry":{"type":"Point","coordinates":[126.684823,45.883206]},"properties":{"region_id":"10872019546821749365","region_name":"波塞冬旅游度假区","intensity":0,"avg_speed":39.79,"crowd_value_zs":0.38,"crowd_value_yj":1.316,"area":"呼兰区","sort":31}},{"type":"Feature","geometry":{"type":"Point","coordinates":[126.994744,45.552334]},"properties":{"region_id":"19135508450202338","region_name":"阿城站","intensity":0,"avg_speed":39.66,"crowd_value_zs":0.28,"crowd_value_yj":1.314,"area":"阿城区","sort":32}},{"type":"Feature","geometry":{"type":"Point","coordinates":[126.537464,45.809987]},"properties":{"region_id":"10280900036184164702","region_name":"华润欢乐颂","intensity":0,"avg_speed":36.02,"crowd_value_zs":6.94,"crowd_value_yj":1.292,"area":"松北区","sort":33}},{"type":"Feature","geometry":{"type":"Point","coordinates":[126.503089,45.80329]},"properties":{"region_id":"3136396417386996747","region_name":"哈尔滨万达茂","intensity":0,"avg_speed":28.48,"crowd_value_zs":7.59,"crowd_value_yj":1.279,"area":"松北区","sort":34}},{"type":"Feature","geometry":{"type":"Point","coordinates":[126.616647,45.778887]},"properties":{"region_id":"1263877668256874495","region_name":"百盛购物中心(哈尔滨店)","intensity":0,"avg_speed":22.77,"crowd_value_zs":2.46,"crowd_value_yj":1.276,"area":"道里区","sort":35}},{"type":"Feature","geometry":{"type":"Point","coordinates":[126.617213,45.780575]},"properties":{"region_id":"1258600094047928319","region_name":"哈尔滨市人民防洪胜利纪念塔","intensity":0,"avg_speed":23.17,"crowd_value_zs":1.41,"crowd_value_yj":1.276,"area":"道里区","sort":36}},{"type":"Feature","geometry":{"type":"Point","coordinates":[126.636449,45.609448]},"properties":{"region_id":"15330417487562123667","region_name":"侵华日军第七三一部队遗址","intensity":0,"avg_speed":27.98,"crowd_value_zs":1.27,"crowd_value_yj":1.276,"area":"平房区","sort":37}},{"type":"Feature","geometry":{"type":"Point","coordinates":[127.158252,45.756897]},"properties":{"region_id":"3674466683700230853","region_name":"宾西客运站","intensity":0,"avg_speed":35.9,"crowd_value_zs":0.07,"crowd_value_yj":1.258,"area":"宾县","sort":38}},{"type":"Feature","geometry":{"type":"Point","coordinates":[126.601838,45.817802]},"properties":{"region_id":"16277634221244980772","region_name":"东北虎林园","intensity":0,"avg_speed":31.18,"crowd_value_zs":0.76,"crowd_value_yj":1.252,"area":"松北区","sort":39}},{"type":"Feature","geometry":{"type":"Point","coordinates":[126.639968,45.781721]},"properties":{"region_id":"2956105334530487408","region_name":"中华巴洛克","intensity":0,"avg_speed":26.42,"crowd_value_zs":5.35,"crowd_value_yj":1.248,"area":"道外区","sort":40}},{"type":"Feature","geometry":{"type":"Point","coordinates":[126.64249,45.778474]},"properties":{"region_id":"18010098680283004927","region_name":"道外客运站","intensity":0,"avg_speed":26.42,"crowd_value_zs":1.44,"crowd_value_yj":1.245,"area":"道外区","sort":41}},{"type":"Feature","geometry":{"type":"Point","coordinates":[126.620101,45.771706]},"properties":{"region_id":"1260052660577370111","region_name":"金安国际购物广场","intensity":0,"avg_speed":23.11,"crowd_value_zs":4.85,"crowd_value_yj":1.242,"area":"道里区","sort":42}},{"type":"Feature","geometry":{"type":"Point","coordinates":[126.587195,45.785116]},"properties":{"region_id":"3784840143082670881","region_name":"哈尔滨极地馆","intensity":0,"avg_speed":45.07,"crowd_value_zs":0.33,"crowd_value_yj":1.24,"area":"松北区","sort":43}},{"type":"Feature","geometry":{"type":"Point","coordinates":[126.612655,45.779396]},"properties":{"region_id":"2605897639001233861","region_name":"斯大林公园","intensity":0,"avg_speed":23.56,"crowd_value_zs":3.23,"crowd_value_yj":1.233,"area":"道里区","sort":44}},{"type":"Feature","geometry":{"type":"Point","coordinates":[128.316193,45.448065]},"properties":{"region_id":"16428107394451524742","region_name":"延寿客运","intensity":0,"avg_speed":36.79,"crowd_value_zs":0.32,"crowd_value_yj":1.216,"area":"延寿县","sort":45}},{"type":"Feature","geometry":{"type":"Point","coordinates":[128.745196,45.984238]},"properties":{"region_id":"18010123685582602239","region_name":"通河公路客运站","intensity":0,"avg_speed":31.46,"crowd_value_zs":0.25,"crowd_value_yj":1.215,"area":"通河县","sort":46}},{"type":"Feature","geometry":{"type":"Point","coordinates":[126.640942,45.757572]},"properties":{"region_id":"2682408408692442019","region_name":"黑龙江省博物馆","intensity":0,"avg_speed":26.73,"crowd_value_zs":0.36,"crowd_value_yj":1.212,"area":"南岗区","sort":47}},{"type":"Feature","geometry":{"type":"Point","coordinates":[126.293334,45.397567]},"properties":{"region_id":"5214167840507003776","region_name":"双城堡站","intensity":0,"avg_speed":38.96,"crowd_value_zs":0.99,"crowd_value_yj":1.211,"area":"双城区","sort":48}},{"type":"Feature","geometry":{"type":"Point","coordinates":[126.6248,45.770077]},"properties":{"region_id":"1260273692479324159","region_name":"大商新一百购物广场","intensity":0,"avg_speed":24.67,"crowd_value_zs":7.22,"crowd_value_yj":1.201,"area":"道里区","sort":49}},{"type":"Feature","geometry":{"type":"Point","coordinates":[126.643671,45.759258]},"properties":{"region_id":"1258601850689552383","region_name":"松雷商业大厦(南岗店)","intensity":0,"avg_speed":26.22,"crowd_value_zs":13.21,"crowd_value_yj":1.2,"area":"南岗区","sort":50}},{"type":"Feature","geometry":{"type":"Point","coordinates":[126.643872,45.760553]},"properties":{"region_id":"1263810653882155007","region_name":"远大购物中心(果戈里大街)","intensity":0,"avg_speed":26.18,"crowd_value_zs":4.13,"crowd_value_yj":1.198,"area":"南岗区","sort":51}},{"type":"Feature","geometry":{"type":"Point","coordinates":[127.147853,44.920491]},"properties":{"region_id":"5137647417490286425","region_name":"五常客运站","intensity":0,"avg_speed":31.14,"crowd_value_zs":0.31,"crowd_value_yj":1.192,"area":"五常市","sort":52}},{"type":"Feature","geometry":{"type":"Point","coordinates":[126.627295,45.770086]},"properties":{"region_id":"3637132218388093936","region_name":"圣索菲亚教堂","intensity":0,"avg_speed":25.08,"crowd_value_zs":2.86,"crowd_value_yj":1.181,"area":"道里区","sort":53}},{"type":"Feature","geometry":{"type":"Point","coordinates":[126.53935,45.851457]},"properties":{"region_id":"9059807468940531245","region_name":"哈尔滨公路客运北站","intensity":0,"avg_speed":48.04,"crowd_value_zs":0.64,"crowd_value_yj":1.18,"area":"呼兰区","sort":54}},{"type":"Feature","geometry":{"type":"Point","coordinates":[126.462699,45.822248]},"properties":{"region_id":"10992293716619593806","region_name":"枫叶小镇奥特莱斯","intensity":0,"avg_speed":34.75,"crowd_value_zs":2.91,"crowd_value_yj":1.172,"area":"松北区","sort":55}},{"type":"Feature","geometry":{"type":"Point","coordinates":[127.115367,45.393455]},"properties":{"region_id":"18010096481259749375","region_name":"北方森林动物园","intensity":0,"avg_speed":93.3,"crowd_value_zs":0.21,"crowd_value_yj":1.086,"area":"阿城区","sort":56}},{"type":"Feature","geometry":{"type":"Point","coordinates":[126.903819,45.673086]},"properties":{"region_id":"17626665036845940735","region_name":"哈尔滨伏尔加庄园","intensity":0,"avg_speed":54.4,"crowd_value_zs":0.51,"crowd_value_yj":1.073,"area":"香坊区","sort":57}},{"type":"Feature","geometry":{"type":"Point","coordinates":[127.432915,45.722949]},"properties":{"region_id":"18010022208390299647","region_name":"二龙山风景区","intensity":0,"avg_speed":77.22,"crowd_value_zs":9.6,"crowd_value_yj":0.979,"area":"宾县","sort":58}},{"type":"Feature","geometry":{"type":"Point","coordinates":[127.432928,45.482422]},"properties":{"region_id":"1570278487960862556","region_name":"金龙山国际旅游度假区","intensity":0,"avg_speed":52.92,"crowd_value_zs":1.87,"crowd_value_yj":0.962,"area":"阿城区","sort":59}},{"type":"Feature","geometry":{"type":"Point","coordinates":[127.530742,45.578357]},"properties":{"region_id":"15370701694966005211","region_name":"香炉山国家森林公园","intensity":0,"avg_speed":72.26,"crowd_value_zs":0.02,"crowd_value_yj":0.622,"area":"宾县","sort":60}}]}}