{"msg":"获取成功！","end_at":"2024-03-20 01:21:00","data":{"type":"FeatureCollection","features":[{"type":"Feature","geometry":{"type":"Point","coordinates":[87.603583,43.859924]},"properties":{"region_id":"14101900824794642820","region_name":"乌鲁木齐北郊客运站","intensity":3,"avg_speed":21.77,"crowd_value_zs":0.1,"crowd_value_yj":2.591,"area":"水磨沟区","sort":1}},{"type":"Feature","geometry":{"type":"Point","coordinates":[87.623083,43.792462]},"properties":{"region_id":"17993481743872557055","region_name":"毛泽民故居","intensity":3,"avg_speed":15.21,"crowd_value_zs":0.06,"crowd_value_yj":2.402,"area":"天山区","sort":2}},{"type":"Feature","geometry":{"type":"Point","coordinates":[87.535795,43.860524]},"properties":{"region_id":"13763639775066427149","region_name":"友好时尚购物城","intensity":3,"avg_speed":21.32,"crowd_value_zs":1.43,"crowd_value_yj":2.358,"area":"新市区","sort":3}},{"type":"Feature","geometry":{"type":"Point","coordinates":[87.625984,43.794391]},"properties":{"region_id":"1262754577258643455","region_name":"天山百货(中山路)","intensity":3,"avg_speed":16.3,"crowd_value_zs":0.67,"crowd_value_yj":2.295,"area":"天山区","sort":4}},{"type":"Feature","geometry":{"type":"Point","coordinates":[87.661438,43.827682]},"properties":{"region_id":"18115972925831672245","region_name":"水磨沟风景区","intensity":3,"avg_speed":23.69,"crowd_value_zs":0.39,"crowd_value_yj":2.229,"area":"水磨沟区","sort":5}},{"type":"Feature","geometry":{"type":"Point","coordinates":[87.583712,43.869273]},"properties":{"region_id":"18295497438357561969","region_name":"友好时尚购物中心","intensity":3,"avg_speed":17.97,"crowd_value_zs":2.17,"crowd_value_yj":2.173,"area":"新市区","sort":6}},{"type":"Feature","geometry":{"type":"Point","coordinates":[87.580205,43.851166]},"properties":{"region_id":"17993473025088946175","region_name":"鲤鱼山公园","intensity":3,"avg_speed":21.62,"crowd_value_zs":1.74,"crowd_value_yj":2.112,"area":"新市区","sort":7}},{"type":"Feature","geometry":{"type":"Point","coordinates":[87.591261,43.775616]},"properties":{"region_id":"15984765882623126063","region_name":"地王国际商城(地王中路)","intensity":3,"avg_speed":23.2,"crowd_value_zs":1.75,"crowd_value_yj":2.089,"area":"沙依巴克区","sort":8}},{"type":"Feature","geometry":{"type":"Point","coordinates":[87.561951,43.86868]},"properties":{"region_id":"1260143159833264127","region_name":"北京西单商场(新疆店)","intensity":2,"avg_speed":19.41,"crowd_value_zs":0.4,"crowd_value_yj":1.992,"area":"新市区","sort":9}},{"type":"Feature","geometry":{"type":"Point","coordinates":[87.560365,43.867179]},"properties":{"region_id":"14511840275173824915","region_name":"太百","intensity":2,"avg_speed":20.16,"crowd_value_zs":0.61,"crowd_value_yj":1.976,"area":"新市区","sort":10}},{"type":"Feature","geometry":{"type":"Point","coordinates":[87.586182,43.782634]},"properties":{"region_id":"15648929578097178793","region_name":"军供客运站","intensity":2,"avg_speed":23.28,"crowd_value_zs":0.52,"crowd_value_yj":1.951,"area":"沙依巴克区","sort":11}},{"type":"Feature","geometry":{"type":"Point","coordinates":[87.556767,43.876192]},"properties":{"region_id":"15894723683797560225","region_name":"新疆汇嘉时代(北京路店)","intensity":2,"avg_speed":18.68,"crowd_value_zs":2.25,"crowd_value_yj":1.931,"area":"新市区","sort":12}},{"type":"Feature","geometry":{"type":"Point","coordinates":[87.570064,43.848415]},"properties":{"region_id":"8245392796570988595","region_name":"福润德购物中心","intensity":2,"avg_speed":22.83,"crowd_value_zs":1.25,"crowd_value_yj":1.92,"area":"新市区","sort":13}},{"type":"Feature","geometry":{"type":"Point","coordinates":[87.533215,43.842379]},"properties":{"region_id":"17353909578133666926","region_name":"乌鲁木齐高铁国际汽车客运站","intensity":2,"avg_speed":27.23,"crowd_value_zs":3.94,"crowd_value_yj":1.916,"area":"沙依巴克区","sort":14}},{"type":"Feature","geometry":{"type":"Point","coordinates":[87.61835,43.793925]},"properties":{"region_id":"1259249239700013055","region_name":"汇嘉时代","intensity":2,"avg_speed":22.52,"crowd_value_zs":0.17,"crowd_value_yj":1.896,"area":"天山区","sort":15}},{"type":"Feature","geometry":{"type":"Point","coordinates":[87.604975,43.808614]},"properties":{"region_id":"54087857069803195","region_name":"红山公园","intensity":2,"avg_speed":24.68,"crowd_value_zs":0.7,"crowd_value_yj":1.869,"area":"水磨沟区","sort":16}},{"type":"Feature","geometry":{"type":"Point","coordinates":[87.600954,43.8047]},"properties":{"region_id":"1260033904455188479","region_name":"百盛购物中心(新疆友好店)","intensity":2,"avg_speed":25.37,"crowd_value_zs":0.23,"crowd_value_yj":1.862,"area":"沙依巴克区","sort":17}},{"type":"Feature","geometry":{"type":"Point","coordinates":[87.585819,43.780155]},"properties":{"region_id":"7084041601247967766","region_name":"乌鲁木齐南站","intensity":2,"avg_speed":23.14,"crowd_value_zs":1.61,"crowd_value_yj":1.856,"area":"沙依巴克区","sort":18}},{"type":"Feature","geometry":{"type":"Point","coordinates":[87.585347,43.787848]},"properties":{"region_id":"224827401954009409","region_name":"万达广场(乌鲁木齐德汇店)","intensity":2,"avg_speed":24.75,"crowd_value_zs":3.34,"crowd_value_yj":1.851,"area":"沙依巴克区","sort":19}},{"type":"Feature","geometry":{"type":"Point","coordinates":[87.587672,43.817921]},"properties":{"region_id":"12743548122869521148","region_name":"明园客运站","intensity":2,"avg_speed":27.68,"crowd_value_zs":0.1,"crowd_value_yj":1.848,"area":"沙依巴克区","sort":20}},{"type":"Feature","geometry":{"type":"Point","coordinates":[87.618014,43.779983]},"properties":{"region_id":"1262684977313611775","region_name":"新疆国际大巴扎","intensity":2,"avg_speed":23.78,"crowd_value_zs":1.59,"crowd_value_yj":1.836,"area":"天山区","sort":21}},{"type":"Feature","geometry":{"type":"Point","coordinates":[87.529243,43.84138]},"properties":{"region_id":"14173454714477803258","region_name":"乌鲁木齐站","intensity":2,"avg_speed":26.62,"crowd_value_zs":27.86,"crowd_value_yj":1.807,"area":"沙依巴克区","sort":22}},{"type":"Feature","geometry":{"type":"Point","coordinates":[87.608473,43.802464]},"properties":{"region_id":"1258916375439605759","region_name":"红山新世纪购物广场","intensity":2,"avg_speed":25.09,"crowd_value_zs":0.76,"crowd_value_yj":1.806,"area":"天山区","sort":23}},{"type":"Feature","geometry":{"type":"Point","coordinates":[87.608615,43.804032]},"properties":{"region_id":"10771799901892780559","region_name":"世纪金花时代广场","intensity":1,"avg_speed":25.72,"crowd_value_zs":2.98,"crowd_value_yj":1.776,"area":"天山区","sort":24}},{"type":"Feature","geometry":{"type":"Point","coordinates":[87.604263,43.798448]},"properties":{"region_id":"3518525248983566273","region_name":"人民公园","intensity":1,"avg_speed":24.48,"crowd_value_zs":1.58,"crowd_value_yj":1.774,"area":"沙依巴克区","sort":25}},{"type":"Feature","geometry":{"type":"Point","coordinates":[87.581232,43.832664]},"properties":{"region_id":"4035959889133553850","region_name":"儿童公园","intensity":1,"avg_speed":26.3,"crowd_value_zs":1.29,"crowd_value_yj":1.713,"area":"沙依巴克区","sort":26}},{"type":"Feature","geometry":{"type":"Point","coordinates":[87.517554,43.841876]},"properties":{"region_id":"4192332261646903967","region_name":"乌鲁木齐万达广场店","intensity":1,"avg_speed":24.5,"crowd_value_zs":1.66,"crowd_value_yj":1.683,"area":"沙依巴克区","sort":27}},{"type":"Feature","geometry":{"type":"Point","coordinates":[87.513761,43.83936]},"properties":{"region_id":"5775026555371113558","region_name":"盛达广场","intensity":1,"avg_speed":24.33,"crowd_value_zs":0.54,"crowd_value_yj":1.671,"area":"沙依巴克区","sort":28}},{"type":"Feature","geometry":{"type":"Point","coordinates":[87.576951,43.799016]},"properties":{"region_id":"12768289318276346110","region_name":"雅玛里克山旅游风景区","intensity":1,"avg_speed":31.15,"crowd_value_zs":1.02,"crowd_value_yj":1.645,"area":"沙依巴克区","sort":29}},{"type":"Feature","geometry":{"type":"Point","coordinates":[87.583201,43.879937]},"properties":{"region_id":"10748934808446436236","region_name":"天盈新世界广场","intensity":1,"avg_speed":20.05,"crowd_value_zs":0.5,"crowd_value_yj":1.608,"area":"新市区","sort":30}},{"type":"Feature","geometry":{"type":"Point","coordinates":[87.625776,43.767624]},"properties":{"region_id":"8838573136682035856","region_name":"瑞达·边疆世贸中心","intensity":1,"avg_speed":21.6,"crowd_value_zs":0.49,"crowd_value_yj":1.597,"area":"天山区","sort":31}},{"type":"Feature","geometry":{"type":"Point","coordinates":[87.523334,43.801335]},"properties":{"region_id":"5436403357310988772","region_name":"西山老君庙","intensity":1,"avg_speed":39.56,"crowd_value_zs":0.07,"crowd_value_yj":1.592,"area":"沙依巴克区","sort":32}},{"type":"Feature","geometry":{"type":"Point","coordinates":[87.606826,43.766728]},"properties":{"region_id":"1259245941165129727","region_name":"南公园","intensity":1,"avg_speed":30.17,"crowd_value_zs":1.57,"crowd_value_yj":1.567,"area":"天山区","sort":33}},{"type":"Feature","geometry":{"type":"Point","coordinates":[87.556057,43.890563]},"properties":{"region_id":"10591820359784637633","region_name":"乌鲁木齐市植物园","intensity":1,"avg_speed":22.88,"crowd_value_zs":0.52,"crowd_value_yj":1.562,"area":"新市区","sort":34}},{"type":"Feature","geometry":{"type":"Point","coordinates":[87.504541,43.837897]},"properties":{"region_id":"15040437856830170816","region_name":"小绿谷","intensity":1,"avg_speed":25.68,"crowd_value_zs":1.83,"crowd_value_yj":1.549,"area":"沙依巴克区","sort":35}},{"type":"Feature","geometry":{"type":"Point","coordinates":[87.6429,43.968199]},"properties":{"region_id":"17670399391740985343","region_name":"人民公园","intensity":0,"avg_speed":26.16,"crowd_value_zs":0.41,"crowd_value_yj":1.414,"area":"米东区","sort":36}},{"type":"Feature","geometry":{"type":"Point","coordinates":[87.612888,43.821957]},"properties":{"region_id":"1259245872445652991","region_name":"乌鲁木齐博物馆","intensity":0,"avg_speed":35.3,"crowd_value_zs":0.22,"crowd_value_yj":1.402,"area":"水磨沟区","sort":37}},{"type":"Feature","geometry":{"type":"Point","coordinates":[87.609225,43.761709]},"properties":{"region_id":"5178230085964080830","region_name":"南郊客运站","intensity":0,"avg_speed":35.41,"crowd_value_zs":0.12,"crowd_value_yj":1.394,"area":"天山区","sort":38}},{"type":"Feature","geometry":{"type":"Point","coordinates":[87.613131,43.756361]},"properties":{"region_id":"1131579264418144116","region_name":"乌鲁木齐市水上乐园","intensity":0,"avg_speed":37.02,"crowd_value_zs":0.6,"crowd_value_yj":1.362,"area":"天山区","sort":39}},{"type":"Feature","geometry":{"type":"Point","coordinates":[87.644519,43.770007]},"properties":{"region_id":"1258916336784900095","region_name":"西域国际商贸城","intensity":0,"avg_speed":28.88,"crowd_value_zs":0.04,"crowd_value_yj":1.36,"area":"天山区","sort":40}},{"type":"Feature","geometry":{"type":"Point","coordinates":[87.648724,43.954138]},"properties":{"region_id":"3556339988960495412","region_name":"乌鲁木齐市米东区客运站","intensity":0,"avg_speed":29.12,"crowd_value_zs":0.18,"crowd_value_yj":1.358,"area":"米东区","sort":41}},{"type":"Feature","geometry":{"type":"Point","coordinates":[87.421703,43.870192]},"properties":{"region_id":"17993477539099574271","region_name":"乌鲁木齐西站","intensity":0,"avg_speed":34.09,"crowd_value_zs":0.79,"crowd_value_yj":1.322,"area":"头屯河区","sort":42}},{"type":"Feature","geometry":{"type":"Point","coordinates":[87.480671,43.90613]},"properties":{"region_id":"15244882986511386746","region_name":"乌鲁木齐地窝堡国际机场","intensity":0,"avg_speed":45.7,"crowd_value_zs":19.0,"crowd_value_yj":1.258,"area":"新市区","sort":43}},{"type":"Feature","geometry":{"type":"Point","coordinates":[87.41505,43.986031]},"properties":{"region_id":"17993471324281896959","region_name":"五一农场客运站","intensity":0,"avg_speed":30.93,"crowd_value_zs":0.08,"crowd_value_yj":1.249,"area":"头屯河区","sort":44}},{"type":"Feature","geometry":{"type":"Point","coordinates":[87.572127,43.910842]},"properties":{"region_id":"3600656432678949690","region_name":"高新万达广场","intensity":0,"avg_speed":29.44,"crowd_value_zs":1.42,"crowd_value_yj":1.23,"area":"新市区","sort":45}},{"type":"Feature","geometry":{"type":"Point","coordinates":[87.431161,43.828582]},"properties":{"region_id":"14439827915486317439","region_name":"奥特莱斯","intensity":0,"avg_speed":43.13,"crowd_value_zs":0.96,"crowd_value_yj":1.201,"area":"乌鲁木齐县","sort":46}},{"type":"Feature","geometry":{"type":"Point","coordinates":[87.652371,43.461219]},"properties":{"region_id":"5941894327958503004","region_name":"乌鲁木齐县托里客运站","intensity":0,"avg_speed":36.76,"crowd_value_zs":0.0,"crowd_value_yj":1.188,"area":"乌鲁木齐县","sort":47}},{"type":"Feature","geometry":{"type":"Point","coordinates":[87.377977,43.934997]},"properties":{"region_id":"6727436180373343352","region_name":"亚心花海主题乐园","intensity":0,"avg_speed":42.48,"crowd_value_zs":0.19,"crowd_value_yj":1.156,"area":"头屯河区","sort":48}},{"type":"Feature","geometry":{"type":"Point","coordinates":[87.459031,43.75607]},"properties":{"region_id":"17993468871855570943","region_name":"新疆九龙生态园","intensity":0,"avg_speed":57.89,"crowd_value_zs":0.55,"crowd_value_yj":1.156,"area":"沙依巴克区","sort":49}},{"type":"Feature","geometry":{"type":"Point","coordinates":[87.796879,44.035714]},"properties":{"region_id":"17993470018611838975","region_name":"米东新区客运站","intensity":0,"avg_speed":38.81,"crowd_value_zs":0.01,"crowd_value_yj":1.141,"area":"米东区","sort":50}},{"type":"Feature","geometry":{"type":"Point","coordinates":[87.469829,43.463191]},"properties":{"region_id":"17993401084386738175","region_name":"乌鲁木齐水西沟客运站","intensity":0,"avg_speed":46.34,"crowd_value_zs":0.02,"crowd_value_yj":1.084,"area":"乌鲁木齐县","sort":51}},{"type":"Feature","geometry":{"type":"Point","coordinates":[87.639887,44.005743]},"properties":{"region_id":"10544430123490120245","region_name":"太平渠客运站","intensity":0,"avg_speed":77.01,"crowd_value_zs":0.01,"crowd_value_yj":1.082,"area":"米东区","sort":52}},{"type":"Feature","geometry":{"type":"Point","coordinates":[87.164694,43.416683]},"properties":{"region_id":"8477787970161499961","region_name":"白杨沟风景区","intensity":0,"avg_speed":49.13,"crowd_value_zs":0.27,"crowd_value_yj":1.066,"area":"乌鲁木齐县","sort":53}},{"type":"Feature","geometry":{"type":"Point","coordinates":[87.786254,43.668632]},"properties":{"region_id":"17993485656587763711","region_name":"天山野生动物园","intensity":0,"avg_speed":52.55,"crowd_value_zs":0.02,"crowd_value_yj":1.031,"area":"达坂城区","sort":54}},{"type":"Feature","geometry":{"type":"Point","coordinates":[87.590329,44.141223]},"properties":{"region_id":"17993469975662166015","region_name":"羊毛工汽车站","intensity":0,"avg_speed":50.95,"crowd_value_zs":0.01,"crowd_value_yj":1.023,"area":"米东区","sort":55}},{"type":"Feature","geometry":{"type":"Point","coordinates":[88.314586,43.358514]},"properties":{"region_id":"17854840461550682111","region_name":"达坂城客运站","intensity":0,"avg_speed":46.77,"crowd_value_zs":0.06,"crowd_value_yj":1.018,"area":"达坂城区","sort":56}},{"type":"Feature","geometry":{"type":"Point","coordinates":[88.372015,43.463367]},"properties":{"region_id":"8472039205329094316","region_name":"乌鲁木齐市西沟客运站","intensity":0,"avg_speed":51.96,"crowd_value_zs":0.04,"crowd_value_yj":1.004,"area":"达坂城区","sort":57}},{"type":"Feature","geometry":{"type":"Point","coordinates":[87.382903,43.689317]},"properties":{"region_id":"4716259715905328823","region_name":"西山农场客运站","intensity":0,"avg_speed":46.45,"crowd_value_zs":0.15,"crowd_value_yj":0.956,"area":"沙依巴克区","sort":58}},{"type":"Feature","geometry":{"type":"Point","coordinates":[87.335631,43.677304]},"properties":{"region_id":"17993400899703144447","region_name":"亚洲大陆地理中心","intensity":0,"avg_speed":49.82,"crowd_value_zs":0.01,"crowd_value_yj":0.904,"area":"乌鲁木齐县","sort":59}},{"type":"Feature","geometry":{"type":"Point","coordinates":[88.495091,43.52598]},"properties":{"region_id":"17993470091626283007","region_name":"乌鲁木齐市阿克苏客运站","intensity":0,"avg_speed":52.34,"crowd_value_zs":0.0,"crowd_value_yj":0.746,"area":"达坂城区","sort":60}}]}}